{
    "trip_info": {
        "destination": "tokyo",
        "duration": "3 days (requested: 3 days)",
        "group_size": 2,
        "budget": "high",
        "interests": "Ẩm Thực"
    },
    "itinerary": {
        "day_1": {
            "morning": {
                "activity": "Visit Meiji Jingu",
                "location": "1-1 Yoyogikamizonocho, Shibuya, Tokyo 151-8557, Japan",
                "coordinates": {
                    "latitude": 35.6763976,
                    "longitude": 139.6993259
                },
                "rating": 4.6,
                "category": "tourist attractions",
                "time": "09:00-12:00"
            },
            "lunch": {
                "activity": "Lunch at Momo Paradise Shinjuku Higashi-guchi",
                "location": "ヒューマックスパビリオン新宿東口 3F・4F, 3 Chome-28-10 Shinjuku, Shinjuku City, Tokyo 160-0022, Japan",
                "coordinates": {
                    "latitude": 35.6910075,
                    "longitude": 139.7026367
                },
                "rating": 4.9,
                "category": "restaurants",
                "time": "12:00-13:30"
            },
            "afternoon": {
                "activity": "Visit Shibuya Sky",
                "location": "Japan, 〒150-6145 Tokyo, Shibuya, 2 Chome−24−12 スクランブルスクエア 14階・45階, 46階・屋上",
                "coordinates": {
                    "latitude": 35.6586719,
                    "longitude": 139.7019848
                },
                "rating": 4.6,
                "category": "tourist attractions",
                "time": "14:00-17:00"
            },
            "dinner": {
                "activity": "Dinner at Akasaka Sushi Koshikawa",
                "location": "コシハラトレード赤坂ビル ２階, 5 Chome-4-14 Akasaka, Minato City, Tokyo 107-0052, Japan",
                "coordinates": {
                    "latitude": 35.671309199999996,
                    "longitude": 139.735229
                },
                "rating": 4.8,
                "category": "restaurants",
                "time": "18:00-20:00"
            }
        },
        "day_2": {
            "morning": {
                "activity": "Visit Tokyo Night & Light",
                "location": "2 Chome-8-1 Nishishinjuku, Shinjuku City, Tokyo 163-8001, Japan",
                "coordinates": {
                    "latitude": 35.6896633,
                    "longitude": 139.6928239
                },
                "rating": 4.6,
                "category": "tourist attractions",
                "time": "09:00-12:00"
            },
            "lunch": {
                "activity": "Lunch at CENSU TOKYO",
                "location": "2 Chome-12-9 Jingumae, Shibuya, Tokyo 150-0001, Japan",
                "coordinates": {
                    "latitude": 35.6743246,
                    "longitude": 139.71239789999998
                },
                "rating": 4.7,
                "category": "restaurants",
                "time": "12:00-13:30"
            },
            "afternoon": {
                "activity": "Visit Shibuya Scramble Crossing",
                "location": "Shibuya, Tokyo, Japan",
                "coordinates": {
                    "latitude": 35.659482,
                    "longitude": 139.7005596
                },
                "rating": 4.5,
                "category": "tourist attractions",
                "time": "14:00-17:00"
            },
            "dinner": {
                "activity": "Dinner at Sushi Hichou",
                "location": "Japan, 〒150-0031 Tokyo, Shibuya, 桜ヶ丘3−4, 渋谷サクラステージ SAKURAサイド1F",
                "coordinates": {
                    "latitude": 35.6559854,
                    "longitude": 139.7025954
                },
                "rating": 4.6,
                "category": "restaurants",
                "time": "18:00-20:00"
            }
        },
        "day_3": {
            "morning": {
                "activity": "Visit Tokyo Tower",
                "location": "4 Chome-2-8 Shibakoen, Minato City, Tokyo 105-0011, Japan",
                "coordinates": {
                    "latitude": 35.6585805,
                    "longitude": 139.7454329
                },
                "rating": 4.5,
                "category": "tourist attractions",
                "time": "09:00-12:00"
            },
            "lunch": {
                "activity": "Lunch at Menya NOBUNAGA【Ramen Restaurant】",
                "location": "2 Chome-5-2 Kyobashi, Chuo City, Tokyo 104-0031, Japan",
                "coordinates": {
                    "latitude": 35.6764708,
                    "longitude": 139.7704784
                },
                "rating": 4.7,
                "category": "restaurants",
                "time": "12:00-13:30"
            },
            "afternoon": {
                "activity": "Visit Hamarikyu Gardens",
                "location": "1-1 Hamarikyuteien, Chuo City, Tokyo 104-0046, Japan",
                "coordinates": {
                    "latitude": 35.6596559,
                    "longitude": 139.7634091
                },
                "rating": 4.4,
                "category": "tourist attractions",
                "time": "14:00-17:00"
            },
            "dinner": {
                "activity": "Dinner at Ode",
                "location": "ST広尾 ２F, 5 Chome-1-32 Hiroo, Shibuya, Tokyo 150-0012, Japan",
                "coordinates": {
                    "latitude": 35.6491154,
                    "longitude": 139.71902409999998
                },
                "rating": 4.5,
                "category": "restaurants",
                "time": "18:00-20:00"
            }
        }
    },
    "notes": [
        "Itinerary optimized for 2 people",
        "Only create itinerary for days with sufficient place data",
        "Places within same day are grouped nearby to save travel time",
        "Recommend booking reservations for high-end restaurants",
        "Bring offline maps and cash"
    ]
}