[
    {
        "category": "tourist attractions",
        "title": "Rijksmuseum",
        "rating": 4.7,
        "address": "Museumstraat 1, 1071 XX Amsterdam, Netherlands",
        "latitude": 52.3599976,
        "longitude": 4.8852188
    },
    {
        "category": "tourist attractions",
        "title": "Van Gogh Museum",
        "rating": 4.6,
        "address": "Museumplein 6, 1071 DJ Amsterdam, Netherlands",
        "latitude": 52.3580757,
        "longitude": 4.8812052999999995
    },
    {
        "category": "tourist attractions",
        "title": "Anne Frank House",
        "rating": 4.5,
        "address": "Westermarkt 20, 1016 GV Amsterdam, Netherlands",
        "latitude": 52.3752182,
        "longitude": 4.8839765
    },
    {
        "category": "tourist attractions",
        "title": "Vondelpark",
        "rating": 4.7,
        "address": "1071 AA Amsterdam, Netherlands",
        "latitude": 52.3579946,
        "longitude": 4.8686484
    },
    {
        "category": "tourist attractions",
        "title": "Dungeon Amsterdam",
        "rating": 4.5,
        "address": "The Amsterdam Dungeon, Rokin 78, 1012 KW Amsterdam, Netherlands",
        "latitude": 52.3701599,
        "longitude": 4.8921108
    },
    {
        "category": "tourist attractions",
        "title": "Munttoren",
        "rating": 4.5,
        "address": "Muntplein 12/14, 1012 WR Amsterdam, Netherlands",
        "latitude": 52.367041,
        "longitude": 4.8932901
    },
    {
        "category": "tourist attractions",
        "title": "ARTIS",
        "rating": 4.5,
        "address": "Plantage Kerklaan 38-40, 1018 CZ Amsterdam, Netherlands",
        "latitude": 52.366000299999996,
        "longitude": 4.9165320999999995
    },
    {
        "category": "tourist attractions",
        "title": "Royal Palace Amsterdam",
        "rating": 4.6,
        "address": "Nieuwezijds Voorburgwal 147, 1012 RJ Amsterdam, Netherlands",
        "latitude": 52.373183499999996,
        "longitude": 4.8913758
    },
    {
        "category": "tourist attractions",
        "title": "Ripley's Believe It or Not!",
        "rating": 4.3,
        "address": "Dam 21, 1012 JS Amsterdam, Netherlands",
        "latitude": 52.3724001,
        "longitude": 4.8935666
    },
    {
        "category": "tourist attractions",
        "title": "Heineken Experience",
        "rating": 4.2,
        "address": "Stadhouderskade 78, 1072 AE Amsterdam, Netherlands",
        "latitude": 52.3578313,
        "longitude": 4.8918249
    },
    {
        "category": "tourist attractions",
        "title": "A'DAM Lookout",
        "rating": 4.6,
        "address": "IJpromenade 4, 1031 KT Amsterdam, Netherlands",
        "latitude": 52.3839541,
        "longitude": 4.9020649999999995
    },
    {
        "category": "tourist attractions",
        "title": "National Monument",
        "rating": 4.4,
        "address": "Dam, 1012 JS Amsterdam, Netherlands",
        "latitude": 52.372836299999996,
        "longitude": 4.8936944
    },
    {
        "category": "tourist attractions",
        "title": "De 9 Straatjes",
        "rating": 4.5,
        "address": "Wolvenstraat 9, 1016 EM Amsterdam, Netherlands",
        "latitude": 52.370196899999996,
        "longitude": 4.8860510999999995
    },
    {
        "category": "tourist attractions",
        "title": "National Maritime Museum",
        "rating": 4.5,
        "address": "Kattenburgerplein 1, 1018 KK Amsterdam, Netherlands",
        "latitude": 52.3715579,
        "longitude": 4.9143761999999995
    },
    {
        "category": "tourist attractions",
        "title": "Westertoren",
        "rating": 4.6,
        "address": "Prinsengracht 279a, 1016 GW Amsterdam, Netherlands",
        "latitude": 52.374561799999995,
        "longitude": 4.883512
    },
    {
        "category": "tourist attractions",
        "title": "Oude Doelenstraat",
        "rating": 4.7,
        "address": "1012 GH Amsterdam, Netherlands",
        "latitude": 52.3718717,
        "longitude": 4.8958281999999995
    },
    {
        "category": "tourist attractions",
        "title": "KANKUL",
        "rating": 5,
        "address": "Dam, 1012 PC Amsterdam, Netherlands",
        "latitude": 52.3724445,
        "longitude": 4.8919308
    },
    {
        "category": "tourist attractions",
        "title": "NEMO Science Museum",
        "rating": 4.5,
        "address": "Oosterdok 2, 1011 VX Amsterdam, Netherlands",
        "latitude": 52.374170899999996,
        "longitude": 4.912325
    },
    {
        "category": "tourist attractions",
        "title": "This is Holland",
        "rating": 4.7,
        "address": "Overhoeksplein 51, 1031 KS Amsterdam, Netherlands",
        "latitude": 52.3841865,
        "longitude": 4.9021959
    },
    {
        "category": "tourist attractions",
        "title": "Majoor Bosshardtbrug",
        "rating": 4.6,
        "address": "Oudezijds Achterburgwal 60 /1, 1012 DA Amsterdam, Netherlands",
        "latitude": 52.3737144,
        "longitude": 4.8993059
    },
    {
        "category": "parks",
        "title": "Oosterpark Amsterdam",
        "rating": 4.5,
        "address": "Oosterpark, 1012 AA Amsterdam, Netherlands",
        "latitude": 52.360082299999995,
        "longitude": 4.9204907
    },
    {
        "category": "parks",
        "title": "Vondelpark",
        "rating": 4.7,
        "address": "1071 AA Amsterdam, Netherlands",
        "latitude": 52.3579946,
        "longitude": 4.8686484
    },
    {
        "category": "parks",
        "title": "Beatrixpark",
        "rating": 4.6,
        "address": "Diepenbrockstraat 21, 1077 VX Amsterdam, Netherlands",
        "latitude": 52.3429769,
        "longitude": 4.880704
    },
    {
        "category": "parks",
        "title": "Westerpark",
        "rating": 4.6,
        "address": "Haarlemmerweg 4, 1014 BE Amsterdam, Netherlands",
        "latitude": 52.386127099999996,
        "longitude": 4.877835
    },
    {
        "category": "parks",
        "title": "Park Frankendael",
        "rating": 4.5,
        "address": "1097 DE Amsterdam, Netherlands",
        "latitude": 52.3511853,
        "longitude": 4.9308048
    },
    {
        "category": "parks",
        "title": "Amstelpark",
        "rating": 4.6,
        "address": "Arent Janszoon Ernststraat 1, 1083 GA Amsterdam, Netherlands",
        "latitude": 52.330065499999996,
        "longitude": 4.8939908
    },
    {
        "category": "parks",
        "title": "Sarphatipark",
        "rating": 4.5,
        "address": "37I, 1073 CP Amsterdam, Netherlands",
        "latitude": 52.354296,
        "longitude": 4.8960786999999995
    },
    {
        "category": "parks",
        "title": "Rembrandtpark",
        "rating": 4.5,
        "address": "Postjesweg, 1057 NT Amsterdam, Netherlands",
        "latitude": 52.364722199999996,
        "longitude": 4.8461111
    },
    {
        "category": "parks",
        "title": "Martin Luther Kingpark",
        "rating": 4.3,
        "address": "Amsteldijk 223, 1079 LK Amsterdam, Netherlands",
        "latitude": 52.3403749,
        "longitude": 4.910205299999999
    },
    {
        "category": "parks",
        "title": "Noorderpark",
        "rating": 4.4,
        "address": "Floraparkweg 1, 1012 AA Amsterdam, Netherlands",
        "latitude": 52.3958556,
        "longitude": 4.9200389
    },
    {
        "category": "parks",
        "title": "Gaasperpark",
        "rating": 4.5,
        "address": "1108 AZ Amsterdam, Netherlands",
        "latitude": 52.310599499999995,
        "longitude": 4.9924295999999995
    },
    {
        "category": "parks",
        "title": "Park de Oeverlanden",
        "rating": 4.4,
        "address": "1066 BT Amsterdam, Netherlands",
        "latitude": 52.335372899999996,
        "longitude": 4.8234372
    },
    {
        "category": "parks",
        "title": "Flevopark",
        "rating": 4.6,
        "address": "Valentijnkade, 1095 KH Amsterdam, Netherlands",
        "latitude": 52.358637099999996,
        "longitude": 4.948333
    },
    {
        "category": "parks",
        "title": "Wertheimpark",
        "rating": 4.5,
        "address": "Anne Frankstraat 172, 1011 SX Amsterdam, Netherlands",
        "latitude": 52.367668699999996,
        "longitude": 4.9089184
    },
    {
        "category": "parks",
        "title": "Het Amsterdamse Bos",
        "rating": 4.6,
        "address": "Amstelveen, Netherlands",
        "latitude": 52.3149817,
        "longitude": 4.832342
    },
    {
        "category": "parks",
        "title": "Erasmuspark",
        "rating": 4.6,
        "address": "Jan van Galenstraat, 1056 LE Amsterdam, Netherlands",
        "latitude": 52.3746222,
        "longitude": 4.851553099999999
    },
    {
        "category": "parks",
        "title": "J. W. van Overloopplantsoen (PARK)",
        "rating": 4.5,
        "address": "1018 TV Amsterdam, Netherlands",
        "latitude": 52.3660121,
        "longitude": 4.9088709999999995
    },
    {
        "category": "parks",
        "title": "Theo van Goghpark",
        "rating": 4.4,
        "address": "Jaap Speyerstraat 2, 1087 MJ Amsterdam, Netherlands",
        "latitude": 52.3496673,
        "longitude": 5.0065566
    },
    {
        "category": "parks",
        "title": "Park Gaasperplas",
        "rating": 4.8,
        "address": "Gaasperpark 1108, 1108 JA Amsterdam, Netherlands",
        "latitude": 52.3068975,
        "longitude": 4.989411
    },
    {
        "category": "parks",
        "title": "Diemerpark",
        "rating": 4.4,
        "address": "1087 BX Amsterdam, Netherlands",
        "latitude": 52.353721199999995,
        "longitude": 4.9862249
    },
    {
        "category": "restaurants",
        "title": "The Pantry",
        "rating": 4.7,
        "address": "Leidsekruisstraat 21, 1017 RE Amsterdam, Netherlands",
        "latitude": 52.3634845,
        "longitude": 4.8849427
    },
    {
        "category": "restaurants",
        "title": "New Dutch Amsterdam",
        "rating": 4.6,
        "address": "Prinsengracht 60-62, 1015 DX Amsterdam, Netherlands",
        "latitude": 52.377925399999995,
        "longitude": 4.8856157
    },
    {
        "category": "restaurants",
        "title": "Restaurant Olijfje",
        "rating": 4.7,
        "address": "Valkenburgerstraat 223D, 1011 MJ Amsterdam, Netherlands",
        "latitude": 52.3687767,
        "longitude": 4.9054562
    },
    {
        "category": "restaurants",
        "title": "Senses Restaurant",
        "rating": 4.6,
        "address": "Vijzelstraat 45, 1017 HE Amsterdam, Netherlands",
        "latitude": 52.365904099999995,
        "longitude": 4.8932993
    },
    {
        "category": "restaurants",
        "title": "Moeders",
        "rating": 4.5,
        "address": "Rozengracht 251, 1016 SX Amsterdam, Netherlands",
        "latitude": 52.3717696,
        "longitude": 4.8750294
    },
    {
        "category": "restaurants",
        "title": "Restaurant Zaza's",
        "rating": 4.8,
        "address": "Daniël Stalpertstraat 103, 1072 XD Amsterdam, Netherlands",
        "latitude": 52.35623,
        "longitude": 4.892197299999999
    },
    {
        "category": "restaurants",
        "title": "De Kas",
        "rating": 4.7,
        "address": "Kamerlingh Onneslaan 3, 1097 DE Amsterdam, Netherlands",
        "latitude": 52.352156099999995,
        "longitude": 4.9305109
    },
    {
        "category": "restaurants",
        "title": "Night Kitchen Amsterdam",
        "rating": 4.8,
        "address": "Jan Pieter Heijestraat 172H, 1054 ML Amsterdam, Netherlands",
        "latitude": 52.3611021,
        "longitude": 4.8648323
    },
    {
        "category": "restaurants",
        "title": "Restaurant Wolf Atelier",
        "rating": 4.7,
        "address": "Westerdoksplein 20, 1013 AZ Amsterdam, Netherlands",
        "latitude": 52.3830859,
        "longitude": 4.8924236
    },
    {
        "category": "restaurants",
        "title": "BAK | Fine dining Restaurant Amsterdam",
        "rating": 4.5,
        "address": "Van Diemenstraat 408, 1013 CR Amsterdam, Netherlands",
        "latitude": 52.3902108,
        "longitude": 4.8874582
    },
    {
        "category": "restaurants",
        "title": "de Silveren Spiegel",
        "rating": 4.8,
        "address": "Kattengat 4, 1012 SZ Amsterdam, Netherlands",
        "latitude": 52.377720499999995,
        "longitude": 4.89392
    },
    {
        "category": "restaurants",
        "title": "Blue Amsterdam",
        "rating": 4.5,
        "address": "Winkelcentrum Kalverpassage, Singel 457, 1012 WP Amsterdam, Netherlands",
        "latitude": 52.367426599999995,
        "longitude": 4.8914922
    },
    {
        "category": "restaurants",
        "title": "Black and Blue",
        "rating": 4.3,
        "address": "Leliegracht 46, 1015 DH Amsterdam, Netherlands",
        "latitude": 52.3757472,
        "longitude": 4.8854076
    },
    {
        "category": "restaurants",
        "title": "Restaurant Black Olive Amsterdam",
        "rating": 4.7,
        "address": "Markenplein 30 A, 1011 MV Amsterdam, Netherlands",
        "latitude": 52.368479699999995,
        "longitude": 4.9057376999999995
    },
    {
        "category": "restaurants",
        "title": "Box Sociaal",
        "rating": 4.7,
        "address": "Plantage Middenlaan 30A, 1018 DG Amsterdam, Netherlands",
        "latitude": 52.3662418,
        "longitude": 4.9118704
    },
    {
        "category": "restaurants",
        "title": "Namche Amsterdam",
        "rating": 4.8,
        "address": "Lange Leidsedwarsstraat 91, 1017 NH Amsterdam, Netherlands",
        "latitude": 52.3631792,
        "longitude": 4.8858868
    },
    {
        "category": "restaurants",
        "title": "Café restaurant van Kerkwijk",
        "rating": 4.6,
        "address": "Nes 41, 1012 KC Amsterdam, Netherlands",
        "latitude": 52.3715348,
        "longitude": 4.8937231
    },
    {
        "category": "restaurants",
        "title": "FuLu Mandarijn",
        "rating": 4.5,
        "address": "Rokin 26, 1012 KS Amsterdam, Netherlands",
        "latitude": 52.371693699999994,
        "longitude": 4.8925949
    },
    {
        "category": "restaurants",
        "title": "Hearth",
        "rating": 4.8,
        "address": "Camperstraat 26H, 1091 AG Amsterdam, Netherlands",
        "latitude": 52.358497899999996,
        "longitude": 4.9129986
    },
    {
        "category": "restaurants",
        "title": "Il Vicolo",
        "rating": 4.8,
        "address": "Taksteeg 3, 1012 PB Amsterdam, Netherlands",
        "latitude": 52.3691824,
        "longitude": 4.8916322
    },
    {
        "category": "cafes",
        "title": "Kafenion Amsterdam",
        "rating": 4.9,
        "address": "Bloemgracht 49, 1016 KD Amsterdam, Netherlands",
        "latitude": 52.374677,
        "longitude": 4.8813721999999995
    },
    {
        "category": "cafes",
        "title": "De Koffieschenkerij",
        "rating": 4.7,
        "address": "Oudekerksplein 27, 1012 GX Amsterdam, Netherlands",
        "latitude": 52.3741148,
        "longitude": 4.898346699999999
    },
    {
        "category": "cafes",
        "title": "Bocca Coffee",
        "rating": 4.4,
        "address": "Kerkstraat 96H, 1017 GP Amsterdam, Netherlands",
        "latitude": 52.3643905,
        "longitude": 4.8868164
    },
    {
        "category": "cafes",
        "title": "Caffè il Momento",
        "rating": 4.6,
        "address": "Singel 180, 1015 AJ Amsterdam, Netherlands",
        "latitude": 52.374684599999995,
        "longitude": 4.8890461
    },
    {
        "category": "cafes",
        "title": "Barney's Coffeeshop Amsterdam THC Cannabis Dispensary",
        "rating": 4.6,
        "address": "Haarlemmerstraat 102, 1013 EW Amsterdam, Netherlands",
        "latitude": 52.3806892,
        "longitude": 4.8908553
    },
    {
        "category": "cafes",
        "title": "Hummingbird Coffee Amsterdam",
        "rating": 4.6,
        "address": "Spuistraat 217, 1012 RN Amsterdam, Netherlands",
        "latitude": 52.371586799999996,
        "longitude": 4.8895102999999995
    },
    {
        "category": "cafes",
        "title": "Coffee & Bites",
        "rating": 4.6,
        "address": "Plantage Middenlaan 44-HS, 1018 DH Amsterdam, Netherlands",
        "latitude": 52.365945499999995,
        "longitude": 4.9125043999999995
    },
    {
        "category": "cafes",
        "title": "Coffee & Cakes",
        "rating": 4.6,
        "address": "Warmoesstraat 133, 1012 JB Amsterdam, Netherlands",
        "latitude": 52.3738628,
        "longitude": 4.896120799999999
    },
    {
        "category": "cafes",
        "title": "420 Coffeeshop",
        "rating": 4.5,
        "address": "Oudebrugsteeg 27, 1012 JN Amsterdam, Netherlands",
        "latitude": 52.3759526,
        "longitude": 4.895871
    },
    {
        "category": "cafes",
        "title": "Luuk's Coffee Noordermarkt",
        "rating": 4.8,
        "address": "Westerstraat 3, 1015 LT Amsterdam, Netherlands",
        "latitude": 52.378763899999996,
        "longitude": 4.8862575
    },
    {
        "category": "cafes",
        "title": "Sango Specialty Coffee Roasters",
        "rating": 4.7,
        "address": "Stromarkt 15, 1012 MZ Amsterdam, Netherlands",
        "latitude": 52.3785368,
        "longitude": 4.8945098
    },
    {
        "category": "cafes",
        "title": "Winkel 43",
        "rating": 4.5,
        "address": "Noordermarkt 43, 1015 NA Amsterdam, Netherlands",
        "latitude": 52.3790944,
        "longitude": 4.8862844
    },
    {
        "category": "cafes",
        "title": "LOT61 Coffee Roasters",
        "rating": 4.6,
        "address": "Kinkerstraat 112, 1053 ED Amsterdam, Netherlands",
        "latitude": 52.366827199999996,
        "longitude": 4.870314
    },
    {
        "category": "cafes",
        "title": "Café Van Daele",
        "rating": 4.3,
        "address": "Paleisstraat 101, 1012 ZL Amsterdam, Netherlands",
        "latitude": 52.3723963,
        "longitude": 4.8902819
    },
    {
        "category": "cafes",
        "title": "Black Gold Amsterdam",
        "rating": 4.7,
        "address": "Korte Koningsstraat 13 H, 1011 EX Amsterdam, Netherlands",
        "latitude": 52.371787999999995,
        "longitude": 4.9030432
    },
    {
        "category": "cafes",
        "title": "Back to Black",
        "rating": 4.7,
        "address": "Van Hallstraat 268, 1051 HM Amsterdam, Netherlands",
        "latitude": 52.379399299999996,
        "longitude": 4.8714727
    },
    {
        "category": "cafes",
        "title": "Café Mankind",
        "rating": 4.7,
        "address": "Weteringstraat 60, 1017 SP Amsterdam, Netherlands",
        "latitude": 52.3607729,
        "longitude": 4.8882255
    },
    {
        "category": "cafes",
        "title": "Back to Black",
        "rating": 4.7,
        "address": "Weteringstraat 48, 1017 RN Amsterdam, Netherlands",
        "latitude": 52.361076999999995,
        "longitude": 4.888494
    },
    {
        "category": "cafes",
        "title": "Coffeeshop Siberië",
        "rating": 4.7,
        "address": "Brouwersgracht 11, 1015 GA Amsterdam, Netherlands",
        "latitude": 52.3788926,
        "longitude": 4.892990999999999
    },
    {
        "category": "cafes",
        "title": "Cafe De Pels",
        "rating": 4.5,
        "address": "Huidenstraat 25, 1016 ER Amsterdam, Netherlands",
        "latitude": 52.368755,
        "longitude": 4.885263
    },
    {
        "category": "mountains",
        "title": "Vaalserberg",
        "rating": 4.4,
        "address": "4721 Kelmis, Belgium",
        "latitude": 50.7431048,
        "longitude": 6.025909899999999
    },
    {
        "category": "mountains",
        "title": "Eikenberg",
        "rating": 2.8,
        "address": "1411 ZX Naarden, Netherlands",
        "latitude": 52.3088889,
        "longitude": 5.2188889
    },
    {
        "category": "mountains",
        "title": "Avontuur Dichtbij",
        "rating": 4.8,
        "address": "Cabralstraat 1, 1057 CD Amsterdam, Netherlands",
        "latitude": 52.369723799999996,
        "longitude": 4.8550035
    },
    {
        "category": "mountains",
        "title": "Warandebergen",
        "rating": 4,
        "address": "1261 AL Blaricum, Netherlands",
        "latitude": 52.283333299999995,
        "longitude": 5.25
    },
    {
        "category": "mountains",
        "title": "Tafelberg",
        "rating": 4.2,
        "address": "1261 DS Blaricum, Netherlands",
        "latitude": 52.277136,
        "longitude": 5.227278
    },
    {
        "category": "mountains",
        "title": "Aalberg",
        "rating": 4.6,
        "address": "1411 ZX Naarden, Netherlands",
        "latitude": 52.310111,
        "longitude": 5.2245
    },
    {
        "category": "mountains",
        "title": "Mountain Nepal - Amsterdam",
        "rating": 4.9,
        "address": "Kinkerstraat 348, 0, 1053 GE Amsterdam, Netherlands",
        "latitude": 52.3647639,
        "longitude": 4.8620462
    },
    {
        "category": "mountains",
        "title": "Eukenberg",
        "rating": 4.5,
        "address": "1411 ZX Naarden, Netherlands",
        "latitude": 52.307660999999996,
        "longitude": 5.218347
    },
    {
        "category": "mountains",
        "title": "Klimhal Mountain Network Amsterdam",
        "rating": 4.5,
        "address": "Erasmusgracht 297, 1061 MD Amsterdam, Netherlands",
        "latitude": 52.3750533,
        "longitude": 4.8419925
    },
    {
        "category": "mountains",
        "title": "Woensberg",
        "rating": 3.6,
        "address": "1272 JP Huizen, Netherlands",
        "latitude": 52.282533,
        "longitude": 5.245386
    },
    {
        "category": "mountains",
        "title": "Leeuwenberg",
        "rating": 5,
        "address": "1411 GT Naarden, Netherlands",
        "latitude": 52.301589,
        "longitude": 5.196988999999999
    },
    {
        "category": "mountains",
        "title": "Sijdjesberg",
        "rating": 3.9,
        "address": "1411 GV Naarden, Netherlands",
        "latitude": 52.3,
        "longitude": 5.216666699999999
    },
    {
        "category": "mountains",
        "title": "Dutch Mountain Movies",
        "rating": 4.5,
        "address": "De Kempenaerstraat 11a, 1051 CJ Amsterdam, Netherlands",
        "latitude": 52.381839199999995,
        "longitude": 4.8698044
    },
    {
        "category": "mountains",
        "title": "Iron Mountain",
        "rating": 5,
        "address": null,
        "latitude": 52.4290264,
        "longitude": 4.8954884
    },
    {
        "category": "mountains",
        "title": "Mr. Mountain outdoor coaching",
        "rating": null,
        "address": "Van Tuyll van Serooskerkenweg 70, 1076 JN Amsterdam, Netherlands",
        "latitude": 52.3446809,
        "longitude": 4.8615447
    },
    {
        "category": "mountains",
        "title": "Trapjesberg",
        "rating": 4.2,
        "address": "1272 EX Huizen, Netherlands",
        "latitude": 52.277867,
        "longitude": 5.205353
    },
    {
        "category": "mountains",
        "title": "Iron Mountain",
        "rating": 3,
        "address": null,
        "latitude": 52.159546199999994,
        "longitude": 4.9273915
    },
    {
        "category": "mountains",
        "title": "Mountain Of Fire And Miracles Ministries, Regional HQ",
        "rating": 5,
        "address": "Keienbergweg 101, 1101 GG Amsterdam, Netherlands",
        "latitude": 52.3077261,
        "longitude": 4.9339623999999995
    },
    {
        "category": "mountains",
        "title": "Wheelrunner",
        "rating": 4.8,
        "address": "Rijnstraat 50h, 1078 RD Amsterdam, Netherlands",
        "latitude": 52.3468449,
        "longitude": 4.9047059
    },
    {
        "category": "mountains",
        "title": "City Alps - Indoor Cycle & Strength Studio",
        "rating": 5,
        "address": "Polderweg 190, 1093 KP Amsterdam, Netherlands",
        "latitude": 52.3574543,
        "longitude": 4.9288868
    },
    {
        "category": "waterfalls",
        "title": "Loenense waterval",
        "rating": 4.1,
        "address": "Beekbergerweg 52, 7371 EW Loenen, Netherlands",
        "latitude": 52.133470499999994,
        "longitude": 6.0067189
    },
    {
        "category": "waterfalls",
        "title": "Ecolint - 't Kleine Loopveld",
        "rating": 4.4,
        "address": "Het Kleine Loopveld, 1081 CK Amsterdam, Netherlands",
        "latitude": 52.3223932,
        "longitude": 4.8652874
    },
    {
        "category": "lakes",
        "title": "Sloterplas",
        "rating": 4.6,
        "address": "Oostoever, 1064 GW Amsterdam, Netherlands",
        "latitude": 52.3659555,
        "longitude": 4.8170706
    },
    {
        "category": "lakes",
        "title": "Nieuwe Meer",
        "rating": 4.6,
        "address": "Amsterdam, Netherlands",
        "latitude": 52.3310779,
        "longitude": 4.8202918
    },
    {
        "category": "lakes",
        "title": "Sloterplas",
        "rating": 4.7,
        "address": "Amsterdam, Netherlands",
        "latitude": 52.365770299999994,
        "longitude": 4.819712
    },
    {
        "category": "lakes",
        "title": "Nieuwe Diep",
        "rating": 4.5,
        "address": "Amsterdam, Netherlands",
        "latitude": 52.360810199999996,
        "longitude": 4.9557839999999995
    },
    {
        "category": "lakes",
        "title": "Oranjesluizen",
        "rating": 5,
        "address": "1023 NZ Amsterdam, Netherlands",
        "latitude": 52.3833333,
        "longitude": 4.9666667
    },
    {
        "category": "lakes",
        "title": "Kinselmeer",
        "rating": 4.5,
        "address": "Amsterdam, Netherlands",
        "latitude": 52.3922409,
        "longitude": 5.0171903
    },
    {
        "category": "lakes",
        "title": "Bosbaan",
        "rating": 4.6,
        "address": "Amstelveen, Netherlands",
        "latitude": 52.3260874,
        "longitude": 4.8363971999999995
    },
    {
        "category": "lakes",
        "title": "Buiten-IJ",
        "rating": 4.4,
        "address": "Amsterdam, Netherlands",
        "latitude": 52.3706398,
        "longitude": 4.9916390999999996
    },
    {
        "category": "lakes",
        "title": "Het Amsterdamse Bos",
        "rating": 4.6,
        "address": "Amstelveen, Netherlands",
        "latitude": 52.3149817,
        "longitude": 4.832342
    },
    {
        "category": "lakes",
        "title": "Grote Vijver",
        "rating": 4.3,
        "address": "Amstelveen, Netherlands",
        "latitude": 52.3207148,
        "longitude": 4.8292477
    },
    {
        "category": "lakes",
        "title": "Abcoudermeer",
        "rating": 4.3,
        "address": "Netherlands",
        "latitude": 52.2778114,
        "longitude": 4.964131399999999
    },
    {
        "category": "lakes",
        "title": "Schellingwouderbreek",
        "rating": 4.5,
        "address": "Amsterdam, Netherlands",
        "latitude": 52.388649199999996,
        "longitude": 4.9520458
    },
    {
        "category": "lakes",
        "title": "IJ",
        "rating": 4.3,
        "address": "Amsterdam, Netherlands",
        "latitude": 52.3866302,
        "longitude": 4.8964099999999995
    },
    {
        "category": "lakes",
        "title": "AmsterDeck Nieuwe Meer",
        "rating": 4.6,
        "address": "1081 KE Amsterdam, Netherlands",
        "latitude": 52.332609399999996,
        "longitude": 4.8468542
    },
    {
        "category": "lakes",
        "title": "Gaasperplas",
        "rating": 4.5,
        "address": "Amsterdam, Netherlands",
        "latitude": 52.3058653,
        "longitude": 4.994065
    },
    {
        "category": "lakes",
        "title": "Lake OTA",
        "rating": 5,
        "address": "1047 BP Amsterdam, Netherlands",
        "latitude": 52.403681199999994,
        "longitude": 4.7668992999999995
    },
    {
        "category": "lakes",
        "title": "Nieuwe Entrepotdoksluis",
        "rating": 4,
        "address": "Amsterdam, Netherlands",
        "latitude": 52.3683005,
        "longitude": 4.9341706
    },
    {
        "category": "lakes",
        "title": "Sloterparkbadsingel",
        "rating": null,
        "address": "Amsterdam, Netherlands",
        "latitude": 52.3675735,
        "longitude": 4.8143268
    },
    {
        "category": "lakes",
        "title": "Ouderkerkerplas",
        "rating": 4.5,
        "address": "1191 LD Ouderkerk aan de Amstel, Netherlands",
        "latitude": 52.2892799,
        "longitude": 4.9288910999999995
    },
    {
        "category": "lakes",
        "title": "Reigervijver",
        "rating": null,
        "address": "Amsterdam, Netherlands",
        "latitude": 52.396476199999995,
        "longitude": 4.9203905
    },
    {
        "category": "beaches",
        "title": "Sloterplas Beach",
        "rating": 4.4,
        "address": "1064 DH Amsterdam, Netherlands",
        "latitude": 52.3720139,
        "longitude": 4.8232412
    },
    {
        "category": "beaches",
        "title": "Sloterstrand",
        "rating": 4.3,
        "address": "1064 DH Amsterdam, Netherlands",
        "latitude": 52.371671,
        "longitude": 4.8229716
    },
    {
        "category": "beaches",
        "title": "Strand IJburg",
        "rating": 4.2,
        "address": "Amsterdam, Netherlands",
        "latitude": 52.3583785,
        "longitude": 5.0131139
    },
    {
        "category": "beaches",
        "title": "Strand Diemerpark",
        "rating": 3.9,
        "address": "1087 BX Amsterdam, Netherlands",
        "latitude": 52.3543534,
        "longitude": 4.9864125
    },
    {
        "category": "beaches",
        "title": "Playa Amsterdam",
        "rating": 4.1,
        "address": "Driemondweg 25, 1108 AJ Amsterdam, Netherlands",
        "latitude": 52.3042235,
        "longitude": 4.9982526
    },
    {
        "category": "beaches",
        "title": "Amsterdam City Beach Festival",
        "rating": 5,
        "address": "Joan Muyskenweg 14, 1096 CJ Amsterdam, Netherlands",
        "latitude": 52.3343315,
        "longitude": 4.9137227
    },
    {
        "category": "beaches",
        "title": "IJburg",
        "rating": 4.4,
        "address": "1087 GL Amsterdam, Netherlands",
        "latitude": 52.355,
        "longitude": 4.997777999999999
    },
    {
        "category": "beaches",
        "title": "Sloterplas",
        "rating": 4.6,
        "address": "Oostoever, 1064 GW Amsterdam, Netherlands",
        "latitude": 52.3659555,
        "longitude": 4.8170706
    },
    {
        "category": "beaches",
        "title": "Doesstrand",
        "rating": 4.4,
        "address": "1511 GX Oostzaan, Netherlands",
        "latitude": 52.4385622,
        "longitude": 4.8938147
    },
    {
        "category": "beaches",
        "title": "Zilverstrand",
        "rating": 4.1,
        "address": "Dijkweg, Muiden, Netherlands",
        "latitude": 52.3346659,
        "longitude": 5.1016656
    },
    {
        "category": "beaches",
        "title": "Zilverstrand Almere",
        "rating": 3.9,
        "address": "1309 BA Almere, Netherlands",
        "latitude": 52.327608399999995,
        "longitude": 5.1472508999999995
    },
    {
        "category": "beaches",
        "title": "Almeerderstrand",
        "rating": 4.2,
        "address": "IJmeerdijk, 1361 BG Almere, Netherlands",
        "latitude": 52.3361026,
        "longitude": 5.138516399999999
    },
    {
        "category": "beaches",
        "title": "Buitenzwembad Marineterrein - Outdoor canal swimming",
        "rating": 4.6,
        "address": "Kattenburgerstraat 5, 1018 JA Amsterdam, Netherlands",
        "latitude": 52.3728574,
        "longitude": 4.9152115
    },
    {
        "category": "beaches",
        "title": "pompano beach",
        "rating": null,
        "address": "Jacob Van Lennepkade 502, 1053 MJ Amsterdam, Netherlands",
        "latitude": 52.3665957,
        "longitude": 4.8765255
    },
    {
        "category": "beaches",
        "title": "Gaasperplas strand",
        "rating": 4.6,
        "address": "Amsterdam, Netherlands",
        "latitude": 52.3033199,
        "longitude": 4.9961471
    },
    {
        "category": "beaches",
        "title": "Ouderkerkerplas Strand",
        "rating": 4.4,
        "address": "1191 LD Ouderkerk aan de Amstel, Netherlands",
        "latitude": 52.2949966,
        "longitude": 4.9295992
    },
    {
        "category": "beaches",
        "title": "Nieuwe Meer",
        "rating": 4.6,
        "address": "Amsterdam, Netherlands",
        "latitude": 52.3310779,
        "longitude": 4.8202918
    },
    {
        "category": "beaches",
        "title": "Strand Zomerkade",
        "rating": 4.2,
        "address": "Zomerkade 272, 1273 SV Huizen, Netherlands",
        "latitude": 52.3060092,
        "longitude": 5.2593412
    },
    {
        "category": "beaches",
        "title": "Dog Beach Gaasperplas",
        "rating": 4.6,
        "address": "Unnamed Road, Netherlands",
        "latitude": 52.303801299999996,
        "longitude": 4.9828228
    },
    {
        "category": "swimming pools",
        "title": "Het Marnix",
        "rating": 4,
        "address": "Marnixplein 1, 1015 ZN Amsterdam, Netherlands",
        "latitude": 52.3780037,
        "longitude": 4.8783971
    },
    {
        "category": "swimming pools",
        "title": "Optisport | Swimmingpool Sloterparkbad",
        "rating": 4.1,
        "address": "President Allendelaan 3, 1064 GW Amsterdam, Netherlands",
        "latitude": 52.370141999999994,
        "longitude": 4.817953999999999
    },
    {
        "category": "swimming pools",
        "title": "Zuiderbad",
        "rating": 4.2,
        "address": "Hobbemastraat 26, 1071 XK Amsterdam, Netherlands",
        "latitude": 52.3584332,
        "longitude": 4.8860078
    },
    {
        "category": "swimming pools",
        "title": "De Mirandabad",
        "rating": 4.1,
        "address": "De Mirandalaan 9, 1079 PA Amsterdam, Netherlands",
        "latitude": 52.3387258,
        "longitude": 4.9025215
    },
    {
        "category": "swimming pools",
        "title": "Brediusbad Outdoor Pool",
        "rating": 4.2,
        "address": "Spaarndammerdijk 306, 1013 ZX Amsterdam, Netherlands",
        "latitude": 52.392472,
        "longitude": 4.868347
    },
    {
        "category": "swimming pools",
        "title": "Sportplaza Mercator",
        "rating": 3.4,
        "address": "Jan van Galenstraat 315, 1056 CB Amsterdam, Netherlands",
        "latitude": 52.371708999999996,
        "longitude": 4.8460117
    },
    {
        "category": "swimming pools",
        "title": "Noorderparkbad",
        "rating": 3.8,
        "address": "Sneeuwbalweg 5, 1032 VS Amsterdam, Netherlands",
        "latitude": 52.3981615,
        "longitude": 4.917771
    },
    {
        "category": "swimming pools",
        "title": "Sportfondsenbad Amsterdam-Oost",
        "rating": 3.7,
        "address": "Land van Cocagneplein 44, 1093 NB Amsterdam, Netherlands",
        "latitude": 52.356764999999996,
        "longitude": 4.9284759
    },
    {
        "category": "swimming pools",
        "title": "SwimGym",
        "rating": 4.7,
        "address": "Wibautstraat 131b, 1091 GL Amsterdam, Netherlands",
        "latitude": 52.3541294,
        "longitude": 4.9131051999999995
    },
    {
        "category": "swimming pools",
        "title": "Optisport Bijlmer Sports",
        "rating": 3.7,
        "address": "Anton de Komplein 157, 1102 DR Amsterdam, Netherlands",
        "latitude": 52.3153407,
        "longitude": 4.958008599999999
    },
    {
        "category": "swimming pools",
        "title": "AeroDMP",
        "rating": 4.3,
        "address": "Plejadenplein 34, 1033 VL Amsterdam, Netherlands",
        "latitude": 52.413825499999994,
        "longitude": 4.8856383
    },
    {
        "category": "swimming pools",
        "title": "AmsterDeck Nieuwe Meer",
        "rating": 4.6,
        "address": "1081 KE Amsterdam, Netherlands",
        "latitude": 52.332609399999996,
        "longitude": 4.8468542
    },
    {
        "category": "swimming pools",
        "title": "Zwemclub ABC - Zwemles Amsterdam",
        "rating": 4.5,
        "address": "De Mirandalaan 9, 1079 PA Amsterdam, Netherlands",
        "latitude": 52.338763799999995,
        "longitude": 4.9027359
    },
    {
        "category": "swimming pools",
        "title": "BabySpa Overtoom",
        "rating": 4.7,
        "address": "Overtoom 252, 1054 JA Amsterdam, Netherlands",
        "latitude": 52.361545199999995,
        "longitude": 4.869756499999999
    },
    {
        "category": "swimming pools",
        "title": "Friendship Sports Center",
        "rating": 4.7,
        "address": "Beemsterstraat 652, 1027 ED Amsterdam, Netherlands",
        "latitude": 52.4001634,
        "longitude": 4.9599725999999995
    },
    {
        "category": "swimming pools",
        "title": "Optisport Health Club Amsterdam Southeast",
        "rating": 4.1,
        "address": "Anton de Komplein 157, 1102 DR Amsterdam, Netherlands",
        "latitude": 52.315545,
        "longitude": 4.957932
    },
    {
        "category": "swimming pools",
        "title": "David Lloyd Amsterdam",
        "rating": 4.3,
        "address": "Overtoom 557, 1054 LK Amsterdam, Netherlands",
        "latitude": 52.3575352,
        "longitude": 4.8559923
    },
    {
        "category": "swimming pools",
        "title": "Sloterplas",
        "rating": 4.6,
        "address": "Oostoever, 1064 GW Amsterdam, Netherlands",
        "latitude": 52.3659555,
        "longitude": 4.8170706
    },
    {
        "category": "swimming pools",
        "title": "Pierenbadje Gibraltarbad",
        "rating": 4.3,
        "address": "Solebaystraat 19A, 1055 ZJ Amsterdam, Netherlands",
        "latitude": 52.383294,
        "longitude": 4.853554
    },
    {
        "category": "swimming pools",
        "title": "Kinderbadje",
        "rating": 4.6,
        "address": "Vondelpark 4, 1071 AA Amsterdam, Netherlands",
        "latitude": 52.3581705,
        "longitude": 4.8656109999999995
    },
    {
        "category": "resorts",
        "title": "Sofitel Legend The Grand Amsterdam",
        "rating": 4.7,
        "address": "Oudezijds Voorburgwal 197, 1012 EX Amsterdam, Netherlands",
        "latitude": 52.3709309,
        "longitude": 4.8955845
    },
    {
        "category": "resorts",
        "title": "Grand Hotel Amrâth Amsterdam",
        "rating": 4.2,
        "address": "Prins Hendrikkade 108, 1011 AK Amsterdam, Netherlands",
        "latitude": 52.3745871,
        "longitude": 4.903903199999999
    },
    {
        "category": "resorts",
        "title": "The Toren Amsterdam",
        "rating": 4.7,
        "address": "Keizersgracht 164, 1015 CZ Amsterdam, Netherlands",
        "latitude": 52.3758754,
        "longitude": 4.8859642
    },
    {
        "category": "resorts",
        "title": "Pulitzer Amsterdam",
        "rating": 4.6,
        "address": "Prinsengracht 323, 1016 GZ Amsterdam, Netherlands",
        "latitude": 52.372878299999996,
        "longitude": 4.883357
    },
    {
        "category": "resorts",
        "title": "Andaz Amsterdam Prinsengracht, by Hyatt",
        "rating": 4.7,
        "address": "Prinsengracht 587, 1016 HT Amsterdam, Netherlands",
        "latitude": 52.367796899999995,
        "longitude": 4.8830608
    },
    {
        "category": "resorts",
        "title": "Okura Hotel",
        "rating": 4.6,
        "address": "Ferdinand Bolstraat 333, 1072 LH Amsterdam, Netherlands",
        "latitude": 52.3486159,
        "longitude": 4.8930096999999995
    },
    {
        "category": "resorts",
        "title": "Park Centraal Amsterdam",
        "rating": 4.4,
        "address": "Stadhouderskade 25, 1071 ZD Amsterdam, Netherlands",
        "latitude": 52.361544699999996,
        "longitude": 4.8829931
    },
    {
        "category": "resorts",
        "title": "Hotel NH Collection Amsterdam Barbizon Palace",
        "rating": 4.4,
        "address": "Prins Hendrikkade 59-72, 1012 AD Amsterdam, Netherlands",
        "latitude": 52.376547099999996,
        "longitude": 4.9004774
    },
    {
        "category": "resorts",
        "title": "Waldorf Astoria Amsterdam",
        "rating": 4.8,
        "address": "Herengracht 542-556, 1017 CG Amsterdam, Netherlands",
        "latitude": 52.364768,
        "longitude": 4.896945
    },
    {
        "category": "resorts",
        "title": "The Hoxton, Amsterdam",
        "rating": 4.5,
        "address": "Herengracht 255, 1016 BJ Amsterdam, Netherlands",
        "latitude": 52.3718724,
        "longitude": 4.8874276
    },
    {
        "category": "resorts",
        "title": "Inntel Hotels Amsterdam Zaandam",
        "rating": 4.5,
        "address": "Provincialeweg 102, 1506 MD Zaandam, Netherlands",
        "latitude": 52.4380719,
        "longitude": 4.8159301
    },
    {
        "category": "resorts",
        "title": "Park Plaza Victoria Amsterdam",
        "rating": 4.4,
        "address": "Damrak 1-5, 1012 TM Amsterdam, Netherlands",
        "latitude": 52.377089999999995,
        "longitude": 4.8979799
    },
    {
        "category": "resorts",
        "title": "Conservatorium Hotel",
        "rating": 4.5,
        "address": "Paulus Potterstraat 50, 1071 DB Amsterdam, Netherlands",
        "latitude": 52.3585857,
        "longitude": 4.8795085
    },
    {
        "category": "resorts",
        "title": "InterContinental Amstel Amsterdam by IHG",
        "rating": 4.6,
        "address": "Professor Tulpplein 1, 1018 GX Amsterdam, Netherlands",
        "latitude": 52.360099999999996,
        "longitude": 4.9049
    },
    {
        "category": "resorts",
        "title": "Hotel Estherea",
        "rating": 4.7,
        "address": "Singel 303-309, 1012 WJ Amsterdam, Netherlands",
        "latitude": 52.370544699999996,
        "longitude": 4.8886439
    },
    {
        "category": "resorts",
        "title": "Hapimag Stadtresidenz Amsterdam",
        "rating": 4.7,
        "address": "Singel 19-23, 1012 VC Amsterdam, Netherlands",
        "latitude": 52.3776425,
        "longitude": 4.8932848
    },
    {
        "category": "resorts",
        "title": "Monet Garden Hotel Amsterdam",
        "rating": 4.6,
        "address": "Valkenburgerstraat 76, 1011 LZ Amsterdam, Netherlands",
        "latitude": 52.3699155,
        "longitude": 4.9073163
    },
    {
        "category": "resorts",
        "title": "INK Hotel Amsterdam - MGallery Collection",
        "rating": 4.6,
        "address": "Nieuwezijds Voorburgwal 67, 1012 RE Amsterdam, Netherlands",
        "latitude": 52.3754828,
        "longitude": 4.8930435
    },
    {
        "category": "resorts",
        "title": "Banks Mansion",
        "rating": 4.6,
        "address": "Herengracht 519-525, 1017 BV Amsterdam, Netherlands",
        "latitude": 52.365386799999996,
        "longitude": 4.8931979
    },
    {
        "category": "resorts",
        "title": "Basecamp Amsterdam",
        "rating": 4.3,
        "address": "Tom Schreursweg 40, 1067 MC Amsterdam, Netherlands",
        "latitude": 52.381719399999994,
        "longitude": 4.7789209
    },
    {
        "category": "camping sites",
        "title": "Camping Zeeburg Amsterdam",
        "rating": 4.5,
        "address": "Zuider IJdijk 20, 1095 KN Amsterdam, Netherlands",
        "latitude": 52.365333899999996,
        "longitude": 4.959441099999999
    },
    {
        "category": "camping sites",
        "title": "Camping Vliegenbos Amsterdam",
        "rating": 4.4,
        "address": "Meeuwenlaan 138, 1022 AM Amsterdam, Netherlands",
        "latitude": 52.3905786,
        "longitude": 4.9282097
    },
    {
        "category": "camping sites",
        "title": "Camping Amsterdam Gaasper",
        "rating": 4.3,
        "address": "Loosdrechtdreef 7, 1108 AZ Amsterdam, Netherlands",
        "latitude": 52.312624299999996,
        "longitude": 4.9915587
    },
    {
        "category": "camping sites",
        "title": "Camping Amsterdam Gardens",
        "rating": 4.2,
        "address": "Tom Schreursweg 10B, 1067 MC Amsterdam, Netherlands",
        "latitude": 52.382115999999996,
        "longitude": 4.7844169999999995
    },
    {
        "category": "camping sites",
        "title": "Camping Amsterdam Forest",
        "rating": 3.5,
        "address": "Kleine Noorddijk 1, 1187 NZ Amstelveen, Netherlands",
        "latitude": 52.2941724,
        "longitude": 4.8235074
    },
    {
        "category": "camping sites",
        "title": "The Esn Kingsday Campsite",
        "rating": 5,
        "address": "Meeuwenlaan 138, 1022 AM Amsterdam, Netherlands",
        "latitude": 52.390595499999996,
        "longitude": 4.9281777
    },
    {
        "category": "camping sites",
        "title": "Camping het Rietveen",
        "rating": 3.9,
        "address": "Noordeinde 130, 1121 AJ Landsmeer, Netherlands",
        "latitude": 52.436218,
        "longitude": 4.914391
    },
    {
        "category": "camping sites",
        "title": "Mini Camping 't Uilenstekkie",
        "rating": 4.5,
        "address": "Termietergouw 1, 1027 AD Amsterdam, Netherlands",
        "latitude": 52.410547,
        "longitude": 4.960923
    },
    {
        "category": "camping sites",
        "title": "W.H. Vliegenbos",
        "rating": 4.5,
        "address": "1022 AB Amsterdam, Netherlands",
        "latitude": 52.3897912,
        "longitude": 4.9327089
    },
    {
        "category": "camping sites",
        "title": "Outside Inn",
        "rating": 4.8,
        "address": "Ellermanstraat 31, 1114 AK Amsterdam, Netherlands",
        "latitude": 52.3264298,
        "longitude": 4.9309747
    },
    {
        "category": "camping sites",
        "title": "Camping Amsterdam Gardens",
        "rating": 3.2,
        "address": "Tom Schreursweg 10B, 1067 MC Amsterdam, Netherlands",
        "latitude": 52.382115999999996,
        "longitude": 4.7844169999999995
    },
    {
        "category": "camping sites",
        "title": "Camperplaats Amsterdam",
        "rating": 3.2,
        "address": "Lutkemeerweg 149, 1067 TJ Amsterdam, Netherlands",
        "latitude": 52.3635204,
        "longitude": 4.7731069999999995
    },
    {
        "category": "camping sites",
        "title": "Gemeente Amsterdam",
        "rating": 4.3,
        "address": "Meeuwenlaan 138, 1022 AM Amsterdam, Netherlands",
        "latitude": 52.3905916,
        "longitude": 4.9282455999999994
    },
    {
        "category": "camping sites",
        "title": "Camping VRK",
        "rating": 4.4,
        "address": "Uitdammerdijk 13, 1026 CP Amsterdam, Netherlands",
        "latitude": 52.384987699999996,
        "longitude": 5.0147819
    },
    {
        "category": "camping sites",
        "title": "EuroParcs Resort Port of Amsterdam",
        "rating": 3.9,
        "address": "Zeedijk 2, 1154 PP Uitdam, Netherlands",
        "latitude": 52.4276919,
        "longitude": 5.0741816
    },
    {
        "category": "camping sites",
        "title": "Camping Amsterdam aan Zee",
        "rating": 3.8,
        "address": "Voorweg 23A, 1969 MC Heemskerk, Netherlands",
        "latitude": 52.5029019,
        "longitude": 4.639037699999999
    },
    {
        "category": "camping sites",
        "title": "Camper Park Vijfhuizen",
        "rating": 4.4,
        "address": "Floriadepark 101, 2141 ZZ Vijfhuizen, Netherlands",
        "latitude": 52.3438893,
        "longitude": 4.6837900999999995
    },
    {
        "category": "camping sites",
        "title": "Camping de Badhoeve",
        "rating": 4.1,
        "address": "Uitdammerdijk 10, 1026 CP Amsterdam, Netherlands",
        "latitude": 52.384617999999996,
        "longitude": 5.0129047
    },
    {
        "category": "camping sites",
        "title": "Amsterdam park shop",
        "rating": null,
        "address": "Basisweg 35l, 1043 AG Amsterdam, Netherlands",
        "latitude": 52.391449099999996,
        "longitude": 4.830930899999999
    },
    {
        "category": "camping sites",
        "title": "Kennemer Duincamping De Lakens",
        "rating": 4.4,
        "address": "Zeeweg 60, 2051 EC Overveen, Netherlands",
        "latitude": 52.4057387,
        "longitude": 4.55337
    },
    {
        "category": "hiking trails",
        "title": "Hiking trail Sloterplas",
        "rating": 4.8,
        "address": "1064 GV Amsterdam, Netherlands",
        "latitude": 52.3699812,
        "longitude": 4.830265799999999
    },
    {
        "category": "hiking trails",
        "title": "Vondelpark",
        "rating": 4.7,
        "address": "1071 AA Amsterdam, Netherlands",
        "latitude": 52.3579946,
        "longitude": 4.8686484
    },
    {
        "category": "hiking trails",
        "title": "Het Amsterdamse Bos",
        "rating": 4.6,
        "address": "Amstelveen, Netherlands",
        "latitude": 52.3149817,
        "longitude": 4.832342
    },
    {
        "category": "hiking trails",
        "title": "W.H. Vliegenbos",
        "rating": 4.5,
        "address": "1022 AB Amsterdam, Netherlands",
        "latitude": 52.3897912,
        "longitude": 4.9327089
    },
    {
        "category": "hiking trails",
        "title": "Schellingwouderbreekpark",
        "rating": 4.7,
        "address": "Zuiderzeeweg 1023, 1024 LJ Amsterdam, Netherlands",
        "latitude": 52.3884246,
        "longitude": 4.953583699999999
    },
    {
        "category": "ecotourism areas",
        "title": "Vondelpark",
        "rating": 4.7,
        "address": "1071 AA Amsterdam, Netherlands",
        "latitude": 52.3579946,
        "longitude": 4.8686484
    },
    {
        "category": "ecotourism areas",
        "title": "Amstelpark",
        "rating": 4.6,
        "address": "Arent Janszoon Ernststraat 1, 1083 GA Amsterdam, Netherlands",
        "latitude": 52.330065499999996,
        "longitude": 4.8939908
    },
    {
        "category": "ecotourism areas",
        "title": "Beatrixpark",
        "rating": 4.6,
        "address": "Diepenbrockstraat 21, 1077 VX Amsterdam, Netherlands",
        "latitude": 52.3429769,
        "longitude": 4.880704
    },
    {
        "category": "ecotourism areas",
        "title": "Sarphatipark",
        "rating": 4.5,
        "address": "37I, 1073 CP Amsterdam, Netherlands",
        "latitude": 52.354296,
        "longitude": 4.8960786999999995
    },
    {
        "category": "ecotourism areas",
        "title": "Gardens of West",
        "rating": 4.6,
        "address": "Pieter Moeskopspad 20, 1067 HR Amsterdam, Netherlands",
        "latitude": 52.378054,
        "longitude": 4.7797082
    },
    {
        "category": "ecotourism areas",
        "title": "Park de Oeverlanden",
        "rating": 4.4,
        "address": "1066 BT Amsterdam, Netherlands",
        "latitude": 52.335372899999996,
        "longitude": 4.8234372
    },
    {
        "category": "ecotourism areas",
        "title": "Amsterdamse Waterleidingduinen",
        "rating": 4.8,
        "address": "Duizendmeterweg, 2042 BN Bentveld, Netherlands",
        "latitude": 52.3458968,
        "longitude": 4.5271504
    },
    {
        "category": "ecotourism areas",
        "title": "Nature Playground",
        "rating": 4.7,
        "address": "Overbrakerpad 3, 1014 AZ Amsterdam, Netherlands",
        "latitude": 52.3900758,
        "longitude": 4.8658293
    },
    {
        "category": "ecotourism areas",
        "title": "Schellingwouderpark",
        "rating": 4.5,
        "address": "Schellingwouderdijk 109, 1023 NA Amsterdam, Netherlands",
        "latitude": 52.3850252,
        "longitude": 4.9549463
    },
    {
        "category": "ecotourism areas",
        "title": "Ilperveld",
        "rating": 4.5,
        "address": "Kanaaldijk 32A, 1121 NX Landsmeer, Netherlands",
        "latitude": 52.448263,
        "longitude": 4.9318278
    },
    {
        "category": "ecotourism areas",
        "title": "Nationaal Park Zuid-Kennemerland",
        "rating": 4.7,
        "address": "Zeeweg 12, 2051 EC Overveen, Netherlands",
        "latitude": 52.3960551,
        "longitude": 4.5921277
    },
    {
        "category": "ecotourism areas",
        "title": "Sea Going Green",
        "rating": 5,
        "address": "Herengracht 252, 1016 BV Amsterdam, Netherlands",
        "latitude": 52.371757099999996,
        "longitude": 4.8865884
    },
    {
        "category": "ecotourism areas",
        "title": "Naardermeer",
        "rating": 4.6,
        "address": "Meerkade 2, 1412 AB Naarden, Netherlands",
        "latitude": 52.2919771,
        "longitude": 5.1423999
    },
    {
        "category": "ecotourism areas",
        "title": "Visit Amsterdam",
        "rating": null,
        "address": "Amstelveenseweg 216hs, 1075 XT Amsterdam, Netherlands",
        "latitude": 52.351231,
        "longitude": 4.8563243
    },
    {
        "category": "temples",
        "title": "Lord Shiva Hindu Temples",
        "rating": 4.7,
        "address": "Hoogoorddreef 79, 1101 BB Amsterdam, Netherlands",
        "latitude": 52.3062889,
        "longitude": 4.9397449
    },
    {
        "category": "temples",
        "title": "Amsterdam ISKCON",
        "rating": 4.6,
        "address": "Lizzy Ansinghstraat 80, 1h, 1072 RD Amsterdam, Netherlands",
        "latitude": 52.3496299,
        "longitude": 4.8928826999999995
    },
    {
        "category": "temples",
        "title": "Shirdi Sai Samaj Netherlands",
        "rating": 4.9,
        "address": "Dadelpalmstraat 8, 1104 DC Amsterdam, Netherlands",
        "latitude": 52.319756899999994,
        "longitude": 4.9821246
    },
    {
        "category": "temples",
        "title": "Fo Guang Shan He Hua Temple",
        "rating": 4.3,
        "address": "Zeedijk 106-118, 1012 BB Amsterdam, Netherlands",
        "latitude": 52.3737826,
        "longitude": 4.9000422
    },
    {
        "category": "temples",
        "title": "Radha Krishna Mandir Amsterdam",
        "rating": 4.5,
        "address": "Saaftingestraat 310, 1069 BW Amsterdam, Netherlands",
        "latitude": 52.3613624,
        "longitude": 4.7899405
    },
    {
        "category": "temples",
        "title": "Portuguese Synagogue of Amsterdam",
        "rating": 4.5,
        "address": "Mr. Visserplein 3, 1011 RD Amsterdam, Netherlands",
        "latitude": 52.3675815,
        "longitude": 4.9053207
    },
    {
        "category": "temples",
        "title": "Guru Nanak Gurudwara Sahib",
        "rating": 4.9,
        "address": "Schakelstraat 21, 1014 AW Amsterdam, Netherlands",
        "latitude": 52.390801599999996,
        "longitude": 4.848980399999999
    },
    {
        "category": "temples",
        "title": "Gurdwara Maan Sarovar Sahib",
        "rating": 4.9,
        "address": "Baarsjesweg 281, 1058 AE Amsterdam, Netherlands",
        "latitude": 52.3600205,
        "longitude": 4.8561152
    },
    {
        "category": "temples",
        "title": "Tempel Amsterdam",
        "rating": 4.6,
        "address": "Tolstraat 160, 1074 VM Amsterdam, Netherlands",
        "latitude": 52.3525758,
        "longitude": 4.9064071
    },
    {
        "category": "temples",
        "title": "Ashram Dutcheswar Dhaam Mandir",
        "rating": 4.7,
        "address": "Oukoop 12, 3626 AB Nieuwer Ter Aa, Netherlands",
        "latitude": 52.205136599999996,
        "longitude": 4.9883023
    },
    {
        "category": "temples",
        "title": "Tantra Temple - Crystal Tree - Holland - Netherlands",
        "rating": 4.6,
        "address": "Hendrik van Wijnstraat 34, 1065 RA Amsterdam, Netherlands",
        "latitude": 52.359930299999995,
        "longitude": 4.8233131
    },
    {
        "category": "temples",
        "title": "Reform Jewish Congregation",
        "rating": 4.6,
        "address": "Zuidelijke Wandelweg 41, 1079 RK Amsterdam, Netherlands",
        "latitude": 52.3379718,
        "longitude": 4.897852599999999
    },
    {
        "category": "temples",
        "title": "Asamai Temple Netherland",
        "rating": 5,
        "address": "Heijermansstraat 129, 1502 DJ Zaandam, Netherlands",
        "latitude": 52.449953799999996,
        "longitude": 4.826349899999999
    },
    {
        "category": "temples",
        "title": "Wat Buddhavihara - วัดพุทธวิหาร อัมสเตอร์ดัม",
        "rating": 4.5,
        "address": "Leeghwaterpark 7, 1445 RA Purmerend, Netherlands",
        "latitude": 52.502595199999995,
        "longitude": 4.9745913999999996
    },
    {
        "category": "temples",
        "title": "Rigpa Nederland",
        "rating": 4.9,
        "address": "Kuipersstraat 148H, 1073 EV Amsterdam, Netherlands",
        "latitude": 52.353128299999995,
        "longitude": 4.9000314
    },
    {
        "category": "temples",
        "title": "Golden Temple Vegetarisch Restaurant",
        "rating": 4.5,
        "address": "Utrechtsestraat 126, 1017 VT Amsterdam, Netherlands",
        "latitude": 52.361349999999995,
        "longitude": 4.89914
    },
    {
        "category": "temples",
        "title": "Vegan Temple Bar",
        "rating": 4.6,
        "address": "Lange Leidsedwarsstraat 17, 1017 NE Amsterdam, Netherlands",
        "latitude": 52.364368199999994,
        "longitude": 4.8840775999999995
    },
    {
        "category": "temples",
        "title": "Paradiso",
        "rating": 4.6,
        "address": "Weteringschans 6-8, 1017 SG Amsterdam, Netherlands",
        "latitude": 52.3621619,
        "longitude": 4.8838059
    },
    {
        "category": "temples",
        "title": "Chinatown",
        "rating": 4.3,
        "address": "Zeedijk 123, 1012 AV Amsterdam, Netherlands",
        "latitude": 52.373779299999995,
        "longitude": 4.9002257
    },
    {
        "category": "temples",
        "title": "Zen Cirkel Amsterdam",
        "rating": null,
        "address": "Wg-Plein 9, 1054 RB Amsterdam, Netherlands",
        "latitude": 52.363887399999996,
        "longitude": 4.8715965
    },
    {
        "category": "museums",
        "title": "Rijksmuseum",
        "rating": 4.7,
        "address": "Museumstraat 1, 1071 XX Amsterdam, Netherlands",
        "latitude": 52.3599976,
        "longitude": 4.8852188
    },
    {
        "category": "museums",
        "title": "Van Gogh Museum",
        "rating": 4.6,
        "address": "Museumplein 6, 1071 DJ Amsterdam, Netherlands",
        "latitude": 52.3580757,
        "longitude": 4.8812052999999995
    },
    {
        "category": "museums",
        "title": "Amsterdam Museum",
        "rating": 4.3,
        "address": "Amstel 51, 1018 EH Amsterdam, Netherlands",
        "latitude": 52.365771699999996,
        "longitude": 4.9027821
    },
    {
        "category": "museums",
        "title": "Rembrandt House Museum",
        "rating": 4.5,
        "address": "Jodenbreestraat 4, 1011 NK Amsterdam, Netherlands",
        "latitude": 52.369369,
        "longitude": 4.9012348999999995
    },
    {
        "category": "museums",
        "title": "Moco Museum",
        "rating": 4.2,
        "address": "Honthorststraat 20, 1071 DE Amsterdam, Netherlands",
        "latitude": 52.3587389,
        "longitude": 4.881907399999999
    },
    {
        "category": "museums",
        "title": "Stedelijk Museum Amsterdam",
        "rating": 4.4,
        "address": "Museumplein 10, 1071 DJ Amsterdam, Netherlands",
        "latitude": 52.3580111,
        "longitude": 4.8797554
    },
    {
        "category": "museums",
        "title": "STRAAT Museum",
        "rating": 4.8,
        "address": "NDSM-Plein 1, 1033 WC Amsterdam, Netherlands",
        "latitude": 52.4021377,
        "longitude": 4.8942599
    },
    {
        "category": "museums",
        "title": "Anne Frank House",
        "rating": 4.5,
        "address": "Westermarkt 20, 1016 GV Amsterdam, Netherlands",
        "latitude": 52.3752182,
        "longitude": 4.8839765
    },
    {
        "category": "museums",
        "title": "Foam",
        "rating": 4.2,
        "address": "Keizersgracht 609, 1017 DS Amsterdam, Netherlands",
        "latitude": 52.3640863,
        "longitude": 4.8933224
    },
    {
        "category": "museums",
        "title": "National Maritime Museum",
        "rating": 4.5,
        "address": "Kattenburgerplein 1, 1018 KK Amsterdam, Netherlands",
        "latitude": 52.3715579,
        "longitude": 4.9143761999999995
    },
    {
        "category": "museums",
        "title": "Ons' Lieve Heer op Solder (Our Lord in the Attic Museum)",
        "rating": 4.7,
        "address": "Oudezijds Voorburgwal 38-40, 1012 GD Amsterdam, Netherlands",
        "latitude": 52.3751438,
        "longitude": 4.8994358
    },
    {
        "category": "museums",
        "title": "H'ART Museum (Hermitage Amsterdam)",
        "rating": 4.4,
        "address": "Amstel 51, 1018 EJ Amsterdam, Netherlands",
        "latitude": 52.3652692,
        "longitude": 4.902419
    },
    {
        "category": "museums",
        "title": "Museum of the Canals",
        "rating": 4.6,
        "address": "Herengracht 386, 1016 CJ Amsterdam, Netherlands",
        "latitude": 52.3678987,
        "longitude": 4.886253
    },
    {
        "category": "museums",
        "title": "Sexmuseum Amsterdam Venustempel",
        "rating": 4,
        "address": "Damrak 18, 1012 LH Amsterdam, Netherlands",
        "latitude": 52.3766136,
        "longitude": 4.8972278
    },
    {
        "category": "museums",
        "title": "NEMO Science Museum",
        "rating": 4.5,
        "address": "Oosterdok 2, 1011 VX Amsterdam, Netherlands",
        "latitude": 52.374170899999996,
        "longitude": 4.912325
    },
    {
        "category": "museums",
        "title": "Verzetsmuseum Amsterdam - Museum of WWII Resistance",
        "rating": 4.6,
        "address": "Plantage Kerklaan 61, 1018 CX Amsterdam, Netherlands",
        "latitude": 52.367813899999994,
        "longitude": 4.912764999999999
    },
    {
        "category": "museums",
        "title": "Madame Tussauds Amsterdam",
        "rating": 4.3,
        "address": "Dam 20, 1012 NP Amsterdam, Netherlands",
        "latitude": 52.3725915,
        "longitude": 4.8925782
    },
    {
        "category": "museums",
        "title": "Willet-Holthuysen Museum",
        "rating": 4.4,
        "address": "Herengracht 605, 1017 CE Amsterdam, Netherlands",
        "latitude": 52.3656747,
        "longitude": 4.8989709999999995
    },
    {
        "category": "museums",
        "title": "Museum Van Loon",
        "rating": 4.4,
        "address": "Keizersgracht 672, 1017 ET Amsterdam, Netherlands",
        "latitude": 52.3633598,
        "longitude": 4.8933276999999995
    },
    {
        "category": "museums",
        "title": "Micropia",
        "rating": 4.7,
        "address": "Plantage Kerklaan 38-40, 1018 CZ Amsterdam, Netherlands",
        "latitude": 52.3669735,
        "longitude": 4.9128242
    },
    {
        "category": "night markets",
        "title": "Nieuwmarkt market",
        "rating": 3.9,
        "address": "Nieuwmarkt 4, 1012 CR Amsterdam, Netherlands",
        "latitude": 52.3725047,
        "longitude": 4.9002837
    },
    {
        "category": "night markets",
        "title": "Westerstraat market",
        "rating": 4.4,
        "address": "Westerstraat, 1015 MP Amsterdam, Netherlands",
        "latitude": 52.3783727,
        "longitude": 4.8832026
    },
    {
        "category": "night markets",
        "title": "de Pinguin Avondverkoop",
        "rating": 3.2,
        "address": "Berenstraat 5, 1016 GG Amsterdam, Netherlands",
        "latitude": 52.3703333,
        "longitude": 4.8839999999999995
    },
    {
        "category": "night markets",
        "title": "Westerpark Market (Every 1st Sunday)",
        "rating": 4.5,
        "address": "Polonceaukade, 1014 DB Amsterdam, Netherlands",
        "latitude": 52.385711699999995,
        "longitude": 4.8694479
    },
    {
        "category": "night markets",
        "title": "Ten Kate Market",
        "rating": 4.1,
        "address": "Ten Katestraat 20, 1053 BE Amsterdam, Netherlands",
        "latitude": 52.366014199999995,
        "longitude": 4.867456
    },
    {
        "category": "night markets",
        "title": "Noordermarkt",
        "rating": 4.5,
        "address": "1015 MZ Amsterdam, Netherlands",
        "latitude": 52.379875899999995,
        "longitude": 4.8860858
    },
    {
        "category": "night markets",
        "title": "ZuiderMRKT",
        "rating": 4.5,
        "address": "Jacob Obrechtstraat, Johannes Verhulststraat, 1071 KM Amsterdam, Netherlands",
        "latitude": 52.3554393,
        "longitude": 4.875817
    },
    {
        "category": "night markets",
        "title": "Pacific Market International",
        "rating": null,
        "address": "Herengracht 124-128, 1015 BT Amsterdam, Netherlands",
        "latitude": 52.3755666,
        "longitude": 4.8882638
    },
    {
        "category": "night markets",
        "title": "Heuft",
        "rating": 4,
        "address": "Rijnstraat 62, 1079 HJ Amsterdam, Netherlands",
        "latitude": 52.3458727,
        "longitude": 4.9051445
    },
    {
        "category": "night markets",
        "title": "De 9 Straatjes",
        "rating": 4.5,
        "address": "Wolvenstraat 9, 1016 EM Amsterdam, Netherlands",
        "latitude": 52.370196899999996,
        "longitude": 4.8860510999999995
    },
    {
        "category": "night markets",
        "title": "Westerpark",
        "rating": 4.6,
        "address": "Haarlemmerweg 4, 1014 BE Amsterdam, Netherlands",
        "latitude": 52.386127099999996,
        "longitude": 4.877835
    },
    {
        "category": "night markets",
        "title": "Chinatown",
        "rating": 4.3,
        "address": "Zeedijk 123, 1012 AV Amsterdam, Netherlands",
        "latitude": 52.373779299999995,
        "longitude": 4.9002257
    },
    {
        "category": "night markets",
        "title": "Rijksmuseum",
        "rating": 4.7,
        "address": "Museumstraat 1, 1071 XX Amsterdam, Netherlands",
        "latitude": 52.3599976,
        "longitude": 4.8852188
    },
    {
        "category": "night markets",
        "title": "NDSM",
        "rating": 4.5,
        "address": "NDSM-Plein 90C, 1033 WB Amsterdam, Netherlands",
        "latitude": 52.400523799999995,
        "longitude": 4.895832899999999
    },
    {
        "category": "night markets",
        "title": "Toko Sunrise",
        "rating": 4.6,
        "address": "Binnen Bantammerstraat 3, 1011 CH Amsterdam, Netherlands",
        "latitude": 52.3739515,
        "longitude": 4.901993
    },
    {
        "category": "night markets",
        "title": "Free Food Tour Amsterdam",
        "rating": 5,
        "address": "Warmoesstraat 56, 1012 JG Amsterdam, Netherlands",
        "latitude": 52.375398999999994,
        "longitude": 4.8980315999999995
    },
    {
        "category": "night markets",
        "title": "A'DAM Lookout",
        "rating": 4.6,
        "address": "IJpromenade 4, 1031 KT Amsterdam, Netherlands",
        "latitude": 52.3839541,
        "longitude": 4.9020649999999995
    },
    {
        "category": "night markets",
        "title": "Rembrandt Monument",
        "rating": 4.6,
        "address": "Rembrandtplein 28, 1017 CV Amsterdam, Netherlands",
        "latitude": 52.366004,
        "longitude": 4.896562299999999
    },
    {
        "category": "night markets",
        "title": "Red Light Secrets Museum",
        "rating": 4.2,
        "address": "Oudezijds Achterburgwal 60h, 1012 DP Amsterdam, Netherlands",
        "latitude": 52.373681499999996,
        "longitude": 4.8990206
    },
    {
        "category": "night markets",
        "title": "Club Church",
        "rating": 4.4,
        "address": "Kerkstraat 52, 1017 GM Amsterdam, Netherlands",
        "latitude": 52.365254,
        "longitude": 4.885574999999999
    },
    {
        "category": "viewpoints",
        "title": "A'DAM Lookout",
        "rating": 4.6,
        "address": "IJpromenade 4, 1031 KT Amsterdam, Netherlands",
        "latitude": 52.3839541,
        "longitude": 4.9020649999999995
    },
    {
        "category": "viewpoints",
        "title": "Magere Brug Amsterdam Viewpoint",
        "rating": 5,
        "address": "Skinny Bridge, Magere Brug, 1018 EK Amsterdam, Netherlands",
        "latitude": 52.3635763,
        "longitude": 4.9022292
    },
    {
        "category": "viewpoints",
        "title": "Vondelpark",
        "rating": 4.7,
        "address": "1071 AA Amsterdam, Netherlands",
        "latitude": 52.3579946,
        "longitude": 4.8686484
    },
    {
        "category": "viewpoints",
        "title": "A'DAM Tower",
        "rating": 4.6,
        "address": "Overhoeksplein 1, 1031 KS Amsterdam, Netherlands",
        "latitude": 52.383735099999996,
        "longitude": 4.9022048
    },
    {
        "category": "viewpoints",
        "title": "IJ Viewpoint",
        "rating": 4.7,
        "address": "IJ, 1033 Amsterdam, Netherlands",
        "latitude": 52.398902299999996,
        "longitude": 4.8915333
    },
    {
        "category": "viewpoints",
        "title": "Seven Bridges View Point",
        "rating": 4.2,
        "address": "Thorbeckeplein 30, 1017 CS Amsterdam, Netherlands",
        "latitude": 52.3649598,
        "longitude": 4.8958702999999995
    },
    {
        "category": "viewpoints",
        "title": "Dam Square",
        "rating": 4.5,
        "address": "Dam, 1012 RJ Amsterdam, Netherlands",
        "latitude": 52.3731006,
        "longitude": 4.8924274
    },
    {
        "category": "viewpoints",
        "title": "Keizersgracht Canal Viewpoint",
        "rating": 5,
        "address": "Keizersgracht, 1017 DW Amsterdam, Netherlands",
        "latitude": 52.3636729,
        "longitude": 4.8981499
    },
    {
        "category": "viewpoints",
        "title": "Vijzelstraat Viewpoint",
        "rating": 5,
        "address": "Vijzelstraat 30, 1017 HL Amsterdam, Netherlands",
        "latitude": 52.3652166,
        "longitude": 4.8928367
    },
    {
        "category": "viewpoints",
        "title": "Amsterdam Canal Junction View",
        "rating": 4.5,
        "address": "Amstelveld 31, 1017 JD Amsterdam, Netherlands",
        "latitude": 52.361744699999996,
        "longitude": 4.8961895
    },
    {
        "category": "viewpoints",
        "title": "Halvemmaansbrug viewpoint dancing houses",
        "rating": 5,
        "address": "Halvemaansbrug, 1012 CP Amsterdam, Netherlands",
        "latitude": 52.367455199999995,
        "longitude": 4.8960199
    },
    {
        "category": "viewpoints",
        "title": "Brouwersgracht",
        "rating": 4.6,
        "address": "1013 HC Amsterdam, Netherlands",
        "latitude": 52.383598799999994,
        "longitude": 4.8832958
    },
    {
        "category": "viewpoints",
        "title": "Amstel Riverside Viewpoint",
        "rating": 5,
        "address": "Keizersgracht 1111, 1091 XD Amsterdam, Netherlands",
        "latitude": 52.3642627,
        "longitude": 4.901161999999999
    },
    {
        "category": "viewpoints",
        "title": "Munttoren",
        "rating": 4.5,
        "address": "Muntplein 12/14, 1012 WR Amsterdam, Netherlands",
        "latitude": 52.367041,
        "longitude": 4.8932901
    },
    {
        "category": "viewpoints",
        "title": "Skinny Bridge",
        "rating": 4.5,
        "address": "Magere Brug, 1018 EK Amsterdam, Netherlands",
        "latitude": 52.3635978,
        "longitude": 4.9023824
    },
    {
        "category": "viewpoints",
        "title": "Rembrandtpark",
        "rating": 4.5,
        "address": "Postjesweg, 1057 NT Amsterdam, Netherlands",
        "latitude": 52.364722199999996,
        "longitude": 4.8461111
    },
    {
        "category": "viewpoints",
        "title": "Westertoren",
        "rating": 4.6,
        "address": "Prinsengracht 279a, 1016 GW Amsterdam, Netherlands",
        "latitude": 52.374561799999995,
        "longitude": 4.883512
    },
    {
        "category": "viewpoints",
        "title": "Beatrixpark",
        "rating": 4.6,
        "address": "Diepenbrockstraat 21, 1077 VX Amsterdam, Netherlands",
        "latitude": 52.3429769,
        "longitude": 4.880704
    },
    {
        "category": "viewpoints",
        "title": "Prinsengracht – Anne Frank House Viewpoint",
        "rating": 5,
        "address": "Eerste Looiersdwarsstraat, 1016 VR Amsterdam, Netherlands",
        "latitude": 52.3685068,
        "longitude": 4.8814155999999995
    },
    {
        "category": "viewpoints",
        "title": "Majoor Bosshardtbrug",
        "rating": 4.6,
        "address": "Oudezijds Achterburgwal 60 /1, 1012 DA Amsterdam, Netherlands",
        "latitude": 52.3737144,
        "longitude": 4.8993059
    },
    {
        "category": "gardens",
        "title": "Hortus Botanicus",
        "rating": 4.4,
        "address": "Plantage Middenlaan 2a, 1018 DD Amsterdam, Netherlands",
        "latitude": 52.366918899999995,
        "longitude": 4.907623
    },
    {
        "category": "gardens",
        "title": "Hortus Botanicus Vrije Universiteit Amsterdam",
        "rating": 4.6,
        "address": "Van der Boechorststraat 8, 1081 BT Amsterdam, Netherlands",
        "latitude": 52.332601999999994,
        "longitude": 4.8604056
    },
    {
        "category": "gardens",
        "title": "Rijksmuseumtuinen",
        "rating": 4.7,
        "address": "Museumpromenade 1, 1071 DJ Amsterdam, Netherlands",
        "latitude": 52.3592705,
        "longitude": 4.884879
    },
    {
        "category": "gardens",
        "title": "Vondelpark",
        "rating": 4.7,
        "address": "1071 AA Amsterdam, Netherlands",
        "latitude": 52.3579946,
        "longitude": 4.8686484
    },
    {
        "category": "gardens",
        "title": "The Miracle Garden",
        "rating": 4.6,
        "address": "Erasmuspark, 1055 BJ Amsterdam, Netherlands",
        "latitude": 52.374987399999995,
        "longitude": 4.8529358
    },
    {
        "category": "gardens",
        "title": "Amstelpark",
        "rating": 4.6,
        "address": "Arent Janszoon Ernststraat 1, 1083 GA Amsterdam, Netherlands",
        "latitude": 52.330065499999996,
        "longitude": 4.8939908
    },
    {
        "category": "gardens",
        "title": "Beatrixpark",
        "rating": 4.6,
        "address": "Diepenbrockstraat 21, 1077 VX Amsterdam, Netherlands",
        "latitude": 52.3429769,
        "longitude": 4.880704
    },
    {
        "category": "gardens",
        "title": "Park Frankendael",
        "rating": 4.5,
        "address": "1097 DE Amsterdam, Netherlands",
        "latitude": 52.3511853,
        "longitude": 4.9308048
    },
    {
        "category": "gardens",
        "title": "Buurttuin Valentijn",
        "rating": 4.7,
        "address": "Valentijnkade, 1095 KH Amsterdam, Netherlands",
        "latitude": 52.3584469,
        "longitude": 4.9450983
    },
    {
        "category": "gardens",
        "title": "Darwin’s Flower Garden",
        "rating": 4.6,
        "address": "1097 EZ Amsterdam, Netherlands",
        "latitude": 52.3450315,
        "longitude": 4.9312670999999995
    },
    {
        "category": "gardens",
        "title": "Hoftuin",
        "rating": 4.8,
        "address": "Nieuwe Herengracht 18a, 1018 DP Amsterdam, Netherlands",
        "latitude": 52.3657251,
        "longitude": 4.9042904
    },
    {
        "category": "gardens",
        "title": "Queer Garden",
        "rating": 4.3,
        "address": "Singel 43D, 1012 VC Amsterdam, Netherlands",
        "latitude": 52.3770232,
        "longitude": 4.8923327
    },
    {
        "category": "gardens",
        "title": "De Kruidenpluktuin van de Weteringbuurt",
        "rating": 4.6,
        "address": "Eerste Weteringplantsoen, 1017 SG Amsterdam, Netherlands",
        "latitude": 52.360073899999996,
        "longitude": 4.8887038
    },
    {
        "category": "gardens",
        "title": "Gijsbrecht Aemstelpark",
        "rating": 4.4,
        "address": "Van Nijenrodeweg 472, 1082 HM Amsterdam, Netherlands",
        "latitude": 52.3287291,
        "longitude": 4.8737214
    },
    {
        "category": "gardens",
        "title": "Oosterpark Amsterdam",
        "rating": 4.5,
        "address": "Oosterpark, 1012 AA Amsterdam, Netherlands",
        "latitude": 52.360082299999995,
        "longitude": 4.9204907
    },
    {
        "category": "gardens",
        "title": "Westerpark",
        "rating": 4.6,
        "address": "Haarlemmerweg 4, 1014 BE Amsterdam, Netherlands",
        "latitude": 52.386127099999996,
        "longitude": 4.877835
    },
    {
        "category": "gardens",
        "title": "Begijnhof",
        "rating": 4.5,
        "address": "1, 1012 WS Amsterdam, Netherlands",
        "latitude": 52.3694585,
        "longitude": 4.8903539
    },
    {
        "category": "gardens",
        "title": "Rosarium Vondelpark",
        "rating": 4.6,
        "address": "1054 NE Amsterdam, Netherlands",
        "latitude": 52.3576252,
        "longitude": 4.863571299999999
    },
    {
        "category": "gardens",
        "title": "Het Amsterdamse Bos",
        "rating": 4.6,
        "address": "Amstelveen, Netherlands",
        "latitude": 52.3149817,
        "longitude": 4.832342
    },
    {
        "category": "gardens",
        "title": "Floating Garden The Ocean",
        "rating": 4.2,
        "address": "Entrepothaven, 1019 HA Amsterdam, Netherlands",
        "latitude": 52.369673399999996,
        "longitude": 4.9408313999999995
    },
    {
        "category": "adventure parks",
        "title": "Klimpark Fun Forest Amsterdam",
        "rating": 4.6,
        "address": "Bosbaanweg 3, 1182 DA Amstelveen, Netherlands",
        "latitude": 52.3273338,
        "longitude": 4.8555708
    },
    {
        "category": "adventure parks",
        "title": "Walibi Holland",
        "rating": 4.3,
        "address": "Spijkweg 30, 8256 RJ Biddinghuizen, Netherlands",
        "latitude": 52.436302999999995,
        "longitude": 5.7590729
    },
    {
        "category": "adventure parks",
        "title": "Duinrell",
        "rating": 4.2,
        "address": "1, 2242 JP Wassenaar, Netherlands",
        "latitude": 52.146517499999995,
        "longitude": 4.3843588
    },
    {
        "category": "adventure parks",
        "title": "playground Amstelpark",
        "rating": 4.6,
        "address": "Amstelpark 18, 1083 HZ Amsterdam, Netherlands",
        "latitude": 52.3332743,
        "longitude": 4.8947198
    },
    {
        "category": "adventure parks",
        "title": "Het Amsterdamse Bos",
        "rating": 4.6,
        "address": "Amstelveen, Netherlands",
        "latitude": 52.3149817,
        "longitude": 4.832342
    },
    {
        "category": "adventure parks",
        "title": "Eendrachtspark",
        "rating": 4.2,
        "address": "Ruys de Beerenbrouckstraat 1067, 1067 BL Amsterdam, Netherlands",
        "latitude": 52.3816937,
        "longitude": 4.8094187999999995
    },
    {
        "category": "adventure parks",
        "title": "Efteling",
        "rating": 4.6,
        "address": "Europalaan 1, 5171 KW Kaatsheuvel, Netherlands",
        "latitude": 51.6503222,
        "longitude": 5.0469573
    },
    {
        "category": "adventure parks",
        "title": "Amstelpark",
        "rating": 4.6,
        "address": "Arent Janszoon Ernststraat 1, 1083 GA Amsterdam, Netherlands",
        "latitude": 52.330065499999996,
        "longitude": 4.8939908
    },
    {
        "category": "adventure parks",
        "title": "Koopvaardersplantsoen Park",
        "rating": 4.6,
        "address": "Koopvaardersplantsoen, 1034 KE Amsterdam, Netherlands",
        "latitude": 52.4049037,
        "longitude": 4.9145609
    },
    {
        "category": "adventure parks",
        "title": "Frederik Hendrikplantsoen",
        "rating": 4.5,
        "address": "Nassaukade 66ST, 1052 CR Amsterdam, Netherlands",
        "latitude": 52.3795156,
        "longitude": 4.8774922
    },
    {
        "category": "adventure parks",
        "title": "Schellingwouderpark",
        "rating": 4.5,
        "address": "Schellingwouderdijk 109, 1023 NA Amsterdam, Netherlands",
        "latitude": 52.3850252,
        "longitude": 4.9549463
    },
    {
        "category": "adventure parks",
        "title": "Park de Meer",
        "rating": 4.3,
        "address": "Wembleylaan 5, 1098 WG Amsterdam, Netherlands",
        "latitude": 52.3443325,
        "longitude": 4.9489078
    },
    {
        "category": "adventure parks",
        "title": "Vondelpark",
        "rating": 4.7,
        "address": "1071 AA Amsterdam, Netherlands",
        "latitude": 52.3579946,
        "longitude": 4.8686484
    },
    {
        "category": "adventure parks",
        "title": "The Park Playground VR Amsterdam",
        "rating": 4.8,
        "address": "Rigakade 10, 1013 BC Amsterdam, Netherlands",
        "latitude": 52.3951451,
        "longitude": 4.8749761
    },
    {
        "category": "adventure parks",
        "title": "Madurodam",
        "rating": 4.5,
        "address": "George Maduroplein 1, 2584 RZ Den Haag, Netherlands",
        "latitude": 52.099076,
        "longitude": 4.2990392
    },
    {
        "category": "adventure parks",
        "title": "Westerpark",
        "rating": 4.6,
        "address": "Haarlemmerweg 4, 1014 BE Amsterdam, Netherlands",
        "latitude": 52.386127099999996,
        "longitude": 4.877835
    },
    {
        "category": "adventure parks",
        "title": "WONDR Experience",
        "rating": 4.7,
        "address": "Meeuwenlaan 88, 1021 JK Amsterdam, Netherlands",
        "latitude": 52.3854864,
        "longitude": 4.9196773
    },
    {
        "category": "adventure parks",
        "title": "AdventurePark Hellendoorn",
        "rating": 4.3,
        "address": "Luttenbergerweg 22, 7447 PB Hellendoorn, Netherlands",
        "latitude": 52.389441999999995,
        "longitude": 6.4352725
    },
    {
        "category": "adventure parks",
        "title": "Oud Valkeveen",
        "rating": 4.5,
        "address": "Oud Huizerweg 2, 1411 GZ Naarden, Netherlands",
        "latitude": 52.3046995,
        "longitude": 5.192306299999999
    },
    {
        "category": "adventure parks",
        "title": "You Kids Indoor playground Amsterdam-Oost",
        "rating": 4.9,
        "address": "Daniël Goedkoopstraat 1, 1096 BD Amsterdam, Netherlands",
        "latitude": 52.3359282,
        "longitude": 4.9199418
    },
    {
        "category": "hot springs",
        "title": "Nagomi Spa & Health",
        "rating": 4.6,
        "address": "Ferdinand Bolstraat 333, 1072 LH Amsterdam, Netherlands",
        "latitude": 52.348718,
        "longitude": 4.894031
    },
    {
        "category": "hot springs",
        "title": "Spa 1001",
        "rating": 4.8,
        "address": "Johan van Hasseltweg 84, 1022 WX Amsterdam, Netherlands",
        "latitude": 52.3868899,
        "longitude": 4.926220799999999
    },
    {
        "category": "hot springs",
        "title": "1001",
        "rating": 4.7,
        "address": "Meer en Vaart 4, 1068 ZZ Amsterdam, Netherlands",
        "latitude": 52.3658346,
        "longitude": 4.8036996
    },
    {
        "category": "hot springs",
        "title": "Guerlain Spa",
        "rating": 4.5,
        "address": "Herengracht 542-556, 1017 CG Amsterdam, Netherlands",
        "latitude": 52.364703999999996,
        "longitude": 4.8966284
    },
    {
        "category": "hot springs",
        "title": "Badhuis & Sauna Da Costa | Sauna Amsterdam",
        "rating": 4.2,
        "address": "Da Costakade 200, 1053 XH Amsterdam, Netherlands",
        "latitude": 52.3667801,
        "longitude": 4.8736239999999995
    },
    {
        "category": "hot springs",
        "title": "Hotel & Wellness Zuiver",
        "rating": 3.7,
        "address": "Koenenkade 8, 1081 KH Amsterdam, Netherlands",
        "latitude": 52.3310335,
        "longitude": 4.8535742
    },
    {
        "category": "hot springs",
        "title": "Sento Spa and Health Club",
        "rating": 4.5,
        "address": "Marnixplein 1, 1015 ZN Amsterdam, Netherlands",
        "latitude": 52.378070799999996,
        "longitude": 4.8786182
    },
    {
        "category": "hot springs",
        "title": "AWAY SPA by W Hotels",
        "rating": 4.5,
        "address": "Spuistraat 172, 1012 WE Amsterdam, Netherlands",
        "latitude": 52.372605199999995,
        "longitude": 4.8892048
    },
    {
        "category": "hot springs",
        "title": "Akasha Spa - Amsterdam",
        "rating": 4,
        "address": "Paulus Potterstraat 50, 1071 DB Amsterdam, Netherlands",
        "latitude": 52.3585521,
        "longitude": 4.8794723
    },
    {
        "category": "hot springs",
        "title": "Sauna Nieuwezijds",
        "rating": 4.1,
        "address": "Nieuwezijds Armsteeg 95, 1012 NB Amsterdam, Netherlands",
        "latitude": 52.3769792,
        "longitude": 4.8956298
    },
    {
        "category": "hot springs",
        "title": "Five City Spa",
        "rating": 4.6,
        "address": "Eerste Jacob van Campenstraat 39, 1072 BC Amsterdam, Netherlands",
        "latitude": 52.3575697,
        "longitude": 4.8895623
    },
    {
        "category": "hot springs",
        "title": "The City Street Spa",
        "rating": 3.8,
        "address": "Prinsengracht 764bg, 1017 LE Amsterdam, Netherlands",
        "latitude": 52.361552499999995,
        "longitude": 4.8971138
    },
    {
        "category": "hot springs",
        "title": "Du Sahara Hammam - Amsterdam",
        "rating": 3.7,
        "address": "Chris Lebeaustraat 1, 1062 DC Amsterdam, Netherlands",
        "latitude": 52.362477899999995,
        "longitude": 4.838049799999999
    },
    {
        "category": "hot springs",
        "title": "Het Amsterdamse Bos",
        "rating": 4.6,
        "address": "Amstelveen, Netherlands",
        "latitude": 52.3149817,
        "longitude": 4.832342
    },
    {
        "category": "hot springs",
        "title": "Fort Resort Beemster",
        "rating": 4.6,
        "address": "Nekkerweg 24, 1461 LC Zuidoostbeemster, Netherlands",
        "latitude": 52.527915899999996,
        "longitude": 4.928467299999999
    },
    {
        "category": "hot springs",
        "title": "Ton Pho Nuad Thai Amsterdam",
        "rating": 4.8,
        "address": "Overtoom 66H, 1054 HL Amsterdam, Netherlands",
        "latitude": 52.363151699999996,
        "longitude": 4.8761043
    },
    {
        "category": "hot springs",
        "title": "Hortus Botanicus",
        "rating": 4.4,
        "address": "Plantage Middenlaan 2a, 1018 DD Amsterdam, Netherlands",
        "latitude": 52.366918899999995,
        "longitude": 4.907623
    },
    {
        "category": "hot springs",
        "title": "Waldorf Astoria Amsterdam",
        "rating": 4.8,
        "address": "Herengracht 542-556, 1017 CG Amsterdam, Netherlands",
        "latitude": 52.364768,
        "longitude": 4.896945
    },
    {
        "category": "hot springs",
        "title": "De Riekermolen (1636)",
        "rating": 4.6,
        "address": "De Borcht 10, 1083 AC Amsterdam, Netherlands",
        "latitude": 52.324084899999995,
        "longitude": 4.8937802
    },
    {
        "category": "hot springs",
        "title": "ARTIS",
        "rating": 4.5,
        "address": "Plantage Kerklaan 38-40, 1018 CZ Amsterdam, Netherlands",
        "latitude": 52.366000299999996,
        "longitude": 4.9165320999999995
    },
    {
        "category": "shopping malls",
        "title": "Kalverpassage",
        "rating": 4.1,
        "address": "Kalverstraat 212-220, 1012 WP Amsterdam, Netherlands",
        "latitude": 52.3675,
        "longitude": 4.8913889
    },
    {
        "category": "shopping malls",
        "title": "Magna Plaza",
        "rating": 3.7,
        "address": "Nieuwezijds Voorburgwal 182I, 1012 SJ Amsterdam, Netherlands",
        "latitude": 52.373621,
        "longitude": 4.890467999999999
    },
    {
        "category": "shopping malls",
        "title": "Amsterdamse Poort",
        "rating": 4.1,
        "address": "Bijlmerdreef 101, 1102 DB Amsterdam, Netherlands",
        "latitude": 52.314164,
        "longitude": 4.9526463
    },
    {
        "category": "shopping malls",
        "title": "Shopping Center Brazilië",
        "rating": 4.1,
        "address": "Oostelijke Handelskade 1065, 1019 CZ Amsterdam, Netherlands",
        "latitude": 52.3744407,
        "longitude": 4.9351926
    },
    {
        "category": "shopping malls",
        "title": "Gelderlandplein",
        "rating": 4.4,
        "address": "Van Leijenberghlaan 43, 1082 GC Amsterdam, Netherlands",
        "latitude": 52.3310244,
        "longitude": 4.877506599999999
    },
    {
        "category": "shopping malls",
        "title": "de Bijenkorf Amsterdam",
        "rating": 4.3,
        "address": "Dam 1, 1012 JS Amsterdam, Netherlands",
        "latitude": 52.373753099999995,
        "longitude": 4.8952706
    },
    {
        "category": "shopping malls",
        "title": "Winkelcentrum Oostpoort",
        "rating": 4.2,
        "address": "Oranje-Vrijstaatplein 2, 1093 NG Amsterdam, Netherlands",
        "latitude": 52.3564837,
        "longitude": 4.9303270999999995
    },
    {
        "category": "shopping malls",
        "title": "Woonmall Villa ArenA",
        "rating": 4,
        "address": "De Entree 1, 1101 BH Amsterdam, Netherlands",
        "latitude": 52.3123776,
        "longitude": 4.9384912
    },
    {
        "category": "shopping malls",
        "title": "Plein '40-'45 Shopping Center",
        "rating": 4,
        "address": "Joop van Weezelhof 23, 1063 MK Amsterdam, Netherlands",
        "latitude": 52.3803026,
        "longitude": 4.8229874
    },
    {
        "category": "shopping malls",
        "title": "De Hallen",
        "rating": 4.5,
        "address": "Hannie Dankbaarpassage 47, 1053 RT Amsterdam, Netherlands",
        "latitude": 52.366844799999996,
        "longitude": 4.868769299999999
    },
    {
        "category": "shopping malls",
        "title": "Winkelcentrum Boven 't Y",
        "rating": 4,
        "address": "Buikslotermeerplein 229, 1025 EZ Amsterdam, Netherlands",
        "latitude": 52.3988161,
        "longitude": 4.937519
    },
    {
        "category": "shopping malls",
        "title": "Westfield Mall of the Netherlands",
        "rating": 4.3,
        "address": "Liguster 202, 2262 AC Leidschendam, Netherlands",
        "latitude": 52.089002099999995,
        "longitude": 4.3839362
    },
    {
        "category": "shopping malls",
        "title": "Stadshart Amstelveen",
        "rating": 4.3,
        "address": "Rembrandtweg 41a, 1181 GE Amstelveen, Netherlands",
        "latitude": 52.3029728,
        "longitude": 4.860943499999999
    },
    {
        "category": "shopping malls",
        "title": "Osdorpplein Shopping Centre",
        "rating": 4.1,
        "address": "Osdorpplein 671, 1068 TC Amsterdam, Netherlands",
        "latitude": 52.359006099999995,
        "longitude": 4.8048911
    },
    {
        "category": "shopping malls",
        "title": "De Beurspassage",
        "rating": 4.5,
        "address": "Beurspassage 8, 1012 LM Amsterdam, Netherlands",
        "latitude": 52.374631199999996,
        "longitude": 4.8945055
    },
    {
        "category": "shopping malls",
        "title": "Shopping Center Reigersbos",
        "rating": 4,
        "address": "Reigersbos 96, 1107 ES Amsterdam, Netherlands",
        "latitude": 52.295696199999995,
        "longitude": 4.975789
    },
    {
        "category": "shopping malls",
        "title": "ArenAPoort",
        "rating": 4.2,
        "address": "Johan Cruijff Boulevard 600, 1101 DS Amsterdam, Netherlands",
        "latitude": 52.3122973,
        "longitude": 4.9455088
    },
    {
        "category": "shopping malls",
        "title": "Akerpoort Outlet & Megastores",
        "rating": 4,
        "address": "Zuidermolenweg 50, 1069 CG Amsterdam, Netherlands",
        "latitude": 52.360409999999995,
        "longitude": 4.782237299999999
    },
    {
        "category": "shopping malls",
        "title": "IJpassage",
        "rating": 4.4,
        "address": "Stationsplein 39, 1012 AB Amsterdam, Netherlands",
        "latitude": 52.3791193,
        "longitude": 4.9001003
    },
    {
        "category": "shopping malls",
        "title": "Batavia Stad Fashion Outlet",
        "rating": 4.3,
        "address": "Bataviaplein 60, 8242 PN Lelystad, Netherlands",
        "latitude": 52.523229099999995,
        "longitude": 5.4426197
    },
    {
        "category": "historical sites",
        "title": "Royal Palace Amsterdam",
        "rating": 4.6,
        "address": "Nieuwezijds Voorburgwal 147, 1012 RJ Amsterdam, Netherlands",
        "latitude": 52.373183499999996,
        "longitude": 4.8913758
    },
    {
        "category": "historical sites",
        "title": "Dam Square",
        "rating": 4.5,
        "address": "Dam, 1012 RJ Amsterdam, Netherlands",
        "latitude": 52.3731006,
        "longitude": 4.8924274
    },
    {
        "category": "historical sites",
        "title": "Rijksmuseum",
        "rating": 4.7,
        "address": "Museumstraat 1, 1071 XX Amsterdam, Netherlands",
        "latitude": 52.3599976,
        "longitude": 4.8852188
    },
    {
        "category": "historical sites",
        "title": "Begijnhof",
        "rating": 4.5,
        "address": "1, 1012 WS Amsterdam, Netherlands",
        "latitude": 52.3694585,
        "longitude": 4.8903539
    },
    {
        "category": "historical sites",
        "title": "National Monument",
        "rating": 4.4,
        "address": "Dam, 1012 JS Amsterdam, Netherlands",
        "latitude": 52.372836299999996,
        "longitude": 4.8936944
    },
    {
        "category": "historical sites",
        "title": "Dungeon Amsterdam",
        "rating": 4.5,
        "address": "The Amsterdam Dungeon, Rokin 78, 1012 KW Amsterdam, Netherlands",
        "latitude": 52.3701599,
        "longitude": 4.8921108
    },
    {
        "category": "historical sites",
        "title": "Westertoren",
        "rating": 4.6,
        "address": "Prinsengracht 279a, 1016 GW Amsterdam, Netherlands",
        "latitude": 52.374561799999995,
        "longitude": 4.883512
    },
    {
        "category": "historical sites",
        "title": "H'ART Museum (Hermitage Amsterdam)",
        "rating": 4.4,
        "address": "Amstel 51, 1018 EJ Amsterdam, Netherlands",
        "latitude": 52.3652692,
        "longitude": 4.902419
    },
    {
        "category": "historical sites",
        "title": "Anne Frank House",
        "rating": 4.5,
        "address": "Westermarkt 20, 1016 GV Amsterdam, Netherlands",
        "latitude": 52.3752182,
        "longitude": 4.8839765
    },
    {
        "category": "historical sites",
        "title": "Munttoren",
        "rating": 4.5,
        "address": "Muntplein 12/14, 1012 WR Amsterdam, Netherlands",
        "latitude": 52.367041,
        "longitude": 4.8932901
    },
    {
        "category": "historical sites",
        "title": "National Slavery Monument",
        "rating": 4.4,
        "address": "Oosterpark 9, 1092 AA Amsterdam, Netherlands",
        "latitude": 52.3586624,
        "longitude": 4.9178383
    },
    {
        "category": "historical sites",
        "title": "Oude Kerk Amsterdam",
        "rating": 4.4,
        "address": "Oudekerksplein 23, 1012 GX Amsterdam, Netherlands",
        "latitude": 52.374417699999995,
        "longitude": 4.898176299999999
    },
    {
        "category": "historical sites",
        "title": "Amsterdam Museum",
        "rating": 4.3,
        "address": "Amstel 51, 1018 EH Amsterdam, Netherlands",
        "latitude": 52.365771699999996,
        "longitude": 4.9027821
    },
    {
        "category": "historical sites",
        "title": "Rasphuispoort",
        "rating": 4.8,
        "address": "Heiligeweg, 1012 XN Amsterdam, Netherlands",
        "latitude": 52.3677158,
        "longitude": 4.8910862
    },