[
    {
        "category": "tourist attractions",
        "title": "Bắc Ninh Museum",
        "rating": 4.3,
        "address": "02 Đ. Lý Thái Tổ, Suối Hoa, Bắc Ninh, Vietnam",
        "latitude": 21.1841811,
        "longitude": 106.0747909
    },
    {
        "category": "tourist attractions",
        "title": "Ba Chua Kho Temple",
        "rating": 4.6,
        "address": "Khu, Cổ Mễ, Tp. Bắc Ninh, Bắc Ninh 790000, Vietnam",
        "latitude": 21.2049918,
        "longitude": 106.0856166
    },
    {
        "category": "tourist attractions",
        "title": "Bac Ninh Temple of Literature",
        "rating": 4.6,
        "address": "Đại Phúc, Bắc Ninh, Vietnam",
        "latitude": 21.174700299999998,
        "longitude": 106.06892649999999
    },
    {
        "category": "tourist attractions",
        "title": "Cây cô đơn đê Hữu Chấp Bắc Ninh",
        "rating": 4.6,
        "address": "63F6+RF, Hoà Long, Bắc Ninh, Vietnam",
        "latitude": 21.224543099999998,
        "longitude": 106.0611417
    },
    {
        "category": "tourist attractions",
        "title": "Cột cờ Bắc Ninh",
        "rating": 4.4,
        "address": "Cột cờ, Nguyễn Du, P.Tiền An, Bắc Ninh, Vietnam",
        "latitude": 21.1806756,
        "longitude": 106.06228499999999
    },
    {
        "category": "parks",
        "title": "Literature Park",
        "rating": 4.5,
        "address": "5389+FX9, Đại Phúc, Bắc Ninh, Vietnam",
        "latitude": 21.1660818,
        "longitude": 106.0705428
    },
    {
        "category": "parks",
        "title": "Công Viên Hữu Nghị Quốc Tế",
        "rating": 4.7,
        "address": "Huyền Quang, Đại Phúc, Bắc Ninh, Vietnam",
        "latitude": 21.1677428,
        "longitude": 106.0690419
    },
    {
        "category": "parks",
        "title": "Công Viên Thiếu Nhi Y Na",
        "rating": 4.4,
        "address": "53R7+HH8, Kinh Bắc, Bắc Ninh, Vietnam",
        "latitude": 21.191408,
        "longitude": 106.06394429999999
    },
    {
        "category": "parks",
        "title": "Công viên Nguyễn Văn Cừ",
        "rating": 4.5,
        "address": "539C+GJQ, Đại Phúc, Bắc Ninh, Vietnam",
        "latitude": 21.1688333,
        "longitude": 106.0716193
    },
    {
        "category": "parks",
        "title": "Công Viên Lãm Làng",
        "rating": 4.4,
        "address": "01 Đ. Đàm Văn Lễ, Lãm Làng, Bắc Ninh, Vietnam",
        "latitude": 21.1512936,
        "longitude": 106.10681869999999
    },
    {
        "category": "parks",
        "title": "Royal Park project in Bac Ninh",
        "rating": 4.3,
        "address": "53QG+GR2, Suối Hoa, Bắc Ninh, Vietnam",
        "latitude": 21.1887635,
        "longitude": 106.07702139999999
    },
    {
        "category": "parks",
        "title": "Công Viên Võ Cường",
        "rating": 4.3,
        "address": "53C3+5M6, Võ Cường, Bắc Ninh, Vietnam",
        "latitude": 21.1704017,
        "longitude": 106.0541482
    },
    {
        "category": "parks",
        "title": "Công viên Tiên Phong",
        "rating": 4.5,
        "address": "54V6+JR, Kim Chân, Bắc Ninh, Vietnam",
        "latitude": 21.1945196,
        "longitude": 106.111826
    },
    {
        "category": "parks",
        "title": "Vườn Cây Kết Nghĩa Bắc Ninh - Chợ Nhớn",
        "rating": 4.3,
        "address": "53J5+2P3, Đ. Nguyễn Du, P.Vệ An, Bắc Ninh, Vietnam",
        "latitude": 21.18002,
        "longitude": 106.0592866
    },
    {
        "category": "parks",
        "title": "Công Viên Nguyễn Đăng Sở",
        "rating": 4.4,
        "address": "53G4+QF9, P.Ninh Xá, Bắc Ninh, Vietnam",
        "latitude": 21.1769168,
        "longitude": 106.0562319
    },
    {
        "category": "parks",
        "title": "Vườn hoa Golden Park",
        "rating": 4,
        "address": "54C2+4R6, Phương Liễu, Quế Võ, Bắc Ninh, Vietnam",
        "latitude": 21.1702807,
        "longitude": 106.1020128
    },
    {
        "category": "parks",
        "title": "Công viên hồ điều hòa Thị Cầu",
        "rating": 4.5,
        "address": "Số 142 Khu Phố 1, Bắc Ninh, Vietnam",
        "latitude": 21.1942658,
        "longitude": 106.09300999999999
    },
    {
        "category": "parks",
        "title": "Vườn Hoa Chợ Cóc",
        "rating": 4.3,
        "address": "25 Đ. Đại Phúc - 05, Xóm 10, Bắc Ninh, Vietnam",
        "latitude": 21.1756602,
        "longitude": 106.0712523
    },
    {
        "category": "parks",
        "title": "Công viên hồ điều hoà Tp Bắc Ninh",
        "rating": 4.8,
        "address": "5389+V3M, Đại Phúc, Bắc Ninh, Vietnam",
        "latitude": 21.165291999999997,
        "longitude": 106.0687286
    },
    {
        "category": "parks",
        "title": "Vườn Hoa Đài Ngũ Giác 2",
        "rating": 4.3,
        "address": "Đ. Khả Lễ, Võ Cường, Bắc Ninh, Vietnam",
        "latitude": 21.160785699999998,
        "longitude": 106.0531128
    },
    {
        "category": "parks",
        "title": "Công viên khu k15",
        "rating": 4,
        "address": "53G3+8PG, Võ Cường, Bắc Ninh, Vietnam",
        "latitude": 21.1758004,
        "longitude": 106.05431949999999
    },
    {
        "category": "parks",
        "title": "Công Viên Hoàng Quốc Việt",
        "rating": 3,
        "address": "53RH+P8P, Vũ Ninh, Bắc Ninh, Vietnam",
        "latitude": 21.1918297,
        "longitude": 106.0783283
    },
    {
        "category": "parks",
        "title": "Quế Võ Industrial Zone",
        "rating": 4.3,
        "address": "Nam Sơn, Quế Võ, Bắc Ninh, Vietnam",
        "latitude": 21.1530025,
        "longitude": 106.11399
    },
    {
        "category": "parks",
        "title": "Vườn Hoa 10 Khả Lễ",
        "rating": 4.8,
        "address": "Hoàng Sĩ Khải, Võ Cường, Bắc Ninh, Vietnam",
        "latitude": 21.1635997,
        "longitude": 106.05415149999999
    },
    {
        "category": "parks",
        "title": "Công Viên Giang Liễu",
        "rating": 4.1,
        "address": "546G+VHM, Giang Liễu, Quế Võ, Bắc Ninh, Vietnam",
        "latitude": 21.161677299999997,
        "longitude": 106.1258687
    },
    {
        "category": "restaurants",
        "title": "JINRO BBQ, Đại Phúc, Bắc Ninh 진로비비큐 박닌",
        "rating": 4.8,
        "address": "561 Đ. Hàn Thuyên, Đại Phúc, Bắc Ninh, 16000, Vietnam",
        "latitude": 21.1775692,
        "longitude": 106.074968
    },
    {
        "category": "restaurants",
        "title": "Tân Lương Sơn Bắc Ninh",
        "rating": 4.1,
        "address": "90 Đ. Lý Nhân Tông, P.Ninh Xá, Bắc Ninh, Vietnam",
        "latitude": 21.1741331,
        "longitude": 106.05659299999999
    },
    {
        "category": "restaurants",
        "title": "Nhà Hàng Hải Sản Làng Chài Restaurant",
        "rating": 4.2,
        "address": "16a Nguyễn Đăng Đạo, Đại Phúc, Bắc Ninh, Vietnam",
        "latitude": 21.181173899999997,
        "longitude": 106.0695779
    },
    {
        "category": "restaurants",
        "title": "Dookki Bắc NInh 1 [두끼 박닌 1호점]",
        "rating": 4.8,
        "address": "Vietnam, Bắc Ninh, Suối Hoa, Đ. Lý Thái Tổ",
        "latitude": 21.1782027,
        "longitude": 106.07224
    },
    {
        "category": "restaurants",
        "title": "Nihon Tantan Ramen Bắc Ninh",
        "rating": 4.9,
        "address": "75 Đỗ Trọng Vỹ, P.Ninh Xá, Bắc Ninh, Vietnam",
        "latitude": 21.177413899999998,
        "longitude": 106.0668788
    },
    {
        "category": "restaurants",
        "title": "Nhà hàng tiệc cưới Dolphin Bắc Ninh",
        "rating": 4.2,
        "address": "Đ Lê Hồng Phong, Kinh Bắc, Bắc Ninh, Vietnam",
        "latitude": 21.1917307,
        "longitude": 106.0646299
    },
    {
        "category": "restaurants",
        "title": "Nhà hàng 29",
        "rating": 4.4,
        "address": "33 Ngọc Hân Công Chúa, Đại Phúc, Bắc Ninh, 16000, Vietnam",
        "latitude": 21.1779862,
        "longitude": 106.0681039
    },
    {
        "category": "restaurants",
        "title": "Poseidon Vincom Bắc Ninh",
        "rating": 4,
        "address": "và, Tầng 3, TTTM Vincom Plaza Lý Thái Tổ - Bắc Ninh, Ngã 6 mặt, Đ. Lý Thái Tổ Trần Hưng Đạo, Bắc Ninh, 220000, Vietnam",
        "latitude": 21.178798699999998,
        "longitude": 106.0728808
    },
    {
        "category": "restaurants",
        "title": "Khao Lao",
        "rating": 4.1,
        "address": "Vincom, Ngã 6 Đ. Lý Thái Tổ, P, Bắc Ninh, Vietnam",
        "latitude": 21.1783315,
        "longitude": 106.0722591
    },
    {
        "category": "restaurants",
        "title": "Nhà hàng chay Tâm An Lạc Bắc Ninh (Vegetarian Restaurant)",
        "rating": 4.3,
        "address": "45 Lê Văn Thịnh, Suối Hoa, Bắc Ninh, 16100, Vietnam",
        "latitude": 21.1843888,
        "longitude": 106.0718821
    },
    {
        "category": "restaurants",
        "title": "JoyThai - Thai Cuisine & Hotpot",
        "rating": 4.3,
        "address": "100 Huyền Quang, P.Ninh Xá, Bắc Ninh, 16000, Vietnam",
        "latitude": 21.1752203,
        "longitude": 106.0643164
    },
    {
        "category": "restaurants",
        "title": "Gui92(구이구이)",
        "rating": 4.3,
        "address": "toà nhà viglacere ngã 6 Đ. Lý Thái Tổ, Suối Hoa, Bắc Ninh, Vietnam",
        "latitude": 21.177034799999998,
        "longitude": 106.07010799999999
    },
    {
        "category": "restaurants",
        "title": "Nhà hàng Uri - Trung tâm tổ chức sự kiện Uri Palace",
        "rating": 4.4,
        "address": "23 Đ. Lê Thái Tổ, Võ Cường, Bắc Ninh, Vietnam",
        "latitude": 21.1705745,
        "longitude": 106.06025249999999
    },
    {
        "category": "restaurants",
        "title": "YAKIMONO Bắc Ninh- Quán thịt nướng Nhật Bản",
        "rating": 4.7,
        "address": "26 Nguyễn Đăng Đạo, Đại Phúc, Bắc Ninh, 220000, Vietnam",
        "latitude": 21.175773,
        "longitude": 106.0718435
    },
    {
        "category": "restaurants",
        "title": "Cơm niêu KOMBO - 17 Hai Bà Trưng, Bắc Ninh",
        "rating": 4.2,
        "address": "17 Đ. Hai Bà Trưng, Đại Phúc, Bắc Ninh, Vietnam",
        "latitude": 21.181022199999997,
        "longitude": 106.071068
    },
    {
        "category": "restaurants",
        "title": "바바 (BABA)",
        "rating": 4.8,
        "address": "227 Ngọc Hân Công Chúa, Võ Cường, Bắc Ninh, 220000, Vietnam",
        "latitude": 21.170364799999998,
        "longitude": 106.0562068
    },
    {
        "category": "restaurants",
        "title": "Nhà Hàng OK SUSHI",
        "rating": 4.5,
        "address": "33 Đ Ng Tất Tố, Võ Cường, Bắc Ninh, 16000, Vietnam",
        "latitude": 21.1719158,
        "longitude": 106.0596267
    },
    {
        "category": "restaurants",
        "title": "Ốc88 Bắc Ninh",
        "rating": 4.4,
        "address": "Cách vị trí cũ 50m về phía bên kia công viên, 23a P. Trần Quốc Hoàn, P.Tiền An, Bắc Ninh, 76000, Vietnam",
        "latitude": 21.179017299999998,
        "longitude": 106.0663513
    },
    {
        "category": "restaurants",
        "title": "Nhà Hàng Thùy Linh",
        "rating": 4,
        "address": "Ngõ 50 Huyền Quang, P.Ninh Xá, Bắc Ninh, Vietnam",
        "latitude": 21.177434899999998,
        "longitude": 106.06125639999999
    },
    {
        "category": "cafes",
        "title": "AN café – Võ Cường",
        "rating": 4.7,
        "address": "1A, 10 Nguyễn Cao, Võ Cường, Bắc Ninh, 630000, Vietnam",
        "latitude": 21.171887299999998,
        "longitude": 106.0555052
    },
    {
        "category": "cafes",
        "title": "ENVI Coffee Roastery",
        "rating": 4.9,
        "address": "33 P. Nguyễn Hữu Nghiêm, P.Tiền An, Bắc Ninh, Vietnam",
        "latitude": 21.188094,
        "longitude": 106.07446449999999
    },
    {
        "category": "cafes",
        "title": "AN café – Y Na",
        "rating": 4.7,
        "address": "55A Ngô Sĩ Liên, phường, Bắc Ninh, 630000, Vietnam",
        "latitude": 21.1904115,
        "longitude": 106.0643731
    },
    {
        "category": "cafes",
        "title": "Almost Café",
        "rating": 4.6,
        "address": "Khu biệt thự hà nội, 9, Ninh Xá 4, Bắc Ninh, 16000, Vietnam",
        "latitude": 21.1773064,
        "longitude": 106.06416329999999
    },
    {
        "category": "cafes",
        "title": "Mân Cà Phê",
        "rating": 4.8,
        "address": "Võ Cường, Bắc Ninh, Vietnam",
        "latitude": 21.1648516,
        "longitude": 106.0525105
    },
    {
        "category": "cafes",
        "title": "Zara Dessert Café - Bắc Ninh",
        "rating": 4.2,
        "address": "91 Đ Lý Đạo Thành, P.Ninh Xá, Bắc Ninh, Vietnam",
        "latitude": 21.1744798,
        "longitude": 106.05655139999999
    },
    {
        "category": "cafes",
        "title": "nhẹ cafe - Lê Văn Thịnh",
        "rating": 4.7,
        "address": "81 Lê Văn Thịnh, Suối Hoa, Bắc Ninh, 16000, Vietnam",
        "latitude": 21.1837414,
        "longitude": 106.0728084
    },
    {
        "category": "cafes",
        "title": "ruộng",
        "rating": 4.8,
        "address": "54 P. Lý Chiêu Hoàng, Đại Phúc, Bắc Ninh, 16000, Vietnam",
        "latitude": 21.1826141,
        "longitude": 106.0715936
    },
    {
        "category": "cafes",
        "title": "Vintage coffee - Cà Phê bao cấp",
        "rating": 4.6,
        "address": "69 Ngọc Hân Công Chúa, P.Ninh Xá, Bắc Ninh, 16000, Vietnam",
        "latitude": 21.1758223,
        "longitude": 106.06499629999999
    },
    {
        "category": "cafes",
        "title": "GenZ coffee ( Quán cafe view đẹp nhất Bắc Ninh)",
        "rating": 4.4,
        "address": "60 Đ. Hai Bà Trưng, Suối Hoa, Bắc Ninh, Vietnam",
        "latitude": 21.186528,
        "longitude": 106.0756486
    },
    {
        "category": "cafes",
        "title": "L'amore café",
        "rating": 4.4,
        "address": "53C5+XQF, Võ Cường, Bắc Ninh, Vietnam",
        "latitude": 21.172430199999997,
        "longitude": 106.0594199
    },
    {
        "category": "cafes",
        "title": "Dallas Coffee Roasters Bắc Ninh",
        "rating": 4.1,
        "address": "16000, Vietnam, Bắc Ninh, Tiền An, Nguyễn Bỉnh Quân",
        "latitude": 21.1810852,
        "longitude": 106.0682937
    },
    {
        "category": "cafes",
        "title": "KING Coffee Premium Bac Ninh",
        "rating": 4.6,
        "address": "14G Lê Văn Thịnh, Khu 3, Bắc Ninh, 16000, Vietnam",
        "latitude": 21.180585699999998,
        "longitude": 106.07676079999999
    },
    {
        "category": "cafes",
        "title": "MARIS COFFEE - TRÀ Ô LONG BẮC NINH",
        "rating": 4.4,
        "address": "23 Đ. Lê Thái Tổ, Võ Cường, Bắc Ninh, Vietnam",
        "latitude": 21.171263399999997,
        "longitude": 106.05988099999999
    },
    {
        "category": "cafes",
        "title": "Sky Garden Coffee",
        "rating": 3.7,
        "address": "Tầng T (tầng thượng), tòa Viglacera Đại Phúc ngã 6, 21 Đ. Lý Thái Tổ, Đại Phúc, Bắc Ninh, 79000, Vietnam",
        "latitude": 21.1769726,
        "longitude": 106.07049649999999
    },
    {
        "category": "cafes",
        "title": "Manni coffee",
        "rating": 4.6,
        "address": "295 Trần Hưng Đạo, Đại Phúc, Bắc Ninh, Vietnam",
        "latitude": 21.1791274,
        "longitude": 106.06895709999999
    },
    {
        "category": "cafes",
        "title": "Tiệm cà phê Bao Cấp",
        "rating": 4.3,
        "address": "4 Trần Quốc Toản, P.Ninh Xá, Bắc Ninh, Vietnam",
        "latitude": 21.1784389,
        "longitude": 106.0640114
    },
    {
        "category": "cafes",
        "title": "Tiệm Cafe Tháng Năm - Đại Phúc, Bắc Ninh",
        "rating": 4.6,
        "address": "86 Đ. Bình Than, Đại Phúc, Bắc Ninh, Vietnam",
        "latitude": 21.1711748,
        "longitude": 106.074879
    },
    {
        "category": "cafes",
        "title": "art. coffee",
        "rating": 3.8,
        "address": "196 Đ Lý Đạo Thành, Võ Cường, Bắc Ninh, Vietnam",
        "latitude": 21.173016099999998,
        "longitude": 106.05449279999999
    },
    {
        "category": "cafes",
        "title": "Nhiên Cafe",
        "rating": 4.8,
        "address": "Trung Tâm Văn Hoá Phường, 09 Phố Yên Mẫn, Kinh Bắc, Bắc Ninh, Vietnam",
        "latitude": 21.189189,
        "longitude": 106.06164799999999
    },
    {
        "category": "mountains",
        "title": "núi",
        "rating": 4.2,
        "address": "Bắc Ninh, Bac Ninh, Vietnam",
        "latitude": 21.136262499999997,
        "longitude": 106.0739378
    },
    {
        "category": "mountains",
        "title": "núi Chiểu",
        "rating": null,
        "address": "Nam Sơn, Bắc Ninh, Bac Ninh, Vietnam",
        "latitude": 21.1476732,
        "longitude": 106.09424109999999
    },
    {
        "category": "mountains",
        "title": "Núi Mè",
        "rating": 4.9,
        "address": "Lãm Trại, Vân Dương, Bắc Ninh, Bac Ninh, Vietnam",
        "latitude": 21.1539316,
        "longitude": 106.09139069999999
    },
    {
        "category": "mountains",
        "title": "Núi Cam",
        "rating": 4.3,
        "address": "Viện Phong, Bắc Ninh, Bac Ninh, Vietnam",
        "latitude": 21.2096968,
        "longitude": 106.0482206
    },
    {
        "category": "mountains",
        "title": "Núi Móng",
        "rating": 4.3,
        "address": "Hoàn Sơn, Tiên Du District, Bac Ninh, Vietnam",
        "latitude": 21.1253797,
        "longitude": 106.00304
    },
    {
        "category": "mountains",
        "title": "Núi Điều Sơn",
        "rating": 4.4,
        "address": "Bắc Ninh, Bac Ninh, Vietnam",
        "latitude": 21.1912848,
        "longitude": 106.0812862
    },
    {
        "category": "mountains",
        "title": "Bắc Ninh",
        "rating": null,
        "address": "Bac Ninh, Vietnam",
        "latitude": 21.1781766,
        "longitude": 106.07102549999999
    },
    {
        "category": "mountains",
        "title": "Đồi Nác",
        "rating": 4.5,
        "address": "Bắc Ninh, Bac Ninh, Vietnam",
        "latitude": 21.1744014,
        "longitude": 106.06879409999999
    },
    {
        "category": "mountains",
        "title": "NÚI RÙA",
        "rating": 4.9,
        "address": "44J3+PH2, Nam Sơn, Bắc Ninh, Vietnam",
        "latitude": 21.1317749,
        "longitude": 106.103875
    },
    {
        "category": "mountains",
        "title": "Núi Con Rùa",
        "rating": 4,
        "address": "Bắc Ninh, Bac Ninh, Vietnam",
        "latitude": 21.1318923,
        "longitude": 106.10406809999999
    },
    {
        "category": "mountains",
        "title": "Villa Đông Sơn Mountain",
        "rating": 5,
        "address": "Xóm 3, Đông Sơn, Tiên Du, Bắc Ninh 220000, Vietnam",
        "latitude": 21.1111966,
        "longitude": 106.0392883
    },
    {
        "category": "mountains",
        "title": "Bac Ninh",
        "rating": null,
        "address": "Vietnam",
        "latitude": 21.121444,
        "longitude": 106.1110501
    },
    {
        "category": "mountains",
        "title": "Đồi Búp Lê",
        "rating": 3.9,
        "address": "Bắc Ninh, Bac Ninh, Vietnam",
        "latitude": 21.190825399999998,
        "longitude": 106.0897372
    },
    {
        "category": "waterfalls",
        "title": "Đầu Đẳng Waterfall",
        "rating": 4.3,
        "address": "FH2C+W92, QL279, Nam Mẫu, Ba Bể, Bắc Kạn, Vietnam",
        "latitude": 22.4522719,
        "longitude": 105.5708913
    },
    {
        "category": "waterfalls",
        "title": "Khe Van Waterfall",
        "rating": 4.3,
        "address": "Húc Động, Bình Liêu, Quảng Ninh, Vietnam",
        "latitude": 21.4858662,
        "longitude": 107.4783674
    },
    {
        "category": "waterfalls",
        "title": "Tat Ma Waterfall",
        "rating": 4.6,
        "address": "8MJ5+24R, Hoàng Trĩ, Ba Bể, Bắc Kạn, Vietnam",
        "latitude": 22.3301052,
        "longitude": 105.6577555
    },
    {
        "category": "waterfalls",
        "title": "Love Waterfall",
        "rating": 4.5,
        "address": "8QWC+RV8, Sơn Bình, Tam Đường, Lai Châu, Vietnam",
        "latitude": 22.3470257,
        "longitude": 103.77221519999999
    },
    {
        "category": "waterfalls",
        "title": "Gò Lào Waterfall",
        "rating": 4.4,
        "address": "P3R4+M2F, Ba Khan, Mai Châu, Hòa Bình, Vietnam",
        "latitude": 20.7416764,
        "longitude": 105.0550461
    },
    {
        "category": "waterfalls",
        "title": "Bảo Đại Waterfall",
        "rating": 4.5,
        "address": "Thác Bảo Đại, 11.606083, 108.350258, Tạ Hine, Đức Trọng, Lâm Đồng, Vietnam",
        "latitude": 11.606083,
        "longitude": 108.350258
    },
    {
        "category": "waterfalls",
        "title": "Bể Bơi Phoenix Bắc Ninh",
        "rating": 4.5,
        "address": "Đồi Pháo Thủ, Khu 6, Phường Đáp Cầu, Bắc Ninh 220000, Vietnam",
        "latitude": 21.20113,
        "longitude": 106.092393
    },
    {
        "category": "waterfalls",
        "title": "Silver Waterfall Sa Pa",
        "rating": 4.2,
        "address": "San Sả Hồ, Sa Pa, Lào Cai, Vietnam",
        "latitude": 22.3618874,
        "longitude": 103.777723
    },
    {
        "category": "waterfalls",
        "title": "K50 Waterfall",
        "rating": 4.7,
        "address": "Kon Chu Rang Nature Reserve, Sơn Lang, KBang, Gia Lai, Vietnam",
        "latitude": 14.5192179,
        "longitude": 108.60576119999999
    },
    {
        "category": "waterfalls",
        "title": "Ban Gioc Waterfalls",
        "rating": 4.6,
        "address": "Sông Quy Xuân, Đàm Thuỷ, Trùng Khánh, Cao Bằng, Vietnam",
        "latitude": 22.854345199999997,
        "longitude": 106.7242663
    },
    {
        "category": "lakes",
        "title": "Sẫn",
        "rating": 4,
        "address": "Lạc Vệ, Tiên Du District, Bac Ninh, Vietnam",
        "latitude": 21.1143462,
        "longitude": 106.08349079999999
    },
    {
        "category": "lakes",
        "title": "Hồ",
        "rating": 5,
        "address": "Bắc Ninh, Bac Ninh, Vietnam",
        "latitude": 21.183434,
        "longitude": 106.0642934
    },
    {
        "category": "lakes",
        "title": "Hồ Điều Sơn",
        "rating": 4,
        "address": "Vũ Ninh, Bắc Ninh, Bac Ninh, Vietnam",
        "latitude": 21.1898168,
        "longitude": 106.0796328
    },
    {
        "category": "lakes",
        "title": "Dong Tram Lake",
        "rating": 4.2,
        "address": "Bắc Ninh, Bac Ninh, Vietnam",
        "latitude": 21.2012447,
        "longitude": 106.08679769999999
    },
    {
        "category": "lakes",
        "title": "Hồ Búp Lê",
        "rating": 3.9,
        "address": "Vũ Ninh, Bắc Ninh, Bac Ninh, Vietnam",
        "latitude": 21.1881849,
        "longitude": 106.0908396
    },
    {
        "category": "lakes",
        "title": "Hồ Văn Miếu",
        "rating": 4.1,
        "address": "Bắc Ninh, Bac Ninh, Vietnam",
        "latitude": 21.164919899999997,
        "longitude": 106.0695289
    },
    {
        "category": "lakes",
        "title": "Hồ Tình Yêu",
        "rating": 4.3,
        "address": "Suối Hoa, Bắc Ninh, Bac Ninh, Vietnam",
        "latitude": 21.1851424,
        "longitude": 106.07559119999999
    },
    {
        "category": "lakes",
        "title": "Hồ Đôi",
        "rating": 4.4,
        "address": "Suối Hoa, Bắc Ninh, Bac Ninh, Vietnam",
        "latitude": 21.183995499999998,
        "longitude": 106.0771527
    },
    {
        "category": "lakes",
        "title": "Thùng Lò",
        "rating": null,
        "address": "Lạc Vệ, Tiên Du District, Bac Ninh, Vietnam",
        "latitude": 21.1154779,
        "longitude": 106.0839501
    },
    {
        "category": "beaches",
        "title": "Bãi Than Như Nguyệt",
        "rating": 3.7,
        "address": "6423+H86, Đ. Như Nguyệt, Kim Chân, Bắc Ninh, Vietnam",
        "latitude": 21.201411699999998,
        "longitude": 106.1032647
    },
    {
        "category": "beaches",
        "title": "Beach Club",
        "rating": null,
        "address": "61 Đ. Phúc Sơn, P. Đáp Cầu, Bắc Ninh, Vietnam",
        "latitude": 21.193399199999998,
        "longitude": 106.07277909999999
    },
    {
        "category": "beaches",
        "title": "Doc Let Beach",
        "rating": 4.3,
        "address": "G6VH+CXJ, Bãi Biển Dốc Lết, TDP Bá Hà, Ninh Thuỷ, Khánh Hòa, Vietnam",
        "latitude": 12.543580799999999,
        "longitude": 109.2299034
    },
    {
        "category": "beaches",
        "title": "CÔNG TY TNHH THƯƠNG MẠI XUẤT NHẬP KHẨU AN KHANG XANH",
        "rating": null,
        "address": "số 55 P Lương Thế Vinh, P.Ninh Xá, Bắc Ninh, Vietnam",
        "latitude": 21.174775399999998,
        "longitude": 106.0561135
    },
    {
        "category": "beaches",
        "title": "Bãi biển Cồn Vành",
        "rating": 3.9,
        "address": "Tiền Hải, Thái Bình, Vietnam",
        "latitude": 20.273563499999998,
        "longitude": 106.6049736
    },
    {
        "category": "beaches",
        "title": "An Bang Beach",
        "rating": 4.3,
        "address": "W87R+C7R, Đ. Hai Bà Trưng, Hội An, Quảng Nam, Vietnam",
        "latitude": 15.9136072,
        "longitude": 108.34064889999999
    },
    {
        "category": "beaches",
        "title": "Cây cô đơn đê Hữu Chấp Bắc Ninh",
        "rating": 4.6,
        "address": "63F6+RF, Hoà Long, Bắc Ninh, Vietnam",
        "latitude": 21.224543099999998,
        "longitude": 106.0611417
    },
    {
        "category": "beaches",
        "title": "Trung Tâm Du Lịch Văn Hóa Thể Thao Phú Sơn",
        "rating": 4.4,
        "address": "Khu Đ. Phúc Sơn, Suối Hoa, Bắc Ninh, Vietnam",
        "latitude": 21.1910331,
        "longitude": 106.0751277
    },
    {
        "category": "beaches",
        "title": "Chợ Nội Mới",
        "rating": 4.3,
        "address": "54VF+VMW, Đại Xuân, Quế Võ, Bắc Ninh, Vietnam",
        "latitude": 21.194725299999998,
        "longitude": 106.1242175
    },
    {
        "category": "beaches",
        "title": "Bể bơi Nam Mạnh Cường",
        "rating": 4.2,
        "address": "270 Đ. Sơn Đông, Nam Sơn, Bắc Ninh, Vietnam",
        "latitude": 21.1403037,
        "longitude": 106.1164324
    },
    {
        "category": "beaches",
        "title": "Senna Wellness Retreat",
        "rating": 4.8,
        "address": "122 Trần Lựu, P. Thị Cầu, Bắc Ninh, 10000, Vietnam",
        "latitude": 21.1968565,
        "longitude": 106.091562
    },
    {
        "category": "beaches",
        "title": "Mui Ne Beach",
        "rating": 4.2,
        "address": "Đ. Xuân Thủy, Hàm Thuận Bắc, Bình Thuận 77157, Vietnam",
        "latitude": 10.9537503,
        "longitude": 108.3065046
    },
    {
        "category": "beaches",
        "title": "Vinpearl Hotel Bắc Ninh",
        "rating": 4.9,
        "address": "Đ. Hàn Thuyên, Đại Phúc, Bắc Ninh, 16000, Vietnam",
        "latitude": 21.177314499999998,
        "longitude": 106.0741068
    },
    {
        "category": "beaches",
        "title": "Sports and Cultural Center in Bac Ninh City",
        "rating": 4.3,
        "address": "53R8+F7X, Đường Âu Cơ, Kinh Bắc, Bắc Ninh, Vietnam",
        "latitude": 21.1912329,
        "longitude": 106.0657256
    },
    {
        "category": "beaches",
        "title": "Mandala Hotel & Spa Bac Ninh",
        "rating": 4.4,
        "address": "2 Đ. Kinh Dương Vương, Suối Hoa, Bắc Ninh, 220000, Vietnam",
        "latitude": 21.18837,
        "longitude": 106.07668869999999
    },
    {
        "category": "beaches",
        "title": "Phu Lang Pottery Village",
        "rating": 4.4,
        "address": "Phù Lãng, Quế Võ, Bắc Ninh, Vietnam",
        "latitude": 21.148809,
        "longitude": 106.2573233
    },
    {
        "category": "beaches",
        "title": "Le Indochina Hotel & Spa",
        "rating": 4,
        "address": "45 Nguyễn Đăng Đạo, Phường, Bắc Ninh, Vietnam",
        "latitude": 21.1794937,
        "longitude": 106.0707125
    },
    {
        "category": "beaches",
        "title": "JEJU MASSAGE",
        "rating": 4.2,
        "address": "No. 75 Ngọc Hân Công Chúa, P.Ninh Xá, Bắc Ninh, Vietnam",
        "latitude": 21.175804499999998,
        "longitude": 106.06472339999999
    },
    {
        "category": "beaches",
        "title": "Quán Đặc Sản Chè Huế",
        "rating": 3.7,
        "address": "5534+26X, Đ. Trần Hưng Đạo, TT. Phố Mới, Quế Võ, Bắc Ninh, Vietnam",
        "latitude": 21.1526219,
        "longitude": 106.15560099999999
    },
    {
        "category": "beaches",
        "title": "Bãi Trông giữ oto xe máy Ngọc Doanh }khu Ba Huyen Vo Cuong / nhan trong giu ca ngay dem",
        "rating": 4.5,
        "address": "536G+848, cot moc khu Ba huyen, Võ Cường, Bắc Ninh, 790000, Vietnam",
        "latitude": 21.16078,
        "longitude": 106.0753143
    },
    {
        "category": "swimming pools",
        "title": "Bể bơi Dolphin",
        "rating": 4.2,
        "address": "53R7+WV6, Kinh Bắc, Bắc Ninh, Vietnam",
        "latitude": 21.1922936,
        "longitude": 106.064647
    },
    {
        "category": "swimming pools",
        "title": "Bể Bơi Phoenix Bắc Ninh",
        "rating": 4.5,
        "address": "Đồi Pháo Thủ, Khu 6, Phường Đáp Cầu, Bắc Ninh 220000, Vietnam",
        "latitude": 21.20113,
        "longitude": 106.092393
    },
    {
        "category": "swimming pools",
        "title": "Bể Bơi Xã Kim Chân",
        "rating": 4.7,
        "address": "54W5+JWF, Kim Đôi, Bắc Ninh, Vietnam",
        "latitude": 21.1965652,
        "longitude": 106.1097976
    },
    {
        "category": "swimming pools",
        "title": "Senna Wellness Retreat",
        "rating": 4.8,
        "address": "122 Trần Lựu, P. Thị Cầu, Bắc Ninh, 10000, Vietnam",
        "latitude": 21.1968565,
        "longitude": 106.091562
    },
    {
        "category": "swimming pools",
        "title": "Bể Bơi Green Swim Club",
        "rating": 3.6,
        "address": "Lý Anh Tông, Võ Cường, Bắc Ninh, Vietnam",
        "latitude": 21.1645866,
        "longitude": 106.05815709999999
    },
    {
        "category": "swimming pools",
        "title": "Bể bơi Nam Mạnh Cường",
        "rating": 4.2,
        "address": "270 Đ. Sơn Đông, Nam Sơn, Bắc Ninh, Vietnam",
        "latitude": 21.1403037,
        "longitude": 106.1164324
    },
    {
        "category": "swimming pools",
        "title": "Phoenix Resort Bac Ninh",
        "rating": 4.3,
        "address": "Khu 6 Đồi Pháo Thủ, P. Đáp Cầu, Bắc Ninh, 220000, Vietnam",
        "latitude": 21.2010456,
        "longitude": 106.09226029999999
    },
    {
        "category": "swimming pools",
        "title": "Mandala Hotel & Spa Bac Ninh",
        "rating": 4.4,
        "address": "2 Đ. Kinh Dương Vương, Suối Hoa, Bắc Ninh, 220000, Vietnam",
        "latitude": 21.18837,
        "longitude": 106.07668869999999
    },
    {
        "category": "swimming pools",
        "title": "Grand Phoenix Hotel Bac Ninh",
        "rating": 4.7,
        "address": "25 Đ. Lý Thái Tổ, Ngã Sáu, Bắc Ninh, 16000, Vietnam",
        "latitude": 21.1762233,
        "longitude": 106.0685596
    },
    {
        "category": "swimming pools",
        "title": "Green Pearl Bắc Ninh Apartments - Căn hộ dịch vụ",
        "rating": 4.8,
        "address": "Đ. Lê Thái Tổ, Võ Cường, Bắc Ninh, 790000, Vietnam",
        "latitude": 21.1654958,
        "longitude": 106.0514431
    },
    {
        "category": "swimming pools",
        "title": "Mường Thanh Luxury Bac Ninh Hotel",
        "rating": 4.2,
        "address": "395 Đ. Ng. Gia Tự, P.Tiền An, Bắc Ninh, 16000, Vietnam",
        "latitude": 21.183122299999997,
        "longitude": 106.0659652
    },
    {
        "category": "swimming pools",
        "title": "TUẤN ĐỨC POOL ARENA",
        "rating": 4.5,
        "address": "53GC+62F, Xóm 10, Bắc Ninh, Vietnam",
        "latitude": 21.1756191,
        "longitude": 106.06984179999999
    },
    {
        "category": "swimming pools",
        "title": "Bể Bơi Đại Xuân",
        "rating": null,
        "address": "Công Cối, Quế Võ, Bắc Ninh 16000, Vietnam",
        "latitude": 21.185702799999998,
        "longitude": 106.1213732
    },
    {
        "category": "swimming pools",
        "title": "GUU POOL ARENA billiards cơ sở 2",
        "rating": 3,
        "address": "44WC+M6C, Nam Sơn, Bắc Ninh, Vietnam",
        "latitude": 21.1468293,
        "longitude": 106.1204571
    },
    {
        "category": "swimming pools",
        "title": "BỂ BƠI PHẬT TÍCH",
        "rating": 4.2,
        "address": "Unnamed Road, Phật Tích, Tiên Du, Bắc Ninh, Vietnam",
        "latitude": 21.089733799999998,
        "longitude": 106.0265324
    },
    {
        "category": "swimming pools",
        "title": "Le Indochina Hotel & Spa",
        "rating": 4,
        "address": "45 Nguyễn Đăng Đạo, Phường, Bắc Ninh, Vietnam",
        "latitude": 21.1794937,
        "longitude": 106.0707125
    },
    {
        "category": "swimming pools",
        "title": "Bể bơi Nguyễn Đăng Đạo",
        "rating": 3.7,
        "address": "Đường Nguyễn Đăng Đạo, TT. Lim, NPC, Bắc Ninh, Vietnam",
        "latitude": 21.1366162,
        "longitude": 106.0204291
    },
    {
        "category": "swimming pools",
        "title": "Nhà văn hoá khu 1 Đại Phúc",
        "rating": 4.8,
        "address": "Vietnam, Bắc Ninh, Trần Hưng Đạo, 4/1 Khu",
        "latitude": 21.1763603,
        "longitude": 106.0776255
    },
    {
        "category": "swimming pools",
        "title": "Bể Bơi Ngọc Đức",
        "rating": 5,
        "address": "43CQ+8FX, Lạc Vệ, Tiên Du, Bắc Ninh, Vietnam",
        "latitude": 21.1215776,
        "longitude": 106.0876694
    },
    {
        "category": "swimming pools",
        "title": "Bể bơi trường tiểu học Đoài",
        "rating": 5,
        "address": "43Q6+769, thôn Đoài, Bắc Ninh, Vietnam",
        "latitude": 21.1381664,
        "longitude": 106.0606018
    },
    {
        "category": "resorts",
        "title": "Grand Phoenix Hotel Bac Ninh",
        "rating": 4.7,
        "address": "25 Đ. Lý Thái Tổ, Ngã Sáu, Bắc Ninh, 16000, Vietnam",
        "latitude": 21.1762233,
        "longitude": 106.0685596
    },
    {
        "category": "resorts",
        "title": "Mường Thanh Luxury Bac Ninh Hotel",
        "rating": 4.2,
        "address": "395 Đ. Ng. Gia Tự, P.Tiền An, Bắc Ninh, 16000, Vietnam",
        "latitude": 21.183122299999997,
        "longitude": 106.0659652
    },
    {
        "category": "resorts",
        "title": "Phoenix Resort Bac Ninh",
        "rating": 4.3,
        "address": "Khu 6 Đồi Pháo Thủ, P. Đáp Cầu, Bắc Ninh, 220000, Vietnam",
        "latitude": 21.2010456,
        "longitude": 106.09226029999999
    },
    {
        "category": "resorts",
        "title": "Mandala Hotel & Spa Bac Ninh",
        "rating": 4.4,
        "address": "2 Đ. Kinh Dương Vương, Suối Hoa, Bắc Ninh, 220000, Vietnam",
        "latitude": 21.18837,
        "longitude": 106.07668869999999
    },
    {
        "category": "resorts",
        "title": "Royal Phoenix Hotel Bac Ninh (皇家凤凰酒店)",
        "rating": 4.7,
        "address": "16 Đ. Phù Đổng Thiên Vương, Suối Hoa, Bắc Ninh, 16000, Vietnam",
        "latitude": 21.1832782,
        "longitude": 106.0790712
    },
    {
        "category": "resorts",
        "title": "Amour Resort Bavi",
        "rating": 4.9,
        "address": "Cote 400m, National Park, Ba Vì, Hà Nội 100000, Vietnam",
        "latitude": 21.0850413,
        "longitude": 105.3762544
    },
    {
        "category": "resorts",
        "title": "Le Indochina Hotel & Spa",
        "rating": 4,
        "address": "45 Nguyễn Đăng Đạo, Phường, Bắc Ninh, Vietnam",
        "latitude": 21.1794937,
        "longitude": 106.0707125
    },
    {
        "category": "resorts",
        "title": "Luxury Phoenix Hotel Bac Ninh",
        "rating": 4.4,
        "address": "City, 288 Đ. Hàn Thuyên, Suối Hoa, Bắc Ninh, Vietnam",
        "latitude": 21.1843508,
        "longitude": 106.08021219999999
    },
    {
        "category": "resorts",
        "title": "Kinh Bắc Palace Hotel",
        "rating": 4.1,
        "address": "15 Đ. Lê Thái Tổ, Võ Cường, Bắc Ninh, Vietnam",
        "latitude": 21.1712736,
        "longitude": 106.0609472
    },
    {
        "category": "resorts",
        "title": "Violin Bac Ninh Hotel",
        "rating": 4.2,
        "address": "26 Đ. Lê Thái Tổ, Võ Cường, Bắc Ninh, 16000, Vietnam",
        "latitude": 21.1719846,
        "longitude": 106.0610042
    },
    {
        "category": "resorts",
        "title": "Bac Ninh Royal Hotel",
        "rating": 4,
        "address": "460 Nguyễn Văn Cừ, Võ Cường, Bắc Ninh, 16000, Vietnam",
        "latitude": 21.1663157,
        "longitude": 106.044652
    },
    {
        "category": "resorts",
        "title": "SKY HOTEL - KHÁCH SẠN BẮC NINH",
        "rating": 4.8,
        "address": "36 Nguyễn Quyền, Đại Phúc, Bắc Ninh, 16000, Vietnam",
        "latitude": 21.167999299999998,
        "longitude": 106.07269799999999
    },
    {
        "category": "resorts",
        "title": "Dream hotel in Bac Ninh",
        "rating": 3.8,
        "address": "Đường Võ Cường 11, Khu dãn dân Hòa Đình, Bắc Ninh, Vietnam",
        "latitude": 21.1709204,
        "longitude": 106.05601999999999
    },
    {
        "category": "resorts",
        "title": "Luxury Hotel Từ Sơn",
        "rating": 4.2,
        "address": "46 Vườn hoa Lê Hồng Phong, Tân Hồng, Từ Sơn, Bắc Ninh 220000, Vietnam",
        "latitude": 21.1154929,
        "longitude": 105.9598393
    },
    {
        "category": "resorts",
        "title": "北宁维也纳皇家酒店",
        "rating": 1.3,
        "address": "Vietnam, Bắc Ninh, Tp. Bắc Ninh, Võ Cường, 36号, 邮政编码: 220000",
        "latitude": 21.1716362,
        "longitude": 106.06069629999999
    },
    {
        "category": "resorts",
        "title": "Sky Night Hotel",
        "rating": 3.6,
        "address": "50 P Hoàng Tích Chù, Võ Cường, Bắc Ninh, 220000, Vietnam",
        "latitude": 21.1741738,
        "longitude": 106.0590003
    },
    {
        "category": "resorts",
        "title": "BẮC NINH - KHÁCH SẠN V-HOTEL (BACNINH)",
        "rating": 4,
        "address": "37 Đ. Lê Thái Tổ, P.Ninh Xá, Bắc Ninh, 220000, Vietnam",
        "latitude": 21.172323,
        "longitude": 106.06257939999999
    },
    {
        "category": "resorts",
        "title": "PHU GIA HOTEL KHÁCH SẠN BẮC NINH",
        "rating": 4.7,
        "address": "110 Đường Lý Thường Kiệt, P. Thị Cầu, Bắc Ninh, 16109, Vietnam",
        "latitude": 21.1943156,
        "longitude": 106.0813799
    },
    {
        "category": "resorts",
        "title": "凤凰明月酒店2",
        "rating": 4.8,
        "address": "Vietnam, Bắc Ninh, Vũ Ninh, Đ. Hàn Thuyên",
        "latitude": 21.184082,
        "longitude": 106.07973299999999
    },
    {
        "category": "resorts",
        "title": "GOLD BUSINESS HOTEL BẮC NINH ( 골드뷰지니스호텔 박닌 )",
        "rating": 4.4,
        "address": "24 Ngọc Hân Công Chúa, P.Tiền An, Bắc Ninh, Vietnam",
        "latitude": 21.1781476,
        "longitude": 106.0678499
    },
    {
        "category": "camping sites",
        "title": "Túi họa mi camping",
        "rating": 3.9,
        "address": "635J+X4R, Cổ Mễ, Bắc Ninh, Vietnam",
        "latitude": 21.2099947,
        "longitude": 106.08026029999999
    },
    {
        "category": "camping sites",
        "title": "Kids playground",
        "rating": 5,
        "address": "30 Đ. Lý Thái Tổ, P.Ninh Xá, Bắc Ninh, 70000, Vietnam",
        "latitude": 21.177093799999998,
        "longitude": 106.0680852
    },
    {
        "category": "camping sites",
        "title": "Senna Wellness Retreat",
        "rating": 4.8,
        "address": "122 Trần Lựu, P. Thị Cầu, Bắc Ninh, 10000, Vietnam",
        "latitude": 21.1968565,
        "longitude": 106.091562
    },
    {
        "category": "camping sites",
        "title": "Cây cô đơn đê Hữu Chấp Bắc Ninh",
        "rating": 4.6,
        "address": "63F6+RF, Hoà Long, Bắc Ninh, Vietnam",
        "latitude": 21.224543099999998,
        "longitude": 106.0611417
    },
    {
        "category": "camping sites",
        "title": "Trạm Hoàng Hôn Gu Outdoor",
        "rating": 4.1,
        "address": "thôn Dền, Tiên Du, Bắc Ninh, Vietnam",
        "latitude": 21.0747559,
        "longitude": 106.0257378
    },
    {
        "category": "camping sites",
        "title": "camping núi chè",
        "rating": 4.5,
        "address": "4272+W7G, Trục chính KCN Tiên Sơn, khu hoàn sơn village, Tiên Du, Bắc Ninh, Vietnam",
        "latitude": 21.1147232,
        "longitude": 106.000802
    },
    {
        "category": "camping sites",
        "title": "Trạm bảo hành sắc đẹp và vóc dáng online",
        "rating": 5,
        "address": "17 Đ. Lê Thánh Tông, Võ Cường, Bắc Ninh, 16124, Vietnam",
        "latitude": 21.1580302,
        "longitude": 106.0592348
    },
    {
        "category": "camping sites",
        "title": "Bụi Camping",
        "rating": 4.5,
        "address": "5WVW+HGJ, TT. Chờ, Yên Phong, Bắc Ninh, Vietnam",
        "latitude": 21.1939538,
        "longitude": 105.9462506
    },
    {
        "category": "camping sites",
        "title": "Camping Bắc Ninh",
        "rating": null,
        "address": "Trần Xá, Yên Phong, Bắc Ninh, Vietnam",
        "latitude": 21.207728799999998,
        "longitude": 105.9855326
    },
    {
        "category": "hiking trails",
        "title": "Tượng đài Lý Thái Tổ",
        "rating": 4.7,
        "address": "136 Nguyên Phi Ỷ Lan, Suối Hoa, Bắc Ninh, Vietnam",
        "latitude": 21.1844818,
        "longitude": 106.0763511
    },
    {
        "category": "hiking trails",
        "title": "Literature Park",
        "rating": 4.5,
        "address": "5389+FX9, Đại Phúc, Bắc Ninh, Vietnam",
        "latitude": 21.1660818,
        "longitude": 106.0705428
    },
    {
        "category": "hiking trails",
        "title": "Công Viên Võ Cường",
        "rating": 4.3,
        "address": "53C3+5M6, Võ Cường, Bắc Ninh, Vietnam",
        "latitude": 21.1704017,
        "longitude": 106.0541482
    },
    {
        "category": "hiking trails",
        "title": "Vườn Hoa Nguyễn Văn Cừ",
        "rating": 4.3,
        "address": "10 Đường Thành Cổ, P.Vệ An, Bắc Ninh, Vietnam",
        "latitude": 21.181646,
        "longitude": 106.0564766
    },
    {
        "category": "hiking trails",
        "title": "Công viên hồ điều hoà Vân Tương",
        "rating": 4.5,
        "address": "42Q9+F7J, TT. Lim, Tiên Du, Bắc Ninh, Vietnam",
        "latitude": 21.1387183,
        "longitude": 106.0181358
    },
    {
        "category": "hiking trails",
        "title": "Ba Bể National Park",
        "rating": 4.4,
        "address": "Bố Lù, Ba Bể, Bắc Kạn 23511, Vietnam",
        "latitude": 22.3963021,
        "longitude": 105.61574859999999
    },
    {
        "category": "hiking trails",
        "title": "Phu Lang Pottery Village",
        "rating": 4.4,
        "address": "Phù Lãng, Quế Võ, Bắc Ninh, Vietnam",
        "latitude": 21.148809,
        "longitude": 106.2573233
    },
    {
        "category": "hiking trails",
        "title": "Bac Son Valley",
        "rating": 4.7,
        "address": "Quỳnh Sơn, Bắc Sơn, Lạng Sơn, Vietnam",
        "latitude": 21.9085222,
        "longitude": 106.3338998
    },
    {
        "category": "hiking trails",
        "title": "Tiên Sơn Đỉnh",
        "rating": 4.8,
        "address": "Tổ 1 ấp, Rạch Hàm, Phú Quốc, Kiên Giang, Vietnam",
        "latitude": 10.1818125,
        "longitude": 104.02568749999999
    },
    {
        "category": "hiking trails",
        "title": "Grand Phoenix Hotel Bac Ninh",
        "rating": 4.7,
        "address": "25 Đ. Lý Thái Tổ, Ngã Sáu, Bắc Ninh, 16000, Vietnam",
        "latitude": 21.1762233,
        "longitude": 106.0685596
    },
    {
        "category": "hiking trails",
        "title": "Đỉnh núi Đá Bạc",
        "rating": 4.2,
        "address": "63F8+Q83, TL48, Hàm Ninh, Phú Quốc, Kiên Giang, Vietnam",
        "latitude": 10.224389,
        "longitude": 104.065806
    },
    {
        "category": "hiking trails",
        "title": "Hello Hotel",
        "rating": 4.1,
        "address": "tòa nhà thương mại Thống Nhất, Đ. Lê Thái Tổ, Võ Cường, Bắc Ninh, 16000, Vietnam",
        "latitude": 21.166246599999997,
        "longitude": 106.0530387
    },
    {
        "category": "ecotourism areas",
        "title": "Senna Wellness Retreat",
        "rating": 4.8,
        "address": "122 Trần Lựu, P. Thị Cầu, Bắc Ninh, 10000, Vietnam",
        "latitude": 21.1968565,
        "longitude": 106.091562
    },
    {
        "category": "ecotourism areas",
        "title": "Đền Đô",
        "rating": 4.6,
        "address": "4X46+R52, Đ. Lý Thái Tổ, Tân Hồng, Từ Sơn, Bắc Ninh 790000, Vietnam",
        "latitude": 21.107011999999997,
        "longitude": 105.9603806
    },
    {
        "category": "ecotourism areas",
        "title": "Thung Nham Ecotourism Zone - Ninh Binh",
        "rating": 4.2,
        "address": "Thung Nham, Thôn Hải Nham, Hoa Lư, Ninh Bình, Vietnam",
        "latitude": 20.217970299999998,
        "longitude": 105.89327929999999
    },
    {
        "category": "ecotourism areas",
        "title": "Phu Lang Pottery Village",
        "rating": 4.4,
        "address": "Phù Lãng, Quế Võ, Bắc Ninh, Vietnam",
        "latitude": 21.148809,
        "longitude": 106.2573233
    },
    {
        "category": "ecotourism areas",
        "title": "Cuc Phuong National Park",
        "rating": 4.5,
        "address": "8J85+M88, Nho Quan, Ninh Bình, Vietnam",
        "latitude": 20.3166875,
        "longitude": 105.6083125
    },
    {
        "category": "ecotourism areas",
        "title": "Vinpearl Hotel Bắc Ninh",
        "rating": 4.9,
        "address": "Đ. Hàn Thuyên, Đại Phúc, Bắc Ninh, 16000, Vietnam",
        "latitude": 21.177314499999998,
        "longitude": 106.0741068
    },
    {
        "category": "ecotourism areas",
        "title": "My Retreat Hiên Vân",
        "rating": 4,
        "address": "Thôn Kiều, Tiên Du, Bắc Ninh 16000, Vietnam",
        "latitude": 21.1210327,
        "longitude": 106.0421439
    },
    {
        "category": "ecotourism areas",
        "title": "Le Indochina Hotel & Spa",
        "rating": 4,
        "address": "45 Nguyễn Đăng Đạo, Phường, Bắc Ninh, Vietnam",
        "latitude": 21.1794937,
        "longitude": 106.0707125
    },
    {
        "category": "ecotourism areas",
        "title": "Mandala Hotel & Spa Bac Ninh",
        "rating": 4.4,
        "address": "2 Đ. Kinh Dương Vương, Suối Hoa, Bắc Ninh, 220000, Vietnam",
        "latitude": 21.18837,
        "longitude": 106.07668869999999
    },
    {
        "category": "temples",
        "title": "Ba Chua Kho Temple",
        "rating": 4.6,
        "address": "Khu, Cổ Mễ, Tp. Bắc Ninh, Bắc Ninh 790000, Vietnam",
        "latitude": 21.2049918,
        "longitude": 106.0856166
    },
    {
        "category": "temples",
        "title": "Ham Long Pagoda",
        "rating": 4.5,
        "address": "Thái Bảo, Bắc Ninh, 16121, Vietnam",
        "latitude": 21.1454007,
        "longitude": 106.1051837
    },
    {
        "category": "temples",
        "title": "Chùa Phật Tích",
        "rating": 4.6,
        "address": "295, thôn Phật Tích, Tiên Du, Bắc Ninh 790000, Vietnam",
        "latitude": 21.0938278,
        "longitude": 106.02611069999999
    },
    {
        "category": "temples",
        "title": "Bac Ninh Temple of Literature",
        "rating": 4.6,
        "address": "Đại Phúc, Bắc Ninh, Vietnam",
        "latitude": 21.174700299999998,
        "longitude": 106.06892649999999
    },
    {
        "category": "temples",
        "title": "Đền Đô",
        "rating": 4.6,
        "address": "4X46+R52, Đ. Lý Thái Tổ, Tân Hồng, Từ Sơn, Bắc Ninh 790000, Vietnam",
        "latitude": 21.107011999999997,
        "longitude": 105.9603806
    },
    {
        "category": "temples",
        "title": "Chùa Dâu",
        "rating": 4.6,
        "address": "22PV+628, Lạc Long Quân, Thanh Khương, Thuận Thành, Bắc Ninh 790000, Vietnam",
        "latitude": 21.0355286,
        "longitude": 106.042591
    },
    {
        "category": "temples",
        "title": "Chùa Dạm",
        "rating": 4.6,
        "address": "44V2+PPJ, Nam Sơn, Bắc Ninh, Vietnam",
        "latitude": 21.1443445,
        "longitude": 106.10177209999999
    },
    {
        "category": "temples",
        "title": "Chùa Đại Thành",
        "rating": 4.6,
        "address": "53M4+V5M, Đường Lê Phụng Hiểu, P.Vệ An, Bắc Ninh, Vietnam",
        "latitude": 21.184713199999997,
        "longitude": 106.0554106
    },
    {
        "category": "temples",
        "title": "Dai Giac Temple",
        "rating": 4.5,
        "address": "5395+GWG, Ngay Ao Hồ Khu Bồ Sơn - P.Võ Cường - TP.Bắc Ninh, Võ Cường, Bắc Ninh, Vietnam",
        "latitude": 21.168817,
        "longitude": 106.05983049999999
    },
    {
        "category": "temples",
        "title": "Tieu pagoda",
        "rating": 4.6,
        "address": "Tiêu Thượng, Từ Sơn, Bắc Ninh 790000, Vietnam",
        "latitude": 21.137767699999998,
        "longitude": 105.9825122
    },
    {
        "category": "temples",
        "title": "Chùa Niềm",
        "rating": 4.1,
        "address": "53J3+CP7, Khu Niềm Xá, P, Vietnam",
        "latitude": 21.181043499999998,
        "longitude": 106.054311
    },
    {
        "category": "temples",
        "title": "Chùa Bút Tháp",
        "rating": 4.7,
        "address": "326C+9VG, Bút Tháp, Thuận Thành, Bắc Ninh, Vietnam",
        "latitude": 21.060627999999998,
        "longitude": 106.02226569999999
    },
    {
        "category": "temples",
        "title": "Chùa Lim - Hồng Ân Tự",
        "rating": 4.5,
        "address": "42RC+F2C, ĐT276, TT. Lim, Tiên Du, Bắc Ninh, Vietnam",
        "latitude": 21.1411862,
        "longitude": 106.02000059999999
    },
    {
        "category": "temples",
        "title": "Dai Bi Temple",
        "rating": 4,
        "address": "5327+22J, thôn Thượng, Bắc Ninh, Vietnam",
        "latitude": 21.150091699999997,
        "longitude": 106.0625219
    },
    {
        "category": "temples",
        "title": "Chùa Bách Môn - Linh Cảm Tự",
        "rating": 4.6,
        "address": "429P+2MV, Long Khám, Tiên Du, Bắc Ninh, Vietnam",
        "latitude": 21.1176122,
        "longitude": 106.036677
    },
    {
        "category": "temples",
        "title": "Chùa Khánh Phúc",
        "rating": 4.3,
        "address": "54F5+Q8G, Phương Liễu, Quế Võ, Bắc Ninh, Vietnam",
        "latitude": 21.174442499999998,
        "longitude": 106.1083183
    },
    {
        "category": "temples",
        "title": "Do Temple",
        "rating": 4.5,
        "address": "35 Huyền Quang, P.Tiền An, Bắc Ninh, Vietnam",
        "latitude": 21.1785618,
        "longitude": 106.0618999
    },
    {
        "category": "temples",
        "title": "Hong An Pagoda",
        "rating": 4.6,
        "address": "Dương Ổ, Bắc Ninh, Vietnam",
        "latitude": 21.1648471,
        "longitude": 106.03177219999999
    },
    {
        "category": "temples",
        "title": "Chùa Xuân Viên",
        "rating": 4.8,
        "address": "Khu Xuân Viên, Phường, Hoà Long, Tp. Bắc Ninh, Bắc Ninh, Vietnam",
        "latitude": 21.200743799999998,
        "longitude": 106.05216039999999
    },
    {
        "category": "temples",
        "title": "Her ancestor King Temple Quan",
        "rating": 4.7,
        "address": "Hoà Long, Bắc Ninh, Vietnam",
        "latitude": 21.2143051,
        "longitude": 106.0494978
    },
    {
        "category": "museums",
        "title": "Bắc Ninh Museum",
        "rating": 4.3,
        "address": "02 Đ. Lý Thái Tổ, Suối Hoa, Bắc Ninh, Vietnam",
        "latitude": 21.1841811,
        "longitude": 106.0747909
    },
    {
        "category": "museums",
        "title": "Bac Ninh Temple of Literature",
        "rating": 4.6,
        "address": "Đại Phúc, Bắc Ninh, Vietnam",
        "latitude": 21.174700299999998,
        "longitude": 106.06892649999999
    },
    {
        "category": "museums",
        "title": "Tượng đài Lý Thái Tổ",
        "rating": 4.7,
        "address": "136 Nguyên Phi Ỷ Lan, Suối Hoa, Bắc Ninh, Vietnam",
        "latitude": 21.1844818,
        "longitude": 106.0763511
    },
    {
        "category": "museums",
        "title": "sbg",
        "rating": null,
        "address": "Khu P Bế Văn Đàn, P.Ninh Xá, Bắc Ninh, 16000, Vietnam",
        "latitude": 21.1758614,
        "longitude": 106.06223159999999
    },
    {
        "category": "museums",
        "title": "Giếng Tiên",
        "rating": 4.8,
        "address": "527P+P9X, Unnamed Road, Dương Ổ, Bắc Ninh, Vietnam",
        "latitude": 21.164366899999997,
        "longitude": 106.0359769
    },
    {
        "category": "museums",
        "title": "Thuỷ Đình Họ Nguyễn",
        "rating": 4.4,
        "address": "54X7+2GC, Kim Chân, Bắc Ninh, Vietnam",
        "latitude": 21.1975578,
        "longitude": 106.1137505
    },
    {
        "category": "museums",
        "title": "Làng Quan Họ Bựu Sim",
        "rating": 4.5,
        "address": "42HM+FVM, Hoài Thị, Tiên Du, Bắc Ninh, Vietnam",
        "latitude": 21.1287032,
        "longitude": 106.0346666
    },
    {
        "category": "museums",
        "title": "ĐÌNH LÀNG THIỂM XUYÊN",
        "rating": 4.6,
        "address": "62F9+GVQ, Thiểm Xuyên, Yên Phong, Bắc Ninh, Vietnam",
        "latitude": 21.2238272,
        "longitude": 106.01973369999999
    },
    {
        "category": "museums",
        "title": "CHÙA SÙNG KHÁNH",
        "rating": 4.7,
        "address": "54GX+GV2, Trại Đường, Quế Võ, Bắc Ninh, Vietnam",
        "latitude": 21.1762658,
        "longitude": 106.1496397
    },
    {
        "category": "museums",
        "title": "Hồ Nguyên Phi Ỷ Lan",
        "rating": 4.5,
        "address": "đường Nguyên Phi Ỷ Lan, Suối Hoa, Bắc Ninh, Vietnam",
        "latitude": 21.1847635,
        "longitude": 106.0753074
    },
    {
        "category": "museums",
        "title": "Thủy Đình Làng Lim",
        "rating": 4.8,
        "address": "35 Nguyễn Thiên Tích, TT. Lim, Tiên Du, Bắc Ninh, Vietnam",
        "latitude": 21.1426767,
        "longitude": 106.0184795
    },
    {
        "category": "museums",
        "title": "Đền Đô",
        "rating": 4.6,
        "address": "4X46+R52, Đ. Lý Thái Tổ, Tân Hồng, Từ Sơn, Bắc Ninh 790000, Vietnam",
        "latitude": 21.107011999999997,
        "longitude": 105.9603806
    },
    {
        "category": "museums",
        "title": "Chùa Mao Yên",
        "rating": 4.1,
        "address": "44WQ+CR2, Unnamed, Road, Quế Võ, Bắc Ninh, Vietnam",
        "latitude": 21.1460004,
        "longitude": 106.1395249
    },
    {
        "category": "museums",
        "title": "Gồ Đại Lâm",
        "rating": null,
        "address": "628J+7PC, Đường Quân Báo, Tam Đa, Yên Phong, Bắc Ninh, Vietnam",
        "latitude": 21.215694,
        "longitude": 106.0317625
    },
    {
        "category": "night markets",
        "title": "quang Đức",
        "rating": 3.8,
        "address": "111 Đ. Rạp Hát, Kinh Bắc, Bắc Ninh, Vietnam",
        "latitude": 21.186840399999998,
        "longitude": 106.06426379999999
    },
    {
        "category": "night markets",
        "title": "Chợ Đêm Bắc Ninh",
        "rating": 4.1,
        "address": "72 Nguyễn Bá Luật, Bình Thọ, Thủ Đức, Thành phố Hồ Chí Minh, Vietnam",
        "latitude": 10.850342099999999,
        "longitude": 106.76630689999999
    },
    {
        "category": "night markets",
        "title": "Halong Night Market",
        "rating": 3.9,
        "address": "Bãi Cháy, Hạ Long, Quảng Ninh, Vietnam",
        "latitude": 20.950343,
        "longitude": 107.04367169999999
    },
    {
        "category": "night markets",
        "title": "Chợ Giang Liễu",
        "rating": 4.1,
        "address": "Đường Đình, Phương Liễu, Quế Võ, Bắc Ninh, Vietnam",
        "latitude": 21.160762899999998,
        "longitude": 106.1271615
    },
    {
        "category": "night markets",
        "title": "Chợ Phương Liễu - Quế Võ",
        "rating": 4.2,
        "address": "Đường Phương Cầu 4, thôn Đ. Phương Cầu, Phương Liễu, Quế Võ, Bắc Ninh 16000, Vietnam",
        "latitude": 21.1736941,
        "longitude": 106.10636249999999
    },
    {
        "category": "night markets",
        "title": "Chợ đêm Bắc ninh",
        "rating": 3.9,
        "address": "16 Trần Hưng Đạo, P.Tiền An, Bắc Ninh, Vietnam",
        "latitude": 21.1812962,
        "longitude": 106.06373169999999
    },
    {
        "category": "viewpoints",
        "title": "Cột Đồng Hồ Thành phố Bắc Ninh",
        "rating": 4.7,
        "address": "53C6+WRC, Võ Cường, Bắc Ninh, Vietnam",
        "latitude": 21.172321699999998,
        "longitude": 106.0620137
    },
    {
        "category": "viewpoints",
        "title": "Thành Cổ Bắc Ninh",
        "rating": 4.4,
        "address": "53M5+9PG, P.Vệ An, Bắc Ninh, Vietnam",
        "latitude": 21.1834383,
        "longitude": 106.05933879999999
    },
    {
        "category": "viewpoints",
        "title": "Bac Ninh Cathedral",
        "rating": 4.5,
        "address": "537 Đ. Ng. Gia Tự, P.Tiền An, Bắc Ninh, Vietnam",
        "latitude": 21.1802299,
        "longitude": 106.0623281
    },
    {
        "category": "viewpoints",
        "title": "Bắc Ninh",
        "rating": null,
        "address": "Bac Ninh, Vietnam",
        "latitude": 21.1781766,
        "longitude": 106.07102549999999
    },
    {
        "category": "viewpoints",
        "title": "Dinh Bang Communal House",
        "rating": 4.7,
        "address": "Đình, Đình Bảng, Từ Sơn, Bắc Ninh, Vietnam",
        "latitude": 21.108319599999998,
        "longitude": 105.95174469999999
    },
    {
        "category": "viewpoints",
        "title": "Bắc Ninh Museum",
        "rating": 4.3,
        "address": "02 Đ. Lý Thái Tổ, Suối Hoa, Bắc Ninh, Vietnam",
        "latitude": 21.1841811,
        "longitude": 106.0747909
    },
    {
        "category": "viewpoints",
        "title": "Viewpoint Đầm sen Hang múa",
        "rating": 4.3,
        "address": "244 Đ. Võ Chí Công, Xuân La, Tây Hồ, Hà Nội 11200, Vietnam",
        "latitude": 21.063767499999997,
        "longitude": 105.8056261
    },
    {
        "category": "viewpoints",
        "title": "Royal Park project in Bac Ninh",
        "rating": 4.3,
        "address": "53QG+GR2, Suối Hoa, Bắc Ninh, Vietnam",
        "latitude": 21.1887635,
        "longitude": 106.07702139999999
    },
    {
        "category": "viewpoints",
        "title": "Vincom Plaza Bac Ninh",
        "rating": 4.3,
        "address": "Ngã 6 mặt đường Lý Thái Tổ và đường, Trần Hưng Đạo, Bắc Ninh, 79000, Vietnam",
        "latitude": 21.1783389,
        "longitude": 106.07220199999999
    },
    {
        "category": "viewpoints",
        "title": "Literature Park",
        "rating": 4.5,
        "address": "5389+FX9, Đại Phúc, Bắc Ninh, Vietnam",
        "latitude": 21.1660818,
        "longitude": 106.0705428
    },
    {
        "category": "viewpoints",
        "title": "Homies Garden",
        "rating": 5,
        "address": "1 Đ. Tam Giang, Chu Mẫu, Bắc Ninh, Vietnam",
        "latitude": 21.1600055,
        "longitude": 106.0804828
    },
    {
        "category": "viewpoints",
        "title": "Căn Hộ Chung cư Bắc Ninh - Park View City",
        "rating": 3.4,
        "address": "114 Huyền Quang, Đại Phúc, Bắc Ninh, 16100, Vietnam",
        "latitude": 21.1715385,
        "longitude": 106.06688799999999
    },
    {
        "category": "viewpoints",
        "title": "Sky Garden Coffee",
        "rating": 3.7,
        "address": "Tầng T (tầng thượng), tòa Viglacera Đại Phúc ngã 6, 21 Đ. Lý Thái Tổ, Đại Phúc, Bắc Ninh, 79000, Vietnam",
        "latitude": 21.1769726,
        "longitude": 106.07049649999999
    },
    {
        "category": "viewpoints",
        "title": "Viglacera Building Bac Ninh",
        "rating": 3.8,
        "address": "Tòa nhà viglacera, Xóm 10, ngã 6, Bắc Ninh 123456, Vietnam",
        "latitude": 21.1771414,
        "longitude": 106.0709541
    },
    {
        "category": "viewpoints",
        "title": "Kinh Bac Cultural Center",
        "rating": 4.4,
        "address": "2 Đ. Kinh Dương Vương, Suối Hoa, Bắc Ninh, Vietnam",
        "latitude": 21.1877153,
        "longitude": 106.0789495
    },
    {
        "category": "viewpoints",
        "title": "Parkview City - Dabaco Huyền Quang",
        "rating": 4.5,
        "address": "125 Huyền Quang, P.Ninh Xá, Bắc Ninh, 230000, Vietnam",
        "latitude": 21.171177699999998,
        "longitude": 106.0671237
    },
    {
        "category": "viewpoints",
        "title": "Bac Son Viewpoint",
        "rating": 4.5,
        "address": "bắc quỳnh, Bắc Sơn, Lạng Sơn, Vietnam",
        "latitude": 21.8984554,
        "longitude": 106.33442219999999
    },
    {
        "category": "viewpoints",
        "title": "Tiền An",
        "rating": null,
        "address": "Bắc Ninh, Bac Ninh, Vietnam",
        "latitude": 21.1815277,
        "longitude": 106.06622229999999
    },
    {
        "category": "viewpoints",
        "title": "GenZ coffee ( Quán cafe view đẹp nhất Bắc Ninh)",
        "rating": 4.4,
        "address": "60 Đ. Hai Bà Trưng, Suối Hoa, Bắc Ninh, Vietnam",
        "latitude": 21.186528,
        "longitude": 106.0756486
    },
    {
        "category": "viewpoints",
        "title": "Công Viên Giang Liễu",
        "rating": 4.1,
        "address": "546G+VHM, Giang Liễu, Quế Võ, Bắc Ninh, Vietnam",
        "latitude": 21.161677299999997,
        "longitude": 106.1258687
    },
    {
        "category": "gardens",
        "title": "Homies Garden",
        "rating": 5,
        "address": "1 Đ. Tam Giang, Chu Mẫu, Bắc Ninh, Vietnam",
        "latitude": 21.1600055,
        "longitude": 106.0804828
    },
    {
        "category": "gardens",
        "title": "Vườn Hoa Chợ Cóc",
        "rating": 4.3,
        "address": "25 Đ. Đại Phúc - 05, Xóm 10, Bắc Ninh, Vietnam",
        "latitude": 21.1756602,
        "longitude": 106.0712523
    },
    {
        "category": "gardens",
        "title": "Vườn Hoa Đài Ngũ Giác 2",
        "rating": 4.3,
        "address": "Đ. Khả Lễ, Võ Cường, Bắc Ninh, Vietnam",
        "latitude": 21.160785699999998,
        "longitude": 106.0531128
    },
    {
        "category": "gardens",
        "title": "Vườn Hoa 10 Khả Lễ",
        "rating": 4.8,
        "address": "Hoàng Sĩ Khải, Võ Cường, Bắc Ninh, Vietnam",
        "latitude": 21.1635997,
        "longitude": 106.05415149999999
    },
    {
        "category": "gardens",
        "title": "Vườn Hoa 7 Khả Lễ",
        "rating": 4.2,
        "address": "P. Trần Khánh Hưng, Võ Cường, Bắc Ninh, Vietnam",
        "latitude": 21.1618937,
        "longitude": 106.0573591
    },
    {
        "category": "gardens",
        "title": "Khu Đô thị Trầu Cau Garden",
        "rating": 3.7,
        "address": "5375+H2V, Võ Cường, Bắc Ninh, Vietnam",
        "latitude": 21.1639898,
        "longitude": 106.0575563
    },
    {
        "category": "gardens",
        "title": "Vườn Hoa Nguyễn Văn Cừ",
        "rating": 4.3,
        "address": "10 Đường Thành Cổ, P.Vệ An, Bắc Ninh, Vietnam",
        "latitude": 21.181646,
        "longitude": 106.0564766
    },
    {
        "category": "gardens",
        "title": "NAM ANH BG",
        "rating": null,
        "address": "Hồ Ngọc Lân, Kinh Bắc, Bắc Ninh, Vietnam",
        "latitude": 21.1875841,
        "longitude": 106.06522559999999
    },
    {
        "category": "gardens",
        "title": "Vườn đào Cầu vượt Đại Phúc",
        "rating": 4.8,
        "address": "53FP+J72, Trần Hưng Đạo, Đại Phúc, Bắc Ninh, Vietnam",
        "latitude": 21.174019899999998,
        "longitude": 106.0856316
    },
    {
        "category": "gardens",
        "title": "OKA GARDEN",
        "rating": null,
        "address": "44 Thanh Sơn, P. Đáp Cầu, Bắc Ninh, Vietnam",
        "latitude": 21.2018517,
        "longitude": 106.0932953
    },
    {
        "category": "gardens",
        "title": "Tào Phớ Garden Bắc Ninh",
        "rating": 3,
        "address": "6 Phố Ngô Miễn Thiệu, Kinh Bắc, Bắc Ninh, Vietnam",
        "latitude": 21.183779899999998,
        "longitude": 106.0673209
    },
    {
        "category": "gardens",
        "title": "Vườn cây cảnh Sơn trang",
        "rating": 3.9,
        "address": "43JG+WWV, QL38, Hạp Lĩnh, Tiên Du, Bắc Ninh, Vietnam",
        "latitude": 21.132367199999997,
        "longitude": 106.0773049
    },
    {
        "category": "gardens",
        "title": "Hoa Viên Garden",
        "rating": 4.5,
        "address": "52HW+X2V, Unnamed Road, Khúc Xuyên, Bắc Ninh, Vietnam",
        "latitude": 21.1799775,
        "longitude": 106.0450343
    },
    {
        "category": "gardens",
        "title": "Vườn Hoa - Khu Đô Thị An Huy",
        "rating": 3.8,
        "address": "53MJ+PX5, Vũ Ninh, Bắc Ninh, Vietnam",
        "latitude": 21.1842589,
        "longitude": 106.08248569999999
    },
    {
        "category": "gardens",
        "title": "CẠN Beer Garden",
        "rating": 4.4,
        "address": "99 Lý Anh Tông, Võ Cường, Bắc Ninh, 16000, Vietnam",
        "latitude": 21.1653584,
        "longitude": 106.05692789999999
    },
    {
        "category": "gardens",
        "title": "Sky Garden Coffee",
        "rating": 3.7,
        "address": "Tầng T (tầng thượng), tòa Viglacera Đại Phúc ngã 6, 21 Đ. Lý Thái Tổ, Đại Phúc, Bắc Ninh, 79000, Vietnam",
        "latitude": 21.1769726,
        "longitude": 106.07049649999999
    },
    {
        "category": "gardens",
        "title": "Vườn Hoa Biệt Thự Kinh Bắc 81",
        "rating": 5,
        "address": "53W8+767, Vạn An, Bắc Ninh, Vietnam",
        "latitude": 21.195655499999997,
        "longitude": 106.0655594
    },
    {
        "category": "gardens",
        "title": "Vườn Hoa Đài Ngũ Giác 1",
        "rating": null,
        "address": "Đ. Khả Lễ, Võ Cường, Bắc Ninh, Vietnam",
        "latitude": 21.1617405,
        "longitude": 106.0501737
    },
    {
        "category": "gardens",
        "title": "Garden Phoenix hotel -明月花园酒店",
        "rating": 4.8,
        "address": "53MH+MP5, Suối Hoa, Bắc Ninh, Vietnam",
        "latitude": 21.1841354,
        "longitude": 106.07936389999999
    },
    {
        "category": "gardens",
        "title": "Vườn Hoa 9 Khả Lễ",
        "rating": 5,
        "address": "Đường Võ Cường, Võ Cường, Bắc Ninh, Vietnam",
        "latitude": 21.164745099999998,
        "longitude": 106.04692539999999
    },
    {
        "category": "zoo",
        "title": "Hanoi Zoo",
        "rating": 4.1,
        "address": "Đ. Bưởi, Thủ Lệ, Ba Đình, Hà Nội 100000, Vietnam",
        "latitude": 21.0312676,
        "longitude": 105.80369689999999
    },
    {
        "category": "zoo",
        "title": "Saigon Zoo & Botanical Gardens",
        "rating": 4.3,
        "address": "2 Nguyễn Bỉnh Khiêm, Bến Nghé, Quận 1, Thành phố Hồ Chí Minh 700000, Vietnam",
        "latitude": 10.787334399999999,
        "longitude": 106.70505659999999
    },
    {
        "category": "zoo",
        "title": "Khu vui chơi trẻ em - Sozo",
        "rating": 4.8,
        "address": "76 Đ. Lê Thái Tổ, Võ Cường, Bắc Ninh, Vietnam",
        "latitude": 21.1669022,
        "longitude": 106.0551054
    },
    {
        "category": "zoo",
        "title": "Quán 3 Zoo",
        "rating": null,
        "address": "62CC+77F, Thiểm Xuyên, Yên Phong, Bắc Ninh, Vietnam",
        "latitude": 21.2206936,
        "longitude": 106.0206702
    },
    {
        "category": "adventure parks",
        "title": "Sân Bóng Chu Mẫu",
        "rating": 4.5,
        "address": "537W+6X2, Đ. Chu Mẫu, Chu Mẫu, Bắc Ninh, Vietnam",
        "latitude": 21.1630115,
        "longitude": 106.0973971
    },
    {
        "category": "adventure parks",
        "title": "Funny Kids Vincom Bắc Ninh",
        "rating": 4.5,
        "address": "Ngã 6 mặt, Đ. Lý Thái Tổ/đường Trần Hưng Đạo, Bắc Ninh, 79000, Vietnam",
        "latitude": 21.1784227,
        "longitude": 106.07218689999999
    },
    {
        "category": "adventure parks",
        "title": "Vườn Hoa Hồ Nước Khả Lễ",
        "rating": 4.4,
        "address": "Đ. Khả Lễ, Võ Cường, Bắc Ninh, Vietnam",
        "latitude": 21.1621979,
        "longitude": 106.0546102
    },
    {
        "category": "adventure parks",
        "title": "Công viên RC Bắc Ninh - CLB máy bay mô hình BN",
        "rating": null,
        "address": "53Q2+XMF, Khúc Xuyên, Bắc Ninh, Vietnam",
        "latitude": 21.1897187,
        "longitude": 106.05239669999999
    },
    {
        "category": "adventure parks",
        "title": "Khu vui chơi Nam Hiền",
        "rating": 4.6,
        "address": "Quang Biểu, Việt Yên, Bắc Giang, Vietnam",
        "latitude": 21.201979599999998,
        "longitude": 106.1190271
    },
    {
        "category": "adventure parks",
        "title": "Sun World Halong Park",
        "rating": 4.4,
        "address": "X23X+84G, Số 9 Hạ Long, Bãi Cháy, Hạ Long, Quảng Ninh, Vietnam",
        "latitude": 20.9557495,
        "longitude": 107.0491696
    },
    {
        "category": "adventure parks",
        "title": "Bac Ninh Kid playground",
        "rating": 4.4,
        "address": "539C+5P9, Đại Phúc, Bắc Ninh, Vietnam",
        "latitude": 21.1679077,
        "longitude": 106.0718634
    },
    {
        "category": "adventure parks",
        "title": "Công Viên Thiếu Nhi Y Na",
        "rating": 4.4,
        "address": "53R7+HH8, Kinh Bắc, Bắc Ninh, Vietnam",
        "latitude": 21.191408,
        "longitude": 106.06394429999999
    },
    {
        "category": "adventure parks",
        "title": "Him Lam Green Park",
        "rating": 4.6,
        "address": "QL18, Bắc Ninh, 16000, Vietnam",
        "latitude": 21.1681766,
        "longitude": 106.091864
    },
    {
        "category": "adventure parks",
        "title": "Nông trại vui vẻ - Mexitrum Happy Farm",
        "rating": 4.5,
        "address": "Vân Dương, Bắc Ninh, Vietnam",
        "latitude": 21.1603769,
        "longitude": 106.0829976
    },
    {
        "category": "adventure parks",
        "title": "Vietnam Singapore Industrial Park",
        "rating": 4.4,
        "address": "1 Đường Hữu Nghị, Phù Chẩn, Từ Sơn, Bắc Ninh 16316, Vietnam",
        "latitude": 21.0777814,
        "longitude": 105.96702499999999
    },
    {
        "category": "adventure parks",
        "title": "Khu vui chơi BonBon (khu vui chơi trẻ em- tiệm trà chanh)",
        "rating": 5,
        "address": "lô 93, 103 Đường Võ Cường, Bắc Ninh, 220000, Vietnam",
        "latitude": 21.164844,
        "longitude": 106.0528142
    },
    {
        "category": "adventure parks",
        "title": "VinWonders Vũ Yên",
        "rating": 4.5,
        "address": "Đảo, Vũ Yên, Hải An, Hải Phòng 180000, Vietnam",
        "latitude": 20.8705659,
        "longitude": 106.7492867
    },
    {
        "category": "adventure parks",
        "title": "Bể bơi Dolphin",
        "rating": 4.2,
        "address": "53R7+WV6, Kinh Bắc, Bắc Ninh, Vietnam",
        "latitude": 21.1922936,
        "longitude": 106.064647
    },
    {
        "category": "adventure parks",
        "title": "Ba Na Hills SunWorld",
        "rating": 4.5,
        "address": "Hoà Ninh, Hòa Vang, Đà Nẵng, Vietnam",
        "latitude": 16.0265144,
        "longitude": 108.03279719999999
    },
    {
        "category": "adventure parks",
        "title": "Tuần Châu Park",
        "rating": 4,
        "address": "Ngọc Châu, Tuần Châu, Hạ Long, Quảng Ninh 200000, Vietnam",
        "latitude": 20.9276134,
        "longitude": 106.990917
    },
    {
        "category": "adventure parks",
        "title": "Que Vo III Industrial Park",
        "rating": 4.2,
        "address": "Viet Hung, Commune, Việt Hùng, Quế Võ, Bắc Ninh, Vietnam",
        "latitude": 21.138383299999997,
        "longitude": 106.17879599999999
    },
    {
        "category": "adventure parks",
        "title": "Hưng Thinh KB 99",
        "rating": null,
        "address": "P. Tú Mỡ, Phương Liễu, Quế Võ, Bắc Ninh, Vietnam",
        "latitude": 21.171004099999998,
        "longitude": 106.1080064
    },
    {
        "category": "adventure parks",
        "title": "TMV",
        "rating": null,
        "address": "LOT 5-TS7, TIEN SON INDUSTRIAL PARK, Tiên Du, Bắc Ninh 00000, Vietnam",
        "latitude": 21.1178311,
        "longitude": 106.0287512
    },
    {
        "category": "adventure parks",
        "title": "Ho Tay Water Park",
        "rating": 4.1,
        "address": "614 Đ. Lạc Long Quân, Nhật Tân, Tây Hồ, Hà Nội 100000, Vietnam",
        "latitude": 21.0729824,
        "longitude": 105.81727319999999
    },
    {
        "category": "shopping malls",
        "title": "Vincom Plaza Bac Ninh",
        "rating": 4.3,
        "address": "Ngã 6 mặt đường Lý Thái Tổ và đường, Trần Hưng Đạo, Bắc Ninh, 79000, Vietnam",
        "latitude": 21.1783389,
        "longitude": 106.07220199999999
    },
    {
        "category": "shopping malls",
        "title": "GOLDEN PARK",
        "rating": 4.3,
        "address": "Đ. Phương Cầu 1, Phương Liễu, Quế Võ, Bắc Ninh, Vietnam",
        "latitude": 21.1694603,
        "longitude": 106.1026977
    },
    {
        "category": "shopping malls",
        "title": "Bắc Ninh Outlet",
        "rating": 4.3,
        "address": "165 Ngọc Hân Công Chúa, Võ Cường, Bắc Ninh, Vietnam",
        "latitude": 21.172101599999998,
        "longitude": 106.0590915
    },
    {
        "category": "shopping malls",
        "title": "ELLY Bắc Ninh",
        "rating": 4.9,
        "address": "456 Đ. Ng. Gia Tự, P.Tiền An, Bắc Ninh, 16000, Vietnam",
        "latitude": 21.1822809,
        "longitude": 106.06429759999999
    },
    {
        "category": "shopping malls",
        "title": "Phụ kiện Sakura",
        "rating": 5,
        "address": "237 Trần Hưng Đạo, P.Tiền An, Bắc Ninh, Vietnam",
        "latitude": 21.179535299999998,
        "longitude": 106.06787709999999
    },
    {
        "category": "shopping malls",
        "title": "TOKYOLIFE Bắc Ninh 3",
        "rating": 4.2,
        "address": "250 Trần Hưng Đạo, Đại Phúc, Bắc Ninh, Vietnam",
        "latitude": 21.1788725,
        "longitude": 106.06877779999999
    },
    {
        "category": "shopping malls",
        "title": "젠틀맨 GENTLEMAN",
        "rating": 4.4,
        "address": "Bắc Ninh Tp. Bắc Ninh Ninh Xá, B4 Cat Tuong New, Dường Lý Thái Tổ, st, Bắc Ninh, Vietnam",
        "latitude": 21.1743079,
        "longitude": 106.0645086
    },
    {
        "category": "shopping malls",
        "title": "TOKYOLIFE Bắc Ninh 2",
        "rating": 4.5,
        "address": "463 Đ. Ng. Gia Tự, P.Tiền An, Bắc Ninh, Vietnam",
        "latitude": 21.1816565,
        "longitude": 106.0638242
    },
    {
        "category": "shopping malls",
        "title": "Sơn Nhà Nhập Khẩu Từ Mĩ",
        "rating": 5,
        "address": "15 Đ. Ngô Gia Tự, P. Thị Cầu, Bắc Ninh, Vietnam",
        "latitude": 21.1928789,
        "longitude": 106.08028759999999
    },
    {
        "category": "shopping malls",
        "title": "TTTM TRUNG VIỆT TRUNG (北宁中越中电子城)",
        "rating": 5,
        "address": "14 Nguyễn Đăng Đạo, Kinh Bắc, Bắc Ninh, 220000, Vietnam",
        "latitude": 21.1812893,
        "longitude": 106.0694944
    },
    {
        "category": "shopping malls",
        "title": "Showroom Đại Nam - Bắc Ninh",
        "rating": 4,
        "address": "9 Đ. Lê Thái Tổ, Võ Cường, Bắc Ninh, Vietnam",
        "latitude": 21.1690877,
        "longitude": 106.0575968
    },
    {
        "category": "shopping malls",
        "title": "VNTINHAY",
        "rating": 5,
        "address": "53G6+MVF, P.Ninh Xá, Bắc Ninh, Vietnam",
        "latitude": 21.1766814,
        "longitude": 106.06215909999999
    },
    {
        "category": "shopping malls",
        "title": "VIET LONG COMPLEX Residence",
        "rating": 4.7,
        "address": "30 Đ. Lý Thái Tổ, Kinh Bắc, Bắc Ninh, 16000, Vietnam",
        "latitude": 21.1752179,
        "longitude": 106.0657401
    },
    {
        "category": "shopping malls",
        "title": "Ngũ Phúc Đường Bắc Ninh",
        "rating": null,
        "address": "590 Nguyễn Trãi, Võ Cường, Bắc Ninh, 221229, Vietnam",
        "latitude": 21.1646923,
        "longitude": 106.06533309999999
    },
    {
        "category": "shopping malls",
        "title": "Boss Store",
        "rating": 4,
        "address": "54F5+X2W, Unnamed Road, Phương Liễu, Quế Võ, Bắc Ninh, Vietnam",
        "latitude": 21.174978199999998,
        "longitude": 106.1075681
    },
    {
        "category": "shopping malls",
        "title": "Trung tâm mua sắm HQ Smartmart",
        "rating": 4.3,
        "address": "44R9+4P9, Đa Cấu, Bắc Ninh, Vietnam",
        "latitude": 21.140283999999998,
        "longitude": 106.1193624
    },
    {
        "category": "shopping malls",
        "title": "THẾ GIỚI THÔNG MINH",
        "rating": 4,
        "address": "5492+QH5, Vân Dương, Bắc Ninh, Vietnam",
        "latitude": 21.169386199999998,
        "longitude": 106.1014855
    },
    {
        "category": "shopping malls",
        "title": "Trung Tâm Thương Mại Quốc Tế Kinh Bắc",
        "rating": 5,
        "address": "38 Đ. Tạ Quang Bửu, Phường, Bắc Ninh, 16000, Vietnam",
        "latitude": 21.189987199999997,
        "longitude": 106.0659163
    },
    {
        "category": "shopping malls",
        "title": "THIÊN TRANG STORE",
        "rating": 5,
        "address": "53H6+X4M, Unnamed Road, P.Tiền An, Vietnam",
        "latitude": 21.179975,
        "longitude": 106.0603055
    },
    {
        "category": "shopping malls",
        "title": "Phượt Store Bắc Ninh",
        "rating": 4.3,
        "address": "Đ. Trần Xuân Soạn, Khu 3, Bắc Ninh, 16000, Vietnam",
        "latitude": 21.174336999999998,
        "longitude": 106.07800359999999
    },
    {
        "category": "historical sites",
        "title": "Bac Ninh Temple of Literature",
        "rating": 4.6,
        "address": "Đại Phúc, Bắc Ninh, Vietnam",
        "latitude": 21.174700299999998,
        "longitude": 106.06892649999999
    },
    {
        "category": "historical sites",
        "title": "Cột cờ Bắc Ninh",
        "rating": 4.4,
        "address": "Cột cờ, Nguyễn Du, P.Tiền An, Bắc Ninh, Vietnam",
        "latitude": 21.1806756,
        "longitude": 106.06228499999999
    },
    {
        "category": "historical sites",
        "title": "Bắc Ninh Museum",
        "rating": 4.3,
        "address": "02 Đ. Lý Thái Tổ, Suối Hoa, Bắc Ninh, Vietnam",
        "latitude": 21.1841811,
        "longitude": 106.0747909
    },
    {
        "category": "historical sites",
        "title": "Thành Cổ Bắc Ninh",
        "rating": 4.4,
        "address": "53M5+9PG, P.Vệ An, Bắc Ninh, Vietnam",
        "latitude": 21.1834383,
        "longitude": 106.05933879999999
    },
    {
        "category": "historical sites",
        "title": "Ba Chua Kho Temple",
        "rating": 4.6,
        "address": "Khu, Cổ Mễ, Tp. Bắc Ninh, Bắc Ninh 790000, Vietnam",
        "latitude": 21.2049918,
        "longitude": 106.0856166
    },
    {
        "category": "historical sites",
        "title": "Dinh Bang Communal House",
        "rating": 4.7,
        "address": "Đình, Đình Bảng, Từ Sơn, Bắc Ninh, Vietnam",
        "latitude": 21.108319599999998,
        "longitude": 105.95174469999999
    },
    {
        "category": "historical sites",
        "title": "Đền Bà Chúa Kho Trung Cơ",
        "rating": 4.4,
        "address": "53P5+QQ7, Đ. Thiên Đức, P.Vệ An, Bắc Ninh, Vietnam",
        "latitude": 21.1869136,
        "longitude": 106.05943529999999
    },
    {
        "category": "historical sites",
        "title": "NÚI RÙA",
        "rating": 4.9,
        "address": "44J3+PH2, Nam Sơn, Bắc Ninh, Vietnam",
        "latitude": 21.1317749,
        "longitude": 106.103875
    },
    {
        "category": "historical sites",
        "title": "Trụ nước thành phố Bắc ninh",
        "rating": null,
        "address": "41 Nguyễn Thế Lộc, Vũ Ninh, Bắc Ninh, Vietnam",
        "latitude": 21.1876292,
        "longitude": 106.08555849999999
    },
    {
        "category": "historical sites",
        "title": "Nhà máy nước Cầu",
        "rating": 5,
        "address": "54C6+8RP, Phương Liễu, Quế Võ, Bắc Ninh, Vietnam",
        "latitude": 21.1708276,
        "longitude": 106.1120705
    },
    {
        "category": "historical sites",
        "title": "Đền Đô",
        "rating": 4.6,
        "address": "4X46+R52, Đ. Lý Thái Tổ, Tân Hồng, Từ Sơn, Bắc Ninh 790000, Vietnam",
        "latitude": 21.107011999999997,
        "longitude": 105.9603806
    },
    {
        "category": "historical sites",
        "title": "Villa Thương Trang",
        "rating": null,
        "address": "6354+9FF, Hoà Long, Bắc Ninh, Vietnam",
        "latitude": 21.207938499999997,
        "longitude": 106.05648699999999
    },
    {
        "category": "historical sites",
        "title": "Đình Đáp Cầu",
        "rating": 4.6,
        "address": "6422+9PX, Đ. Như Nguyệt, P. Đáp Cầu, Bắc Ninh, Vietnam",
        "latitude": 21.2009802,
        "longitude": 106.1018642
    },
    {
        "category": "historical sites",
        "title": "Đền Tam Phủ",
        "rating": 4.5,
        "address": "473V+24, Cao Đức, Gia Bình, Bắc Ninh, Vietnam",
        "latitude": 21.102483,
        "longitude": 106.2928214
    },
    {
        "category": "historical sites",
        "title": "Giếng Hống (di tích lịch sử)",
        "rating": 5,
        "address": "523R+4GQ, Võ Cường, Bắc Ninh, Vietnam",
        "latitude": 21.1528983,
        "longitude": 106.04166049999999
    },
    {
        "category": "historical sites",
        "title": "Tho Ha Village Communal House",
        "rating": 4.5,
        "address": "Làng, Thổ Hà, Việt Yên, Bắc Giang, Vietnam",
        "latitude": 21.202987,
        "longitude": 106.0423186
    },
    {
        "category": "historical sites",
        "title": "Her ancestor King Temple Quan",
        "rating": 4.7,
        "address": "Hoà Long, Bắc Ninh, Vietnam",
        "latitude": 21.2143051,
        "longitude": 106.0494978
    },
    {
        "category": "historical sites",
        "title": "Chùa Dạm",
        "rating": 4.6,
        "address": "44V2+PPJ, Nam Sơn, Bắc Ninh, Vietnam",
        "latitude": 21.1443445,
        "longitude": 106.10177209999999
    },
    {
        "category": "historical sites",
        "title": "Đình Khả Lễ",
        "rating": 4.5,
        "address": "Đ. Khả Lễ, Võ Cường, Bắc Ninh, Vietnam",
        "latitude": 21.162786699999998,
        "longitude": 106.04975359999999
    },
    {
        "category": "historical sites",
        "title": "Đình làng Ném Đoài",
        "rating": 4.4,
        "address": "43R4+8MJ, Đường Kênh Nam, Khắc Niệm, Bắc Ninh, Vietnam",
        "latitude": 21.140841299999998,
        "longitude": 106.0566496
    },
    {
        "category": "art galleries",
        "title": "Kinh Bac Cultural Center",
        "rating": 4.4,
        "address": "2 Đ. Kinh Dương Vương, Suối Hoa, Bắc Ninh, Vietnam",
        "latitude": 21.1877153,
        "longitude": 106.0789495
    },
    {
        "category": "art galleries",
        "title": "KB Art Gallery",
        "rating": 5,
        "address": "42C9+F4J, Liên Bão, Tiên Du, Bắc Ninh, Vietnam",
        "latitude": 21.121212099999997,
        "longitude": 106.01776939999999
    },
    {
        "category": "art galleries",
        "title": "Bắc Ninh Museum",
        "rating": 4.3,
        "address": "02 Đ. Lý Thái Tổ, Suối Hoa, Bắc Ninh, Vietnam",
        "latitude": 21.1841811,
        "longitude": 106.0747909
    },
    {
        "category": "art galleries",
        "title": "Decor WOLUX",
        "rating": null,
        "address": "8 Trần Hưng Đạo, Đại Phúc, Bắc Ninh, 16123, Vietnam",
        "latitude": 21.1760953,
        "longitude": 106.0755234
    },
    {
        "category": "art galleries",
        "title": "Cột cờ Bắc Ninh",
        "rating": 4.4,
        "address": "Cột cờ, Nguyễn Du, P.Tiền An, Bắc Ninh, Vietnam",
        "latitude": 21.1806756,
        "longitude": 106.06228499999999
    },
    {
        "category": "art galleries",
        "title": "Trung Tâm Mỹ Thuật Ứng Dụng Tiến Đạt Art Gallery",
        "rating": null,
        "address": "419 Nguyễn Trãi, Võ Cường, Bắc Ninh, Vietnam",
        "latitude": 21.1680639,
        "longitude": 106.0642702
    },
    {
        "category": "theaters",
        "title": "LOTTE Cinema Bắc Ninh - Vincom",
        "rating": 4.1,
        "address": "TTTM Vincom Ngã 6, Đ. Lý Thái Tổ, P, Bắc Ninh, Vietnam",
        "latitude": 21.1783957,
        "longitude": 106.07226229999999
    },
    {
        "category": "theaters",
        "title": "Vincom Plaza Bac Ninh",
        "rating": 4.3,
        "address": "Ngã 6 mặt đường Lý Thái Tổ và đường, Trần Hưng Đạo, Bắc Ninh, 79000, Vietnam",
        "latitude": 21.1783389,
        "longitude": 106.07220199999999
    },
    {
        "category": "theaters",
        "title": "Dabaco Cinema Bắc Ninh",
        "rating": 3.7,
        "address": "Tô Vĩnh Diện, P.Tiền An, Bắc Ninh, Vietnam",
        "latitude": 21.1771018,
        "longitude": 106.06764469999999
    },
    {
        "category": "theaters",
        "title": "Top Music Box Bắc Ninh",
        "rating": 4.5,
        "address": "161 P Nguyễn Đức Cảnh, P, Bắc Ninh, 16000, Vietnam",
        "latitude": 21.1871992,
        "longitude": 106.06869599999999
    },
    {
        "category": "theaters",
        "title": "Top Music Box Bắc Ninh Cơ Sở Lãm Làng",
        "rating": 4.2,
        "address": "khu phố 2, Đ. Đàm Văn Lễ, Lãm Làng, Bắc Ninh, 16000, Vietnam",
        "latitude": 21.150678499999998,
        "longitude": 106.10472419999999
    },
    {
        "category": "theaters",
        "title": "Dabaco Cinema Quế Võ",
        "rating": 3.9,
        "address": "TTTM Dabaco, TT. Phố Mới, Quế Võ, Bắc Ninh, Vietnam",
        "latitude": 21.1550102,
        "longitude": 106.14439039999999
    },
    {
        "category": "theaters",
        "title": "Đu Đu Movie's",
        "rating": 4.8,
        "address": "Phượng Mao, Quế Võ, Bắc Ninh, Vietnam",
        "latitude": 21.152855,
        "longitude": 106.14144209999999
    },
    {
        "category": "theaters",
        "title": "GenZ Cinema Bắc Ninh",
        "rating": 4.4,
        "address": "63 Đ Lý Đạo Thành, P.Ninh Xá, Bắc Ninh, 11122, Vietnam",
        "latitude": 21.172869,
        "longitude": 106.0549613
    },
    {
        "category": "theaters",
        "title": "Nhà hát Dân Ca Quan Họ Bắc Ninh",
        "rating": 4.6,
        "address": "Viêm Xá, Bắc Ninh, Vietnam",
        "latitude": 21.213661,
        "longitude": 106.05210699999999
    },
    {
        "category": "theaters",
        "title": "Medusa Dance Studio",
        "rating": 5,
        "address": "NGÕ Lửa Hồng, P.Tiền An, Bắc Ninh, 16000, Vietnam",
        "latitude": 21.1808613,
        "longitude": 106.0662756
    },
    {
        "category": "theaters",
        "title": "Nhà chứa Quan họ Thị Cầu",
        "rating": 4.3,
        "address": "53VV+5V7, Phố Nguyễn Nhân Bỉ, P. Thị Cầu, Bắc Ninh, Vietnam",
        "latitude": 21.1929092,
        "longitude": 106.0946815
    },
    {
        "category": "theaters",
        "title": "Homestay 21 Cinema BN",
        "rating": 5,
        "address": "21 Lý Quốc Sư, Khả Lễ, Bắc Ninh, Vietnam",
        "latitude": 21.1655362,
        "longitude": 106.0488616
    },
    {
        "category": "theaters",
        "title": "Dabaco Cinema Từ Sơn",
        "rating": 4,
        "address": "4X36+5V6, Lý Thái Tổ, Đình Bảng, Từ Sơn, Bắc Ninh, Vietnam",
        "latitude": 21.102909699999998,
        "longitude": 105.9621454
    },
    {
        "category": "theaters",
        "title": "Cửa Hàng Kinh Doanh Tổng Hợp Hùng Lý",
        "rating": 3.3,
        "address": "747A Đ. Thiên Đức, Vạn An, Bắc Ninh, 220000, Vietnam",
        "latitude": 21.1942625,
        "longitude": 106.0491826
    },
    {
        "category": "theaters",
        "title": "ngọc tuấn",
        "rating": null,
        "address": "đường 290, Kinh Bắc, Bắc Ninh, 16000, Vietnam",
        "latitude": 21.1844645,
        "longitude": 106.06590779999999
    },
    {
        "category": "theaters",
        "title": "citycinema bắc ninh",
        "rating": 2,
        "address": "53G6+MVF, P.Ninh Xá, Bắc Ninh, Vietnam",
        "latitude": 21.1766814,
        "longitude": 106.06215909999999
    },
    {
        "category": "souvenir counters",
        "title": "Hub - Quà tặng & Phụ kiện",
        "rating": 4.3,
        "address": "56 Phố Ngô Miễn Thiệu, Kinh Bắc, Bắc Ninh, Vietnam",
        "latitude": 21.1812193,
        "longitude": 106.06753049999999
    },
    {
        "category": "souvenir counters",
        "title": "Nabe Store",
        "rating": 4.2,
        "address": "Đ. Trần Phú, Đình Bảng, Từ Sơn, Bắc Ninh, Vietnam",
        "latitude": 21.118139499999998,
        "longitude": 105.9602061
    }
]