[
    {
        "category": "tourist attractions",
        "title": "Fort San Pedro",
        "rating": 4.2,
        "address": "7WR4+X7J, A. Pigafetta Street, Cebu City, 6000 Cebu, Philippines",
        "latitude": 10.292456999999999,
        "longitude": 123.905636
    },
    {
        "category": "tourist attractions",
        "title": "Temple of Leah",
        "rating": 4.2,
        "address": "9V9F+G8R, Cebu Transcentral Hwy, Cebu City, 6000 Cebu, Philippines",
        "latitude": 10.368872699999999,
        "longitude": 123.8732522
    },
    {
        "category": "tourist attractions",
        "title": "TOPS Cebu",
        "rating": 4.5,
        "address": "Cebu Tops Rd, Cebu City, 6000 Cebu, Philippines",
        "latitude": 10.3706141,
        "longitude": 123.8708714
    },
    {
        "category": "tourist attractions",
        "title": "Casa Gorordo Museum",
        "rating": 4.6,
        "address": "35 Eduardo Aboitiz St, Cebu City, 6000 Cebu, Philippines",
        "latitude": 10.299913,
        "longitude": 123.90486159999999
    },
    {
        "category": "tourist attractions",
        "title": "Magellan's Cross",
        "rating": 4.4,
        "address": "7WV2+CQG, P. Burgos St, Cebu City, 6000 Cebu, Philippines",
        "latitude": 10.2935626,
        "longitude": 123.90195489999999
    },
    {
        "category": "tourist attractions",
        "title": "Sirao Garden",
        "rating": 4.4,
        "address": "CV48+MPV, Cebu City, 6000 Cebu, Philippines",
        "latitude": 10.406157799999999,
        "longitude": 123.8658416
    },
    {
        "category": "tourist attractions",
        "title": "Yap-San Diego Ancestral House",
        "rating": 4.4,
        "address": "155 Mabini St, Cebu City, 6000 Cebu, Philippines",
        "latitude": 10.299271599999999,
        "longitude": 123.9039535
    },
    {
        "category": "tourist attractions",
        "title": "Museo Sugbo",
        "rating": 4.3,
        "address": "731 M. J. Cuenco Ave, Cebu City, 6000 Cebu, Philippines",
        "latitude": 10.303791,
        "longitude": 123.90643109999999
    },
    {
        "category": "tourist attractions",
        "title": "Celestial Garden",
        "rating": 3.8,
        "address": "8V78+MW9, Cebu City, 6000 Cebu, Philippines",
        "latitude": 10.3141588,
        "longitude": 123.8673687
    },
    {
        "category": "tourist attractions",
        "title": "Sudlon National Park",
        "rating": 4.6,
        "address": "130 Cebu Veterans Dr, Cebu City, Cebu, Philippines",
        "latitude": 10.3822916,
        "longitude": 123.7908763
    },
    {
        "category": "tourist attractions",
        "title": "Kawa Falls",
        "rating": 3.6,
        "address": "8R7G+835, Antuwanga, Cebu City, 6000 Cebu, Philippines",
        "latitude": 10.313253999999999,
        "longitude": 123.82524199999999
    },
    {
        "category": "tourist attractions",
        "title": "Colon Obelisk arcae",
        "rating": 3.5,
        "address": "Colon St, Cebu City, 6000 Cebu, Philippines",
        "latitude": 10.297979699999999,
        "longitude": 123.9036644
    },
    {
        "category": "tourist attractions",
        "title": "The Cube - SM Seaside City",
        "rating": 4.3,
        "address": "7VJM+P6R, SM Seaside City, Cebu South Coastal Rd, Cebu City, 6000 Cebu, Philippines",
        "latitude": 10.2818699,
        "longitude": 123.88302309999999
    },
    {
        "category": "tourist attractions",
        "title": "Cebu Ocean Park",
        "rating": 4.4,
        "address": "7VJH+97X, SM Seaside Complex, F. Vestil St, Cebu City, 6000 Cebu, Philippines",
        "latitude": 10.2811506,
        "longitude": 123.87859479999999
    },
    {
        "category": "tourist attractions",
        "title": "Himbabawod Falls",
        "rating": 4.3,
        "address": "9RH7+73Q, Cebu City, 6000 Cebu, Philippines",
        "latitude": 10.3782248,
        "longitude": 123.8127208
    },
    {
        "category": "tourist attractions",
        "title": "Cebu Taoist Temple",
        "rating": 4.3,
        "address": "8VMQ+M5X, Cebu City, 6000 Cebu, Philippines",
        "latitude": 10.334248299999999,
        "longitude": 123.8879843
    },
    {
        "category": "tourist attractions",
        "title": "Beverly Hills Lahug Cebu City",
        "rating": 4.5,
        "address": "8VMQ+6RX, Unnamed Road, Cebu City, 6000 Cebu, Philippines",
        "latitude": 10.3331125,
        "longitude": 123.8896094
    },
    {
        "category": "tourist attractions",
        "title": "Heritage of Cebu Monument",
        "rating": 4.3,
        "address": "7WX3+GCP, Sikatuna St, Cebu City, 6000 Cebu, Philippines",
        "latitude": 10.2988468,
        "longitude": 123.90357449999999
    },
    {
        "category": "tourist attractions",
        "title": "Plaza Independencia",
        "rating": 4.4,
        "address": "7WV4+73C, CSCR Tunl, Cebu City, 6000 Cebu, Philippines",
        "latitude": 10.2931907,
        "longitude": 123.9051262
    },
    {
        "category": "tourist attractions",
        "title": "Budlaan Falls",
        "rating": 4.3,
        "address": "9VPP+925, Cebu City, 6000 Cebu, Philippines",
        "latitude": 10.385899199999999,
        "longitude": 123.8850978
    },
    {
        "category": "parks",
        "title": "Cebu Ocean Park",
        "rating": 4.4,
        "address": "7VJH+97X, SM Seaside Complex, F. Vestil St, Cebu City, 6000 Cebu, Philippines",
        "latitude": 10.2811506,
        "longitude": 123.87859479999999
    },
    {
        "category": "parks",
        "title": "D' Family Park",
        "rating": 4.1,
        "address": "9W56+C82, Cebu City, 6000 Cebu, Philippines",
        "latitude": 10.3585053,
        "longitude": 123.9107686
    },
    {
        "category": "parks",
        "title": "Sudlon National Park",
        "rating": 4.6,
        "address": "130 Cebu Veterans Dr, Cebu City, Cebu, Philippines",
        "latitude": 10.3822916,
        "longitude": 123.7908763
    },
    {
        "category": "parks",
        "title": "Freedom Park",
        "rating": 4.2,
        "address": "Carbon, Cebu City, 6000 Lalawigan ng Cebu, Philippines",
        "latitude": 10.293314599999999,
        "longitude": 123.89759459999999
    },
    {
        "category": "parks",
        "title": "Sky Park Garden",
        "rating": 4.7,
        "address": "SM, Cebu, Cebu South Coastal Rd, Cebu City, 6000 Cebu, Philippines",
        "latitude": 10.280702,
        "longitude": 123.88039789999999
    },
    {
        "category": "parks",
        "title": "Plaza Independencia",
        "rating": 4.4,
        "address": "7WV4+73C, CSCR Tunl, Cebu City, 6000 Cebu, Philippines",
        "latitude": 10.2931907,
        "longitude": 123.9051262
    },
    {
        "category": "parks",
        "title": "Family Park Talamban Entrance",
        "rating": 4.2,
        "address": "9W37+XRH, Cebu City, 6000 Cebu, Philippines",
        "latitude": 10.3549451,
        "longitude": 123.9145951
    },
    {
        "category": "parks",
        "title": "Cebu IT Park",
        "rating": 4.5,
        "address": "Brgy Apas, Cebu City, 6000 Cebu, Philippines",
        "latitude": 10.3293875,
        "longitude": 123.9069196
    },
    {
        "category": "parks",
        "title": "Cebu Hillyland",
        "rating": 4.5,
        "address": "8R6W+3WF, Cebu City, 6000 Cebu, Philippines",
        "latitude": 10.3101781,
        "longitude": 123.8472905
    },
    {
        "category": "parks",
        "title": "Cebu Safari and Adventure Park",
        "rating": 4.6,
        "address": "Barangay Corte, Toril, Carmen, 6005 Cebu, Philippines",
        "latitude": 10.5886553,
        "longitude": 123.9614118
    },
    {
        "category": "parks",
        "title": "CBP Central Park",
        "rating": 4.8,
        "address": "Cebu Business Park, Cebu City, 6000 Cebu, Philippines",
        "latitude": 10.3171878,
        "longitude": 123.90746499999999
    },
    {
        "category": "parks",
        "title": "Fuente Osmeña Circle",
        "rating": 4.2,
        "address": "8V5V+W7R, Fuente Osmeña Cir, Cebu City, 6000 Cebu, Philippines",
        "latitude": 10.3098543,
        "longitude": 123.8931559
    },
    {
        "category": "parks",
        "title": "The Millennium Park",
        "rating": 4.2,
        "address": "8W77+PMJ, M.J. Cuenco St, Cebu City, 6000 Lalawigan ng Cebu, Philippines",
        "latitude": 10.314338,
        "longitude": 123.914153
    },
    {
        "category": "parks",
        "title": "Cebu City Goverment - Parks and Playgrounds Commission",
        "rating": 4.5,
        "address": "Plaza Independencia, M. J. Cuenco Ave, Cebu City, 6000 Cebu, Philippines",
        "latitude": 10.293006199999999,
        "longitude": 123.90495139999999
    },
    {
        "category": "parks",
        "title": "Mountain View Nature's Park",
        "rating": 4.2,
        "address": "Cebu Transcentral Hwy, Cebu City, 6000 Cebu, Philippines",
        "latitude": 10.3711179,
        "longitude": 123.87427849999999
    },
    {
        "category": "parks",
        "title": "Anjo World Theme Park",
        "rating": 4.4,
        "address": "Upper, Belmont One, South Road, Minglanilla, 6046 Cebu, Philippines",
        "latitude": 10.2490092,
        "longitude": 123.7998492
    },
    {
        "category": "parks",
        "title": "Senior Citizen Park",
        "rating": 3.9,
        "address": "7WR2+WJ6, Dionisio Jakosalem St, Cebu City, 6000 Cebu, Philippines",
        "latitude": 10.2922959,
        "longitude": 123.9015069
    },
    {
        "category": "parks",
        "title": "SM Seaside City | Sky Park",
        "rating": 4.6,
        "address": "3rd Level, Mountain Wing, SM Seaside City, Antuwanga, Cebu City, 6000 Cebu, Philippines",
        "latitude": 10.282352399999999,
        "longitude": 123.8801056
    },
    {
        "category": "parks",
        "title": "Golden Haven Memorial Park - Cebu Office",
        "rating": 4.4,
        "address": "4th, Ongtiak Business Center, 65 General Maxilom Ave, Cebu City, 6000 Cebu, Philippines",
        "latitude": 10.3111932,
        "longitude": 123.8977414
    },
    {
        "category": "parks",
        "title": "Cebu City Children's Park and Playground",
        "rating": 5,
        "address": "7VRR+VQC, Cebu City, 6000 Cebu, Philippines",
        "latitude": 10.2921912,
        "longitude": 123.8918916
    },
    {
        "category": "restaurants",
        "title": "The Pig and Palm",
        "rating": 4.5,
        "address": "G/F, MSY Tower, Negros Rd, Cebu City, 6000 Cebu, Philippines",
        "latitude": 10.3128745,
        "longitude": 123.9045261
    },
    {
        "category": "restaurants",
        "title": "House of Lechon",
        "rating": 4.3,
        "address": "Acacia St, Cebu City, 6000 Cebu, Philippines",
        "latitude": 10.3177386,
        "longitude": 123.9017215
    },
    {
        "category": "restaurants",
        "title": "Vikings Luxury Buffet, SM City Cebu",
        "rating": 4.8,
        "address": "2nd Floor North Wing, SM City Cebu, Juan Luna Ave Ext, Cebu City, 6000 Cebu, Philippines",
        "latitude": 10.312646599999999,
        "longitude": 123.9191736
    },
    {
        "category": "restaurants",
        "title": "Top of Cebu",
        "rating": 4.4,
        "address": "9VCC+M83, Cebu Tops Rd, Cebu City, 6000 Cebu, Philippines",
        "latitude": 10.3716402,
        "longitude": 123.8708003
    },
    {
        "category": "restaurants",
        "title": "Anzani New Mediterranean Restaurant",
        "rating": 4.5,
        "address": "Panorama Heights Nivel Hills, Cebu City, 6000 Cebu, Philippines",
        "latitude": 10.3356199,
        "longitude": 123.8968658
    },
    {
        "category": "restaurants",
        "title": "Acacia Steakhouse",
        "rating": 4.5,
        "address": "Green Valley Subdivision, Acacia St, Capitol, Cebu City, 6000, Philippines",
        "latitude": 10.323151099999999,
        "longitude": 123.8919049
    },
    {
        "category": "restaurants",
        "title": "Mott 32 Cebu - NUSTAR",
        "rating": 4.4,
        "address": "Nustar Resort and Casino, Cebu South Road Properties, Cebu City, 6000 Cebu, Philippines",
        "latitude": 10.2725291,
        "longitude": 123.8811875
    },
    {
        "category": "restaurants",
        "title": "Tales and Feelings",
        "rating": 4.7,
        "address": "2nd floor, small staircase above Ho Nhogiong, Diaz Building, F. Ramos St, V. Ranudo St, Cebu City, 6000 Cebu, Philippines",
        "latitude": 10.306938899999999,
        "longitude": 123.8966957
    },
    {
        "category": "restaurants",
        "title": "Tong Yang, SM Seaside Cebu",
        "rating": 4.8,
        "address": "Lower Ground Floor, SM Seaside City, Cebu City, 6000 Cebu, Philippines",
        "latitude": 10.2800696,
        "longitude": 123.8815387
    },
    {
        "category": "restaurants",
        "title": "La Parisienne Cebu",
        "rating": 4.3,
        "address": "371 Gorordo Ave, Cebu City, 6000 Cebu, Philippines",
        "latitude": 10.3262134,
        "longitude": 123.8981652
    },
    {
        "category": "restaurants",
        "title": "LASA BUSAY Modern Filipino Food",
        "rating": 4.8,
        "address": "9VCF+68, Cebu City, 6000 Cebu, Philippines",
        "latitude": 10.3705118,
        "longitude": 123.87329969999999
    },
    {
        "category": "restaurants",
        "title": "Gerry's SM Cebu",
        "rating": 4.8,
        "address": "2nd Floor, SM City Cebu, Cebu City, 6000 Cebu, Philippines",
        "latitude": 10.3107775,
        "longitude": 123.9183738
    },
    {
        "category": "restaurants",
        "title": "La Buona Italian Restaurant",
        "rating": 4.4,
        "address": "Advent Business Center, 139 Acacia St, Cebu City, 6000 Cebu, Philippines",
        "latitude": 10.321187799999999,
        "longitude": 123.9000911
    },
    {
        "category": "restaurants",
        "title": "Lighthouse Restaurant",
        "rating": 4.1,
        "address": "8W63+94J, General Maxilom Ave, Cebu City, 6000 Cebu, Philippines",
        "latitude": 10.310957199999999,
        "longitude": 123.9027715
    },
    {
        "category": "restaurants",
        "title": "Parilya",
        "rating": 4.3,
        "address": "City di Mare Visitor Center, IL Corso, Cebu South Coastal Rd, Cebu City, Philippines",
        "latitude": 10.265180299999999,
        "longitude": 123.8765409
    },
    {
        "category": "restaurants",
        "title": "7107 Restaurant - Cebu City",
        "rating": 4.9,
        "address": "Gov. M. Cuenco Ave, 88th Avenue, Kasambagan, Cebu City, 6000 Cebu, Philippines",
        "latitude": 10.3280289,
        "longitude": 123.9089412
    },
    {
        "category": "restaurants",
        "title": "Lantaw Il Corso",
        "rating": 4.3,
        "address": "Cebu South Coastal Rd, Talisay, 6000 Cebu, Philippines",
        "latitude": 10.2677329,
        "longitude": 123.87976529999999
    },
    {
        "category": "restaurants",
        "title": "Yakski Barbecue",
        "rating": 4.3,
        "address": "268-B, Don Mariano Cui St, Cebu City, 6000 Cebu, Philippines",
        "latitude": 10.3150336,
        "longitude": 123.8899067
    },
    {
        "category": "restaurants",
        "title": "KKD stk+bbq",
        "rating": 4.2,
        "address": "7WR3+QCH, M. J. Cuenco Ave, Cebu City, 6000 Cebu, Philippines",
        "latitude": 10.2919444,
        "longitude": 123.90361109999999
    },
    {
        "category": "restaurants",
        "title": "Olio Restaurant & Lounge",
        "rating": 4.5,
        "address": "Unit T, Crossroads Mall, Cebu City, 6000 Cebu, Philippines",
        "latitude": 10.3280201,
        "longitude": 123.9100318
    },
    {
        "category": "cafes",
        "title": "HueMann Coffee",
        "rating": 4.8,
        "address": "Rahmann St, Cebu City, 6000 Cebu, Philippines",
        "latitude": 10.308827899999999,
        "longitude": 123.901209
    },
    {
        "category": "cafes",
        "title": "Sparrow Cafe Culture",
        "rating": 4.7,
        "address": "IT Park V. Padriga St, Cebu City, 6000 Cebu, Philippines",
        "latitude": 10.329700599999999,
        "longitude": 123.90720689999999
    },
    {
        "category": "cafes",
        "title": "Lorenzo's Cafe - Cebu City",
        "rating": 4.8,
        "address": "Lorenzo's Cafe, Twin Garden Hotel Banilad, A. S. Fortuna St, Cebu City, 6000 Cebu, Philippines",
        "latitude": 10.343316999999999,
        "longitude": 123.9130649
    },
    {
        "category": "cafes",
        "title": "Dr. Coffee - Cebu Main",
        "rating": 4.9,
        "address": "2nd Floor, Jaeja Building, Osmeña Boulevard, cor J. Llorente St, Cebu City, 6000 Cebu, Philippines",
        "latitude": 10.311670399999999,
        "longitude": 123.8927289
    },
    {
        "category": "cafes",
        "title": "Misfits Coffee",
        "rating": 4.8,
        "address": "368 Tojong St, Cebu City, 6000 Cebu, Philippines",
        "latitude": 10.318479799999999,
        "longitude": 123.9015498
    },
    {
        "category": "cafes",
        "title": "Tamp Cafe & Co. BTC",
        "rating": 4.6,
        "address": "Unit 105 Banilad Town Center, Cebu City, 6000 Cebu, Philippines",
        "latitude": 10.340662499999999,
        "longitude": 123.91253069999999
    },
    {
        "category": "cafes",
        "title": "Third Wave Coffee Cebu - Bloq Cafe",
        "rating": 4.6,
        "address": "2nd Floor, inside Bloq Residences Showroom, GND Arcade, F. Cabahug St, Cebu City, 6000 Cebu, Philippines",
        "latitude": 10.3262593,
        "longitude": 123.91989319999999
    },
    {
        "category": "cafes",
        "title": "21 Kilometers Coffee",
        "rating": 4.6,
        "address": "Cantipla 1 Tabunan, Cebu City Cebu City Cantipla 1, Cebu City, 6000, Philippines",
        "latitude": 10.4097823,
        "longitude": 123.8194264
    },
    {
        "category": "cafes",
        "title": "Dahun Cafe",
        "rating": 4.8,
        "address": "20b Gen. Sepulveda St, Cebu City, 6000 Cebu, Philippines",
        "latitude": 10.3076299,
        "longitude": 123.901934
    },
    {
        "category": "cafes",
        "title": "dragonfly café. – Bonifacio District",
        "rating": 4.2,
        "address": "G/floor, Bonifacio District, F. Cabahug St, Cebu City, 6000 Cebu, Philippines",
        "latitude": 10.3269369,
        "longitude": 123.9179011
    },
    {
        "category": "cafes",
        "title": "Merci Dessert Cafe",
        "rating": 4.5,
        "address": "G/F, Streetscape Mall, Paseo Saturnino, Cebu City, 6000 Cebu, Philippines",
        "latitude": 10.345360699999999,
        "longitude": 123.90925139999999
    },
    {
        "category": "cafes",
        "title": "Good Cup Coffee Co.",
        "rating": 4.8,
        "address": "F. Ramos St, Cebu City, 6000 Cebu, Philippines",
        "latitude": 10.306816,
        "longitude": 123.8968081
    },
    {
        "category": "cafes",
        "title": "Tightrope Coffee",
        "rating": 4.6,
        "address": "M. L. Quezon Avenue, F. Cabahug St, Cebu City, 6000 Cebu, Philippines",
        "latitude": 10.322747699999999,
        "longitude": 123.91303099999999
    },
    {
        "category": "cafes",
        "title": "Bicester Cafe",
        "rating": 4.4,
        "address": "Mabolo Mahogany Place, Pope John Paul II Ave, Cebu City, 6000 Cebu, Philippines",
        "latitude": 10.322316899999999,
        "longitude": 123.9099555
    },
    {
        "category": "cafes",
        "title": "Coffee Factory Main",
        "rating": 4.4,
        "address": "20 A. S. Fortuna St, Cebu City, 6000 Cebu, Philippines",
        "latitude": 10.3431876,
        "longitude": 123.91375459999999
    },
    {
        "category": "cafes",
        "title": "The HQ",
        "rating": 4.7,
        "address": "213 Pelaez St, Cebu City, 6000 Cebu, Philippines",
        "latitude": 10.3003755,
        "longitude": 123.89805539999999
    },
    {
        "category": "cafes",
        "title": "Ess Cafe",
        "rating": 4.7,
        "address": "Pelaez St, Cebu City, 6000 Cebu, Philippines",
        "latitude": 10.300445999999999,
        "longitude": 123.8979882
    },
    {
        "category": "cafes",
        "title": "Commonly Uncommon Coffee",
        "rating": 4.5,
        "address": "Crossroads Mall, Cebu City, 6000 Cebu, Philippines",
        "latitude": 10.3282752,
        "longitude": 123.9095402
    },
    {
        "category": "cafes",
        "title": "Bee Cafe Cebu",
        "rating": 4.6,
        "address": "S Cabahug, Cebu City, 6000 Cebu, Philippines",
        "latitude": 10.319981799999999,
        "longitude": 123.9148166
    },
    {
        "category": "cafes",
        "title": "Figaro Coffee - Ayala Center Cebu",
        "rating": 4.4,
        "address": "2nd Level The Terraces Ayala Center Cebu Archbishop Reyes Ave Cebu Business Park, Cebu City, 6000 Cebu, Philippines",
        "latitude": 10.3182239,
        "longitude": 123.905147
    },
    {
        "category": "mountains",
        "title": "Mountains",
        "rating": 3.3,
        "address": "Cebu, Philippines",
        "latitude": 10.0633172,
        "longitude": 123.54480799999999
    },
    {
        "category": "mountains",
        "title": "Sirao Peak",
        "rating": 4.7,
        "address": "Cebu City, 6000 Cebu, Philippines",
        "latitude": 10.4012991,
        "longitude": 123.86973259999999
    },
    {
        "category": "mountains",
        "title": "Mt. Naupa",
        "rating": 4.8,
        "address": "Naga, Cebu, Philippines",
        "latitude": 10.2757306,
        "longitude": 123.73118509999999
    },
    {
        "category": "mountains",
        "title": "Campinsa Highest Peak - Tower",
        "rating": 5,
        "address": "8Q8P+96C, Toledo - Manipis Rd, Cebu City, Cebu, Philippines",
        "latitude": 10.3159491,
        "longitude": 123.7855202
    },
    {
        "category": "mountains",
        "title": "Mount Acsubing",
        "rating": 5,
        "address": "Cebu City, 6000 Cebu, Philippines",
        "latitude": 10.4527778,
        "longitude": 123.91499999999999
    },
    {
        "category": "mountains",
        "title": "Cebu",
        "rating": 4.5,
        "address": "Philippines",
        "latitude": 10.3236604,
        "longitude": 123.79065809999999
    },
    {
        "category": "mountains",
        "title": "Mount Mauyog Pinnacle Karst",
        "rating": 4.9,
        "address": "FR6H+7GG, Balamban, Cebu, Philippines",
        "latitude": 10.460699199999999,
        "longitude": 123.8288164
    },
    {
        "category": "mountains",
        "title": "Mt. Mago",
        "rating": 4.8,
        "address": "HWR4+WXH, Danao, Cebu, Philippines",
        "latitude": 10.5923235,
        "longitude": 123.9074819
    },
    {
        "category": "mountains",
        "title": "Mount Lanibga",
        "rating": null,
        "address": "Cebu City, 6000 Cebu, Philippines",
        "latitude": 10.4502778,
        "longitude": 123.91388889999999
    },
    {
        "category": "mountains",
        "title": "Pangilatan Peak",
        "rating": 5,
        "address": "7Q25+3RW, Naga, Cebu, Philippines",
        "latitude": 10.250245699999999,
        "longitude": 123.7595889
    },
    {
        "category": "mountains",
        "title": "Starbuk's Kapehan",
        "rating": 4.6,
        "address": "8V96+63H, Cebu City, 6000 Cebu, Philippines",
        "latitude": 10.3180678,
        "longitude": 123.86023809999999
    },
    {
        "category": "mountains",
        "title": "Pamutan Grassland",
        "rating": 4.7,
        "address": "8RHP+QR2, Unnamed Road, Cebu City, 6000 Cebu, Philippines",
        "latitude": 10.3293786,
        "longitude": 123.8370025
    },
    {
        "category": "waterfalls",
        "title": "Himbabawod Falls",
        "rating": 4.3,
        "address": "9RH7+73Q, Cebu City, 6000 Cebu, Philippines",
        "latitude": 10.3782248,
        "longitude": 123.8127208
    },
    {
        "category": "waterfalls",
        "title": "Kawa Falls",
        "rating": 3.6,
        "address": "8R7G+835, Antuwanga, Cebu City, 6000 Cebu, Philippines",
        "latitude": 10.313253999999999,
        "longitude": 123.82524199999999
    },
    {
        "category": "waterfalls",
        "title": "Igutan Falls",
        "rating": 4.2,
        "address": "8R47+73R, Cebu - Toledo Wharf Rd, Cebu City, Cebu, Philippines",
        "latitude": 10.3057272,
        "longitude": 123.8126432
    },
    {
        "category": "waterfalls",
        "title": "Budlaan Falls",
        "rating": 4.3,
        "address": "9VPP+925, Cebu City, 6000 Cebu, Philippines",
        "latitude": 10.385899199999999,
        "longitude": 123.8850978
    },
    {
        "category": "waterfalls",
        "title": "BUSAY FALLS",
        "rating": 4,
        "address": "9V7J+3M4, Cebu Transcentral Hwy, Cebu City, 6000 Cebu, Philippines",
        "latitude": 10.3626495,
        "longitude": 123.881693
    },
    {
        "category": "waterfalls",
        "title": "Kabang Falls",
        "rating": 3.8,
        "address": "Cebu City, 6000 Cebu, Philippines",
        "latitude": 10.386862299999999,
        "longitude": 123.88355159999999
    },
    {
        "category": "waterfalls",
        "title": "Ka-Tinggo Falls",
        "rating": 3.8,
        "address": "PX8G+327, Catmon, Cebu, Philippines",
        "latitude": 10.7151642,
        "longitude": 123.9750591
    },
    {
        "category": "waterfalls",
        "title": "Bocaue Falls (Campo Cuatro Falls)",
        "rating": 4,
        "address": "8RH9+R7, Cebu City, 6000 Cebu, Philippines",
        "latitude": 10.329521399999999,
        "longitude": 123.8182415
    },
    {
        "category": "waterfalls",
        "title": "DAO FALLS",
        "rating": null,
        "address": "9VXV+CVP, Cebu City, 6000 Cebu, Philippines",
        "latitude": 10.398776699999999,
        "longitude": 123.8941359
    },
    {
        "category": "waterfalls",
        "title": "Mantayupan Falls",
        "rating": 4.6,
        "address": "Philippines, Cebu, Barili, Unnamed Road、",
        "latitude": 10.1007268,
        "longitude": 123.5360115
    },
    {
        "category": "waterfalls",
        "title": "Malubog Falls",
        "rating": 4.5,
        "address": "9P8G+V6R, Malubog - Biga Rd, Toledo, Cebu, Philippines",
        "latitude": 10.367235599999999,
        "longitude": 123.7255187
    },
    {
        "category": "waterfalls",
        "title": "Manggasang Falls",
        "rating": 5,
        "address": "CRXR+RFX, Brgy Tagbao Rd, Cebu City, 6000 Cebu, Philippines",
        "latitude": 10.4496065,
        "longitude": 123.8412273
    },
    {
        "category": "waterfalls",
        "title": "Kawasan Falls",
        "rating": 4.5,
        "address": "Badian, Cebu, Philippines",
        "latitude": 9.803500699999999,
        "longitude": 123.3743315
    },
    {
        "category": "waterfalls",
        "title": "Cambais Falls",
        "rating": 4.4,
        "address": "P9RQ+W6Q, Alegria, Cebu, Philippines",
        "latitude": 9.7423355,
        "longitude": 123.3881083
    },
    {
        "category": "waterfalls",
        "title": "Sayaw Falls",
        "rating": 3.6,
        "address": "CVJF+52M, Cebu City, 6000 Cebu, Philippines",
        "latitude": 10.4304604,
        "longitude": 123.872559
    },
    {
        "category": "waterfalls",
        "title": "Gining Falls",
        "rating": 4.5,
        "address": "CRQ7+M8W, Cebu City, Cebu, Philippines",
        "latitude": 10.4392252,
        "longitude": 123.8133264
    },
    {
        "category": "waterfalls",
        "title": "Manipis Falls",
        "rating": 4.3,
        "address": "8Q87+C9G, Toledo - Manipis Rd, Minglanilla, Cebu, Philippines",
        "latitude": 10.316063399999999,
        "longitude": 123.76345339999999
    },
    {
        "category": "waterfalls",
        "title": "Balisong Falls",
        "rating": 4.2,
        "address": "9V2F+3W8, Cebu City, 6000 Cebu, Philippines",
        "latitude": 10.350172599999999,
        "longitude": 123.8748236
    },
    {
        "category": "waterfalls",
        "title": "Langgitan Falls",
        "rating": 3.8,
        "address": "8VG2+H3, Cebu City, 6000 Cebu, Philippines",
        "latitude": 10.32649,
        "longitude": 123.8502
    },
    {
        "category": "waterfalls",
        "title": "Dakit Falls",
        "rating": 4.5,
        "address": "9V2F+CPW, Cebu City, 6000 Cebu, Philippines",
        "latitude": 10.3511168,
        "longitude": 123.8743241
    },
    {
        "category": "lakes",
        "title": "Malubog Lake",
        "rating": 4.5,
        "address": "Toledo, Cebu, Philippines",
        "latitude": 10.368095499999999,
        "longitude": 123.71684409999999
    },
    {
        "category": "lakes",
        "title": "Emerald Lake",
        "rating": null,
        "address": "Cebu City, 6000 Cebu, Philippines",
        "latitude": 10.3578204,
        "longitude": 123.89750629999999
    },
    {
        "category": "lakes",
        "title": "Lake Pingganon",
        "rating": 4.5,
        "address": "9Q39+5HG, Toledo, Cebu, Philippines",
        "latitude": 10.352949599999999,
        "longitude": 123.76895409999999
    },
    {
        "category": "lakes",
        "title": "Buhisan Reservoir",
        "rating": 5,
        "address": "Cebu City, 6000 Cebu, Philippines",
        "latitude": 10.315,
        "longitude": 123.8475
    },
    {
        "category": "lakes",
        "title": "Buhisan Dam Basin",
        "rating": 4.3,
        "address": "Cebu City, 6000 Cebu, Philippines",
        "latitude": 10.3154954,
        "longitude": 123.8477573
    },
    {
        "category": "lakes",
        "title": "Malubog lake,toledo city",
        "rating": 4.8,
        "address": "9P98+6PQ, Malubog lake, Toledo, Cebu, Philippines",
        "latitude": 10.368095499999999,
        "longitude": 123.71684409999999
    },
    {
        "category": "lakes",
        "title": "Lake Pingganon Camp Site",
        "rating": 4.6,
        "address": "9Q39+R5X, Toledo, Cebu, Philippines",
        "latitude": 10.3543295,
        "longitude": 123.7685324
    },
    {
        "category": "lakes",
        "title": "Villaroca Lake",
        "rating": 4,
        "address": "Consolacion, Cebu, Philippines",
        "latitude": 10.3786741,
        "longitude": 123.95857579999999
    },
    {
        "category": "lakes",
        "title": "Lake Da-mon",
        "rating": 5,
        "address": "8QR7+JW3, Toledo, Cebu, Philippines",
        "latitude": 10.3415179,
        "longitude": 123.76478429999999
    },
    {
        "category": "lakes",
        "title": "Cabahug Lake",
        "rating": 5,
        "address": "7X47+PG3, Barangay Alegria Rd, Cordova, Cebu, Philippines",
        "latitude": 10.256761,
        "longitude": 123.96378849999999
    },
    {
        "category": "lakes",
        "title": "MCWD Lagtang Water Reservoir",
        "rating": 5,
        "address": "Talisay, Cebu, Philippines",
        "latitude": 10.2699695,
        "longitude": 123.8352412
    },
    {
        "category": "lakes",
        "title": "Malubog Falls",
        "rating": 4.5,
        "address": "9P8G+V6R, Malubog - Biga Rd, Toledo, Cebu, Philippines",
        "latitude": 10.367235599999999,
        "longitude": 123.7255187
    },
    {
        "category": "lakes",
        "title": "Buswang Lake",
        "rating": 4.2,
        "address": "Asturias, Cebu, Philippines",
        "latitude": 10.6207686,
        "longitude": 123.7812764
    },
    {
        "category": "lakes",
        "title": "Malubog ManMade Lake",
        "rating": 3.7,
        "address": "9P98+6PX, Malubog - Biga Rd, Toledo, Cebu, Philippines",
        "latitude": 10.3681141,
        "longitude": 123.716848
    },
    {
        "category": "lakes",
        "title": "Biga Pit",
        "rating": 4.5,
        "address": "Toledo, Cebu, Philippines",
        "latitude": 10.3378839,
        "longitude": 123.74758159999999
    },
    {
        "category": "lakes",
        "title": "Bitong lake (reed's quicksand)",
        "rating": 4.6,
        "address": "8QQ7+PRC, Toledo, Cebu, Philippines",
        "latitude": 10.33931,
        "longitude": 123.76450439999999
    },
    {
        "category": "lakes",
        "title": "St Janssen Fish Pond",
        "rating": 4.8,
        "address": "Cebu City, 6000 Cebu, Philippines",
        "latitude": 10.2821416,
        "longitude": 123.86906769999999
    },
    {
        "category": "beaches",
        "title": "Borromeo Beach Resort",
        "rating": 4.1,
        "address": "Philippines",
        "latitude": 10.2378474,
        "longitude": 123.82612569999999
    },
    {
        "category": "beaches",
        "title": "Cebu city beach",
        "rating": null,
        "address": "7VC6+2J9, Cebu City, 6000 Cebu, Philippines",
        "latitude": 10.2700443,
        "longitude": 123.86161539999999
    },
    {
        "category": "beaches",
        "title": "Rainbow Beach",
        "rating": 3.3,
        "address": "6RQG+22Q, Sitio Cainta Rd, Talisay, 6045 Cebu, Philippines",
        "latitude": 10.237576299999999,
        "longitude": 123.8251119
    },
    {
        "category": "beaches",
        "title": "Suba-Basbas Public Beach",
        "rating": 3,
        "address": "Suba Basbas Rd, Lapu-Lapu, Cebu, Philippines",
        "latitude": 10.2551012,
        "longitude": 123.9703703
    },
    {
        "category": "beaches",
        "title": "Paz Beach Resort",
        "rating": 4,
        "address": "6VX5+524, Paz Beach Resort, Talisay, Cebu, Philippines",
        "latitude": 10.2478871,
        "longitude": 123.8575784
    },
    {
        "category": "beaches",
        "title": "Biasong Beach",
        "rating": 3.9,
        "address": "6RPG+QVV, Unnamed Road, Talisay, Cebu, Philippines",
        "latitude": 10.2369854,
        "longitude": 123.8271812
    },
    {
        "category": "beaches",
        "title": "South Palms Resort- Cebu Office",
        "rating": 5,
        "address": "Pier 4, Gate 5 ​​Arellano Blvd, Cebu City, 6000 Cebu, Philippines",
        "latitude": 10.302596099999999,
        "longitude": 123.9136826
    },
    {
        "category": "swimming pools",
        "title": "Busay Holiday Pools",
        "rating": 4.1,
        "address": "9VJ9+24G, Cebu Transcentral Hwy, Cebu City, 6000 Lalawigan ng Cebu, Philippines",
        "latitude": 10.3800581,
        "longitude": 123.86782629999999
    },
    {
        "category": "swimming pools",
        "title": "Asmara Urban Resort & Lifestyle Village Inc.",
        "rating": 4.3,
        "address": "8WV6+W89, Paseo Saturnino, Cebu City, 6000 Cebu, Philippines",
        "latitude": 10.3448125,
        "longitude": 123.91081249999999
    },
    {
        "category": "swimming pools",
        "title": "Cebu Westown Lagoon",
        "rating": 4.2,
        "address": "Mantawi Drive, Subangdaku, 6014 Cebu N Rd, Mandaue, 6014 Cebu, Philippines",
        "latitude": 10.321508699999999,
        "longitude": 123.9290491
    },
    {
        "category": "swimming pools",
        "title": "Chateau Blanc",
        "rating": 4.5,
        "address": "8RQV+HPH, Barangay, Cebu City, Philippines",
        "latitude": 10.3389423,
        "longitude": 123.8443643
    },
    {
        "category": "swimming pools",
        "title": "YL-Cariñosa",
        "rating": 3.8,
        "address": "Riva Ridge Subdivision, Sitio Lupa, Cebu City, 6000 Cebu, Philippines",
        "latitude": 10.3075598,
        "longitude": 123.8700295
    },
    {
        "category": "swimming pools",
        "title": "Serenity Farm and Resort Busay",
        "rating": 4.3,
        "address": "Sitio Tiguib Bridge, Cebu City, 6000 Cebu, Philippines",
        "latitude": 10.3771034,
        "longitude": 123.8626812
    },
    {
        "category": "swimming pools",
        "title": "Ring Resthouse",
        "rating": 3.6,
        "address": "8V46+MQV, Cebu S Hills Rd, Cebu City, 6000 Cebu, Philippines",
        "latitude": 10.3067361,
        "longitude": 123.86192249999999
    },
    {
        "category": "swimming pools",
        "title": "Radisson Blu Swimming Pool",
        "rating": 3.4,
        "address": "8W59+WXW, Cebu City, 6000 Cebu, Philippines",
        "latitude": 10.309874899999999,
        "longitude": 123.91995639999999
    },
    {
        "category": "swimming pools",
        "title": "Linao Resort and Hideaway",
        "rating": 4.1,
        "address": "8VQ7+4GG, Cebu City, 6000 Cebu, Philippines",
        "latitude": 10.337811799999999,
        "longitude": 123.8638276
    },
    {
        "category": "swimming pools",
        "title": "Maroca Swimming Pool Garden",
        "rating": 4,
        "address": "Saint John Deville School, 278 Tres Aliños St, Talisay, Cebu, Philippines",
        "latitude": 10.2419897,
        "longitude": 123.84582789999999
    },
    {
        "category": "swimming pools",
        "title": "Tubod Flowing Water Resort",
        "rating": 4,
        "address": "Upper Pakigne Tubod Minglanilla Cebu City, Cebu City, Cebu, Philippines",
        "latitude": 10.2621497,
        "longitude": 123.79867189999999
    },
    {
        "category": "swimming pools",
        "title": "Kasili Pool",
        "rating": 4.5,
        "address": "8VW8+WRQ, Cebu City, 6000 Cebu, Philippines",
        "latitude": 10.3473288,
        "longitude": 123.86709549999999
    },
    {
        "category": "swimming pools",
        "title": "Pool Aquarius (CITIGYM)",
        "rating": 4.3,
        "address": "Cebu City, 6000 Cebu, Philippines",
        "latitude": 10.324131099999999,
        "longitude": 123.90395409999999
    },
    {
        "category": "swimming pools",
        "title": "USC - Swimming Pool",
        "rating": 5,
        "address": "7VXX+RM3, Cebu City, 6000 Cebu, Philippines",
        "latitude": 10.2995016,
        "longitude": 123.8991789
    },
    {
        "category": "swimming pools",
        "title": "Cebu Wetland Resort",
        "rating": 3.7,
        "address": "7VM7+4QH, 186 Natalio B. Bacalso Ave, Cebu City, 6000 Lalawigan ng Cebu, Philippines",
        "latitude": 10.2814184,
        "longitude": 123.866337
    },
    {
        "category": "swimming pools",
        "title": "BAI Hotel Pool & Bar",
        "rating": 4.5,
        "address": "8WFP+XV6, Mandaue, Cebu, Philippines",
        "latitude": 10.32491,
        "longitude": 123.93713269999999
    },
    {
        "category": "swimming pools",
        "title": "Villa Teresita Resort",
        "rating": 3.8,
        "address": "Riverside Zone 3, Talisay, 6045 Cebu, Philippines",
        "latitude": 10.236251099999999,
        "longitude": 123.83190739999999
    },
    {
        "category": "swimming pools",
        "title": "Rafols Resort",
        "rating": 3.5,
        "address": "6RPR+X9P, Talisay, Cebu, Philippines",
        "latitude": 10.2374619,
        "longitude": 123.8409483
    },
    {
        "category": "swimming pools",
        "title": "Midland Swimming Pool Events Place Rental",
        "rating": 4,
        "address": "2281 A. Gabuya St, Cebu City, 6000 Cebu, Philippines",
        "latitude": 10.275845,
        "longitude": 123.85861369999999
    },
    {
        "category": "swimming pools",
        "title": "Sacred Heart Center",
        "rating": 4.2,
        "address": "Dionisio Jakosalem St, Cebu City, 6000 Cebu, Philippines",
        "latitude": 10.3100234,
        "longitude": 123.89936549999999
    },
    {
        "category": "resorts",
        "title": "Shangri-La Mactan, Cebu",
        "rating": 4.6,
        "address": "Punta Engaño Rd, Lapu-Lapu City, Cebu, 6015 Cebu, Philippines",
        "latitude": 10.3081301,
        "longitude": 124.0200301
    },
    {
        "category": "resorts",
        "title": "Be Resort Mactan",
        "rating": 4.1,
        "address": "Punta Engaño Rd, Lapu-Lapu, Cebu, Philippines",
        "latitude": 10.3141,
        "longitude": 124.026354
    },
    {
        "category": "resorts",
        "title": "NUSTAR Resort & Casino",
        "rating": 4.6,
        "address": "Kawit Island, Cebu City, 6000 Cebu, Philippines",
        "latitude": 10.271853499999999,
        "longitude": 123.8809598
    },
    {
        "category": "resorts",
        "title": "Cebu Westown Lagoon",
        "rating": 4.2,
        "address": "Mantawi Drive, Subangdaku, 6014 Cebu N Rd, Mandaue, 6014 Cebu, Philippines",
        "latitude": 10.321508699999999,
        "longitude": 123.9290491
    },
    {
        "category": "resorts",
        "title": "Radisson Blu Hotel, Cebu",
        "rating": 4.5,
        "address": "Serging Osmena Boulevard, Corner Pope John Paul II Ave, Cebu City, 6000 Cebu, Philippines",
        "latitude": 10.3098183,
        "longitude": 123.9194217
    },
    {
        "category": "resorts",
        "title": "Cube9 Resort and Spa",
        "rating": 4.5,
        "address": "Hadsan Cove, Lapu-Lapu, 6015 Cebu, Philippines",
        "latitude": 10.2786101,
        "longitude": 123.9918752
    },
    {
        "category": "resorts",
        "title": "Serenity Farm and Resort Busay",
        "rating": 4.3,
        "address": "Sitio Tiguib Bridge, Cebu City, 6000 Cebu, Philippines",
        "latitude": 10.3771034,
        "longitude": 123.8626812
    },
    {
        "category": "resorts",
        "title": "Vista Mar Beach Resort & Country Club",
        "rating": 4,
        "address": "Resort and Country Club, Vistamar Beach & Residential Estates, Angasil Rd, Lapu-Lapu, Cebu, Philippines",
        "latitude": 10.2998733,
        "longitude": 124.0161361
    },
    {
        "category": "resorts",
        "title": "La Joya Farm Resort & Spa",
        "rating": 4.6,
        "address": "Jose G. Escario Street, Aloguinsan, 6040 Cebu, Philippines",
        "latitude": 10.188540099999999,
        "longitude": 123.60993169999999
    },
    {
        "category": "resorts",
        "title": "Crimson Resort and Spa Mactan",
        "rating": 4.6,
        "address": "Seascapes Resort Town Mactan Island, Lapu-Lapu, 6015 Cebu, Philippines",
        "latitude": 10.2966371,
        "longitude": 124.0140605
    },
    {
        "category": "resorts",
        "title": "Asmara Urban Resort & Lifestyle Village Inc.",
        "rating": 4.3,
        "address": "8WV6+W89, Paseo Saturnino, Cebu City, 6000 Cebu, Philippines",
        "latitude": 10.3448125,
        "longitude": 123.91081249999999
    },
    {
        "category": "resorts",
        "title": "Waterfront Cebu City Hotel & Casino",
        "rating": 4.3,
        "address": "Salinas Dr, Cebu City, 6000 Cebu, Philippines",
        "latitude": 10.3247918,
        "longitude": 123.9045043
    },
    {
        "category": "resorts",
        "title": "JVR Island in the Sky Resort by Hiverooms",
        "rating": 3.9,
        "address": "Toledo-Tabuelan, San Remigio Road, Balamban, 6041 Cebu, Philippines",
        "latitude": 10.431023999999999,
        "longitude": 123.7759334
    },
    {
        "category": "resorts",
        "title": "Arterra Hotel and Resort",
        "rating": 3.9,
        "address": "82MV+CVH, Road, Lapu-Lapu, 6015 Cebu, Philippines",
        "latitude": 10.3335578,
        "longitude": 124.0447391
    },
    {
        "category": "resorts",
        "title": "Tubod Flowing Water Resort",
        "rating": 4,
        "address": "Upper Pakigne Tubod Minglanilla Cebu City, Cebu City, Cebu, Philippines",
        "latitude": 10.2621497,
        "longitude": 123.79867189999999
    },
    {
        "category": "resorts",
        "title": "Guillen Plantaciones Resort Farm",
        "rating": 4.4,
        "address": "9QRJ+8X8, Cebu City, 6000 Cebu, Philippines",
        "latitude": 10.390784,
        "longitude": 123.7824685
    },
    {
        "category": "resorts",
        "title": "Montebello Villa Hotel",
        "rating": 4.4,
        "address": "Montebello Dr, Gov. M. Cuenco Ave, Cebu City, 6000 Cebu, Philippines",
        "latitude": 10.3393117,
        "longitude": 123.90944449999999
    },
    {
        "category": "resorts",
        "title": "THE MARK RESORT",
        "rating": 4.4,
        "address": "The Mark Resort, PH, Lapu-Lapu, 6015 Cebu, Philippines",
        "latitude": 10.3102726,
        "longitude": 124.02319059999999
    },
    {
        "category": "resorts",
        "title": "Cebu Family Suites powered by Cocotel",
        "rating": 4.2,
        "address": "27 P. Almendras St, Cebu City, 6000 Cebu, Philippines",
        "latitude": 10.3206788,
        "longitude": 123.913479
    },
    {
        "category": "resorts",
        "title": "Marco Polo Plaza Cebu",
        "rating": 4.5,
        "address": "Nivel Hills, Cebu Veterans Dr, Cebu City, 6000 Cebu, Philippines",
        "latitude": 10.341729899999999,
        "longitude": 123.89745579999999
    },
    {
        "category": "camping sites",
        "title": "Camp Marina - GSP Cebu HQ",
        "rating": 4.2,
        "address": "2047 A. Abellana, Cebu City, 6000 Cebu, Philippines",
        "latitude": 10.333570199999999,
        "longitude": 123.8853443
    },
    {
        "category": "camping sites",
        "title": "Boy Scouts of the Philippines - Camp Marina Grounds",
        "rating": 4.5,
        "address": "Monares St, Cebu City, 6000 Cebu, Philippines",
        "latitude": 10.3389211,
        "longitude": 123.88456439999999
    },
    {
        "category": "camping sites",
        "title": "The Camp Cebu by Cebu MTB Adventure",
        "rating": 4.4,
        "address": "9RGP+35X, Cebu City, 6000 Cebu, Philippines",
        "latitude": 10.3752318,
        "longitude": 123.8354746
    },
    {
        "category": "camping sites",
        "title": "Unggoyan Camp Site",
        "rating": 4.9,
        "address": "CV9H+JP, Cebu City, 6000 Cebu, Philippines",
        "latitude": 10.419062499999999,
        "longitude": 123.8793125
    },
    {
        "category": "camping sites",
        "title": "Mt. Kang-Irag Campsite, Sirao",
        "rating": 4.8,
        "address": "9VXC+RJ8, Cebu City, 6000 Cebu, Philippines",
        "latitude": 10.399541099999999,
        "longitude": 123.8715738
    },
    {
        "category": "camping sites",
        "title": "Mt. Manunggal Campsite",
        "rating": 4.6,
        "address": "FR27+4GQ, Balamban, Cebu, Philippines",
        "latitude": 10.4503297,
        "longitude": 123.8138554
    },
    {
        "category": "camping sites",
        "title": "Jamme's Campsite",
        "rating": 4.7,
        "address": "CQ2X+FM9, Sitio Lupa, Cebu City, Cebu, Philippines",
        "latitude": 10.4011657,
        "longitude": 123.79923289999999
    },
    {
        "category": "camping sites",
        "title": "Chalet Hill -Babag Campsite",
        "rating": 4.3,
        "address": "9V88+545, Cebu City, 6000 Cebu, Philippines",
        "latitude": 10.3653905,
        "longitude": 123.8653612
    },
    {
        "category": "camping sites",
        "title": "The Camp Cebu",
        "rating": 5,
        "address": "Sitio BANDILA, Cebu City, 6000 Cebu, Philippines",
        "latitude": 10.377204299999999,
        "longitude": 123.83422689999999
    },
    {
        "category": "camping sites",
        "title": "Camp Adela",
        "rating": 4.5,
        "address": "Barangay Pamutan, Cebu City, 6000 Cebu, Philippines",
        "latitude": 10.348258999999999,
        "longitude": 123.84633869999999
    },
    {
        "category": "camping sites",
        "title": "Gabby's Little Farm",
        "rating": 4.2,
        "address": "CRCR+5W2, Gabby's Little Farm, TCH, Cebu City, 6000 Cebu, Philippines",
        "latitude": 10.4203853,
        "longitude": 123.8422652
    },
    {
        "category": "camping sites",
        "title": "Teodula's Campsite",
        "rating": 5,
        "address": "8RWW+VF7, Cebu City, 6000 Cebu, Philippines",
        "latitude": 10.3471619,
        "longitude": 123.84617089999999
    },
    {
        "category": "camping sites",
        "title": "Cebu City",
        "rating": 5,
        "address": "8R2X+3W4, Antuwanga Rd, Cebu City, 6000 Cebu, Philippines",
        "latitude": 10.3001351,
        "longitude": 123.8498429
    },
    {
        "category": "camping sites",
        "title": "Camp foRRest",
        "rating": 4,
        "address": "Sitio kamansi, Cebu City, 6000 Cebu, Philippines",
        "latitude": 10.4472674,
        "longitude": 123.91393509999999
    },
    {
        "category": "camping sites",
        "title": "Paharuhay Campsite",
        "rating": 4.7,
        "address": "Central Nautical Hwy, Cebu City, 6009 Cebu, Philippines",
        "latitude": 10.9284134,
        "longitude": 123.9562685
    },
    {
        "category": "camping sites",
        "title": "CAMP BONTUYAN",
        "rating": 5,
        "address": "CVM6+GJR, Cebu City, 6000 Cebu, Philippines",
        "latitude": 10.433867399999999,
        "longitude": 123.8615038
    },
    {
        "category": "camping sites",
        "title": "The Iron House Camping Site",
        "rating": 4.3,
        "address": "Cebu Transcentral Hwy, Balamban, Cebu, Philippines",
        "latitude": 10.4490108,
        "longitude": 123.78405839999999
    },
    {
        "category": "camping sites",
        "title": "Camp Site, Tubahan Libes",
        "rating": 4.6,
        "address": "7RHC+29, Talisay, Cebu, Philippines",
        "latitude": 10.2777464,
        "longitude": 123.82099
    },
    {
        "category": "camping sites",
        "title": "Camping Area",
        "rating": 5,
        "address": "Good Shepherd Rd, Cebu City, 6000 Cebu, Philippines",
        "latitude": 10.3228868,
        "longitude": 123.86632949999999
    },
    {
        "category": "camping sites",
        "title": "Tagaytaybusay",
        "rating": 4.7,
        "address": "9V93+XM, Cebu City, 6000 Cebu, Philippines",
        "latitude": 10.369933,
        "longitude": 123.85420699999999
    },
    {
        "category": "hiking trails",
        "title": "Spartan Trailhead",
        "rating": 4.6,
        "address": "8V78+8QH, Unnamed Road, Cebu City, 6000 Cebu, Philippines",
        "latitude": 10.3133001,
        "longitude": 123.86698729999999
    },
    {
        "category": "hiking trails",
        "title": "Spartan Trail End Point",
        "rating": 4.9,
        "address": "8RMR+JQ7, Unnamed Road, Cebu City, 6000 Cebu, Philippines",
        "latitude": 10.3340415,
        "longitude": 123.84192429999999
    },
    {
        "category": "hiking trails",
        "title": "Starbuk's Kapehan",
        "rating": 4.6,
        "address": "8V96+63H, Cebu City, 6000 Cebu, Philippines",
        "latitude": 10.3180678,
        "longitude": 123.86023809999999
    },
    {
        "category": "hiking trails",
        "title": "Pamutan Grassland",
        "rating": 4.7,
        "address": "8RHP+QR2, Unnamed Road, Cebu City, 6000 Cebu, Philippines",
        "latitude": 10.3293786,
        "longitude": 123.8370025
    },
    {
        "category": "hiking trails",
        "title": "Pangilatan Peak",
        "rating": 5,
        "address": "7Q25+3RW, Naga, Cebu, Philippines",
        "latitude": 10.250245699999999,
        "longitude": 123.7595889
    },
    {
        "category": "hiking trails",
        "title": "Budlaan Falls",
        "rating": 4.3,
        "address": "9VPP+925, Cebu City, 6000 Cebu, Philippines",
        "latitude": 10.385899199999999,
        "longitude": 123.8850978
    },
    {
        "category": "hiking trails",
        "title": "Nature Trail",
        "rating": 5,
        "address": "9W44+4F5, Cebu City, 6000 Cebu, Philippines",
        "latitude": 10.3552553,
        "longitude": 123.9062239
    },
    {
        "category": "hiking trails",
        "title": "Sudlon National Park",
        "rating": 4.6,
        "address": "130 Cebu Veterans Dr, Cebu City, Cebu, Philippines",
        "latitude": 10.3822916,
        "longitude": 123.7908763
    },
    {
        "category": "hiking trails",
        "title": "Campinsa Highest Peak - Tower",
        "rating": 5,
        "address": "8Q8P+96C, Toledo - Manipis Rd, Cebu City, Cebu, Philippines",
        "latitude": 10.3159491,
        "longitude": 123.7855202
    },
    {
        "category": "hiking trails",
        "title": "Tambayanan sa Team H.I.K.E.",
        "rating": 5,
        "address": "7RXV+5PV, Antuwanga Rd, Cebu City, 6000 Cebu, Philippines",
        "latitude": 10.2979764,
        "longitude": 123.84428319999999
    },
    {
        "category": "hiking trails",
        "title": "Payag ni Gorgonio",
        "rating": 5,
        "address": "8V76+MR, Cebu City, 6000 Cebu, Philippines",
        "latitude": 10.318546699999999,
        "longitude": 123.85788009999999
    },
    {
        "category": "hiking trails",
        "title": "Sirao Peak Clearing",
        "rating": 5,
        "address": "CV38+3XP, Cebu City, 6000 Cebu, Philippines",
        "latitude": 10.4027233,
        "longitude": 123.86745239999999
    },
    {
        "category": "hiking trails",
        "title": "BAGUIO DE CEBU ECO-MOUNTAIN PARK ADVENTURE",
        "rating": 4.4,
        "address": "FR37+7M6, Brgy, Balamban, Cebu, Philippines",
        "latitude": 10.453158799999999,
        "longitude": 123.8141524
    },
    {
        "category": "hiking trails",
        "title": "Mount Mauyog Pinnacle Karst",
        "rating": 4.9,
        "address": "FR6H+7GG, Balamban, Cebu, Philippines",
        "latitude": 10.460699199999999,
        "longitude": 123.8288164
    },
    {
        "category": "hiking trails",
        "title": "Central Cebu Protected Landscape",
        "rating": 4.5,
        "address": "65 M. Velez Street, Cebu City, 6000 Cebu, Philippines",
        "latitude": 10.5375701,
        "longitude": 123.8396475
    },
    {
        "category": "hiking trails",
        "title": "Starbuks",
        "rating": 4.5,
        "address": "8VG8+RM3, Banawa, Cebu City, 6000 Cebu, Philippines",
        "latitude": 10.327018599999999,
        "longitude": 123.8666748
    },
    {
        "category": "hiking trails",
        "title": "Mt. Mago",
        "rating": 4.8,
        "address": "HWR4+WXH, Danao, Cebu, Philippines",
        "latitude": 10.5923235,
        "longitude": 123.9074819
    },
    {
        "category": "hiking trails",
        "title": "BUSAY FALLS",
        "rating": 4,
        "address": "9V7J+3M4, Cebu Transcentral Hwy, Cebu City, 6000 Cebu, Philippines",
        "latitude": 10.3626495,
        "longitude": 123.881693
    },
    {
        "category": "hiking trails",
        "title": "Casino Peak Hiking Trail",
        "rating": 4.9,
        "address": "RC4Q+85H, Mantalongon - Lugsangan Rd, Dalaguete, Cebu, Philippines",
        "latitude": 9.8058038,
        "longitude": 123.437979
    },
    {
        "category": "hiking trails",
        "title": "Magellan's Cross",
        "rating": 4.4,
        "address": "7WV2+CQG, P. Burgos St, Cebu City, 6000 Cebu, Philippines",
        "latitude": 10.2935626,
        "longitude": 123.90195489999999
    },
    {
        "category": "ecotourism areas",
        "title": "Sudlon National Park",
        "rating": 4.6,
        "address": "130 Cebu Veterans Dr, Cebu City, Cebu, Philippines",
        "latitude": 10.3822916,
        "longitude": 123.7908763
    },
    {
        "category": "ecotourism areas",
        "title": "Sirao Garden",
        "rating": 4.4,
        "address": "CV48+MPV, Cebu City, 6000 Cebu, Philippines",
        "latitude": 10.406157799999999,
        "longitude": 123.8658416
    },
    {
        "category": "ecotourism areas",
        "title": "Temple of Leah",
        "rating": 4.2,
        "address": "9V9F+G8R, Cebu Transcentral Hwy, Cebu City, 6000 Cebu, Philippines",
        "latitude": 10.368872699999999,
        "longitude": 123.8732522
    },
    {
        "category": "ecotourism areas",
        "title": "Cebu Safari and Adventure Park",
        "rating": 4.6,
        "address": "Barangay Corte, Toril, Carmen, 6005 Cebu, Philippines",
        "latitude": 10.5886553,
        "longitude": 123.9614118
    },
    {
        "category": "ecotourism areas",
        "title": "Cloudland Cebu Eco Park",
        "rating": 5,
        "address": "FR48+PR, Balamban, Cebu, Philippines",
        "latitude": 10.456824,
        "longitude": 123.817
    },
    {
        "category": "ecotourism areas",
        "title": "Jaclupan Eco Tourism Resort",
        "rating": 4,
        "address": "7RX8+7C, Talisay, Cebu, Philippines",
        "latitude": 10.297851999999999,
        "longitude": 123.816389
    },
    {
        "category": "ecotourism areas",
        "title": "Central Cebu Protected Landscape",
        "rating": 4.5,
        "address": "65 M. Velez Street, Cebu City, 6000 Cebu, Philippines",
        "latitude": 10.5375701,
        "longitude": 123.8396475
    },
    {
        "category": "ecotourism areas",
        "title": "TOPS Cebu",
        "rating": 4.5,
        "address": "Cebu Tops Rd, Cebu City, 6000 Cebu, Philippines",
        "latitude": 10.3706141,
        "longitude": 123.8708714
    },
    {
        "category": "ecotourism areas",
        "title": "Lava Mountain River Farm",
        "rating": 4.4,
        "address": "Sitio Biasong, Cebu City, 6000 Cebu, Philippines",
        "latitude": 10.3754768,
        "longitude": 123.82453869999999
    },
    {
        "category": "ecotourism areas",
        "title": "Celosia Flower Farm",
        "rating": 4.4,
        "address": "CV48+V6G, Cebu City, 6000 Cebu, Philippines",
        "latitude": 10.4071784,
        "longitude": 123.8655663
    },
    {
        "category": "ecotourism areas",
        "title": "Sirao Pictorial Garden and Camping Site",
        "rating": 4.2,
        "address": "CV48+C8Q, Canada Drv, Cebu City, 6000 Cebu, Philippines",
        "latitude": 10.4060999,
        "longitude": 123.86584909999999
    },
    {
        "category": "ecotourism areas",
        "title": "Crocolandia",
        "rating": 4.3,
        "address": "Burgos St, Talisay, 6045 Cebu, Philippines",
        "latitude": 10.2464979,
        "longitude": 123.83395499999999
    },
    {
        "category": "ecotourism areas",
        "title": "Durano Eco Farm & Spring Resort",
        "rating": 4.2,
        "address": "Durano Ecofarm Resort Carmen, Cebu, Philippines",
        "latitude": 10.605309199999999,
        "longitude": 123.97717089999999
    },
    {
        "category": "ecotourism areas",
        "title": "Purok Sabana",
        "rating": null,
        "address": "8R26+457, Talisay, Cebu, Philippines",
        "latitude": 10.300294599999999,
        "longitude": 123.81042219999999
    },
    {
        "category": "temples",
        "title": "Cebu Taoist Temple",
        "rating": 4.3,
        "address": "8VMQ+M5X, Cebu City, 6000 Cebu, Philippines",
        "latitude": 10.334248299999999,
        "longitude": 123.8879843
    },
    {
        "category": "temples",
        "title": "Cebu City Philippines Temple",
        "rating": 4.7,
        "address": "Gorordo Ave, Cebu City, 6000 Cebu, Philippines",
        "latitude": 10.3276039,
        "longitude": 123.89822869999999
    },
    {
        "category": "temples",
        "title": "Temple of Leah",
        "rating": 4.2,
        "address": "9V9F+G8R, Cebu Transcentral Hwy, Cebu City, 6000 Cebu, Philippines",
        "latitude": 10.368872699999999,
        "longitude": 123.8732522
    },
    {
        "category": "temples",
        "title": "Cebu Indian Hindu Temple (ਸੇਬੂ ਭਾਰਤੀ ਹਿੰਦੂ ਮੰਦਰ)",
        "rating": 4.9,
        "address": "48, F. Gochan Street, Cebu City, 6000 Cebu, Philippines",
        "latitude": 10.320558499999999,
        "longitude": 123.91437189999999
    },
    {
        "category": "temples",
        "title": "Fo Guang Shan Chu Un Temple",
        "rating": 4.6,
        "address": "246 V Rama Ave, Cebu City, 6000 Cebu, Philippines",
        "latitude": 10.3120552,
        "longitude": 123.8854058
    },
    {
        "category": "temples",
        "title": "Phu Sian Temple 普賢寺",
        "rating": 4.5,
        "address": "8VJR+9XG, Cebu City, 6000 Cebu, Philippines",
        "latitude": 10.330938699999999,
        "longitude": 123.8924596
    },
    {
        "category": "temples",
        "title": "Philippine Chinese Spiritual Temple",
        "rating": 4.6,
        "address": "8V7Q+HPX, Don Pedro Rodriguez, Cebu City, 6000 Lalawigan ng Cebu, Philippines",
        "latitude": 10.313991,
        "longitude": 123.88934499999999
    },
    {
        "category": "temples",
        "title": "Buddha Light Temple",
        "rating": 4.6,
        "address": "8W35+FJ7, B. Benedicto St, Cebu City, 6000 Cebu, Philippines",
        "latitude": 10.3036516,
        "longitude": 123.9090483
    },
    {
        "category": "temples",
        "title": "I - Kuan Tao Sian Tian Temple （一貫道先天聖道院）",
        "rating": 4.4,
        "address": "2 Gov. M. Cuenco Ave, Cebu City, 6000 Cebu, Philippines",
        "latitude": 10.332435,
        "longitude": 123.910619
    },
    {
        "category": "temples",
        "title": "Heavenly Temple of Charity",
        "rating": 5,
        "address": "8 Friendship St, Cebu City, 6000 Cebu, Philippines",
        "latitude": 10.3279863,
        "longitude": 123.8929051
    },
    {
        "category": "temples",
        "title": "Indian Sikh Temple | Gurdwara Singh Sabha Cebu Inc.",
        "rating": 4.7,
        "address": "493 V Rama Ave, Cebu City, 6000 Cebu, Philippines",
        "latitude": 10.3045215,
        "longitude": 123.8860136
    },
    {
        "category": "temples",
        "title": "Basilica Minore del Santo Niño de Cebu Pilgrim Center",
        "rating": 4.8,
        "address": "Osmeña Blvd, Cebu City, 6000 Cebu, Philippines",
        "latitude": 10.294022499999999,
        "longitude": 123.90250189999999
    },
    {
        "category": "temples",
        "title": "Cebu Metropolitan Cathedral",
        "rating": 4.7,
        "address": "6000 Mabini St, Cebu City, 6000 Cebu, Philippines",
        "latitude": 10.2955765,
        "longitude": 123.90299519999999
    },
    {
        "category": "temples",
        "title": "Temple Of Virtue",
        "rating": 4,
        "address": "8V7R+MC9, Don Gil Garcia St, Cebu City, 6000 Lalawigan ng Cebu, Philippines",
        "latitude": 10.3141529,
        "longitude": 123.8910969
    },
    {
        "category": "temples",
        "title": "Cebu Bethel Temple",
        "rating": 4.2,
        "address": "8V5Q+74C, Cebu City, 6000 Cebu, Philippines",
        "latitude": 10.308197999999999,
        "longitude": 123.88775199999999
    },
    {
        "category": "temples",
        "title": "Visayan Po Lua Temple",
        "rating": 2.8,
        "address": "7VVW+G36, Dimas-alang St, Pob, Cebu City, 6000 Cebu, Philippines",
        "latitude": 10.293787499999999,
        "longitude": 123.8951261
    },
    {
        "category": "temples",
        "title": "Temple Of Wea",
        "rating": null,
        "address": "Busay, Cebu City, 6000 Cebu, Philippines",
        "latitude": 10.3685992,
        "longitude": 123.87372839999999
    },
    {
        "category": "temples",
        "title": "Phu Sian Temple",
        "rating": 5,
        "address": "8WCG+VPV, Beverly, PC Hills, Cebu City, Cebu, Philippines",
        "latitude": 10.3222433,
        "longitude": 123.9267938
    },
    {
        "category": "temples",
        "title": "Carmelite Monastery",
        "rating": 4.8,
        "address": "8W96+FHQ, New Era, Cebu City, 6000 Cebu, Philippines",
        "latitude": 10.3187219,
        "longitude": 123.911479
    },
    {
        "category": "temples",
        "title": "Diwakar Mahadev Mandir (दिवाकर महादेव मंदिर)",
        "rating": 4,
        "address": "8WJ4+5XC, near, Cebu City, Philippines",
        "latitude": 10.3304499,
        "longitude": 123.9073923
    },
    {
        "category": "museums",
        "title": "National Museum of the Philippines - Cebu",
        "rating": 4.6,
        "address": "A. Pigafetta Street, Cebu City, 6000 Cebu, Philippines",
        "latitude": 10.291778599999999,
        "longitude": 123.90438639999999
    },
    {
        "category": "museums",
        "title": "Casa Gorordo Museum",
        "rating": 4.6,
        "address": "35 Eduardo Aboitiz St, Cebu City, 6000 Cebu, Philippines",
        "latitude": 10.299913,
        "longitude": 123.90486159999999
    },
    {
        "category": "museums",
        "title": "Museo Sugbo",
        "rating": 4.3,
        "address": "731 M. J. Cuenco Ave, Cebu City, 6000 Cebu, Philippines",
        "latitude": 10.303791,
        "longitude": 123.90643109999999
    },
    {
        "category": "museums",
        "title": "University of San Carlos Museum",
        "rating": 4.5,
        "address": "8V2X+384, Pelaez St, Cebu City, 6000 Cebu, Philippines",
        "latitude": 10.300141,
        "longitude": 123.8983322
    },
    {
        "category": "museums",
        "title": "Sugbu Chinese Heritage Museum",
        "rating": 4.1,
        "address": "7WR2+XQP, Gotiaoco, Building M. C. Briones St, Cebu City, 6000 Cebu, Philippines",
        "latitude": 10.292328399999999,
        "longitude": 123.9019282
    },
    {
        "category": "museums",
        "title": "Archdiocesan Museum of Cebu",
        "rating": 4.3,
        "address": "7WW3+438, P. Burgos St, Cebu City, 6000 Cebu, Philippines",
        "latitude": 10.2961373,
        "longitude": 123.90356249999999
    },
    {
        "category": "museums",
        "title": "Cebu City Museum",
        "rating": 3.8,
        "address": "2nd Floor, Rizal Memorial Library & Museum Building, 6000, Osmeña Blvd, Cebu City, Cebu, Philippines",
        "latitude": 10.3120665,
        "longitude": 123.8919806
    },
    {
        "category": "museums",
        "title": "BPI Museum",
        "rating": 4,
        "address": "7WV3+C2R, P. Burgos St, Cebu City, 6000 Cebu, Philippines",
        "latitude": 10.2936137,
        "longitude": 123.90251169999999
    },
    {
        "category": "museums",
        "title": "Fort San Pedro",
        "rating": 4.2,
        "address": "7WR4+X7J, A. Pigafetta Street, Cebu City, 6000 Cebu, Philippines",
        "latitude": 10.292456999999999,
        "longitude": 123.905636
    },
    {
        "category": "museums",
        "title": "Paulina Constancia Museum of Naïve Art (MoNA)",
        "rating": null,
        "address": "3J6M+88G, Justice German Lee Jr. Nature Sanctuary, Bacsije Rd, Carcar, Cebu, Philippines",
        "latitude": 10.0608182,
        "longitude": 123.6333239
    },
    {
        "category": "museums",
        "title": "1730 Jesuit House",
        "rating": 4.5,
        "address": "26 Zulueta St, Cebu City, 6000 Lalawigan ng Cebu, Philippines",
        "latitude": 10.2986579,
        "longitude": 123.9040433
    },
    {
        "category": "museums",
        "title": "Yap-San Diego Ancestral House",
        "rating": 4.4,
        "address": "155 Mabini St, Cebu City, 6000 Cebu, Philippines",
        "latitude": 10.299271599999999,
        "longitude": 123.9039535
    },
    {
        "category": "museums",
        "title": "Cebu Normal University Museum",
        "rating": 4.5,
        "address": "8V2W+GGP, Cebu Normal University, Osmena Boulevard, Cebu City, 6000 Cebu, Philippines",
        "latitude": 10.3013452,
        "longitude": 123.89634199999999
    },
    {
        "category": "museums",
        "title": "Museo Basílica Del Santo Niño",
        "rating": 4.6,
        "address": "7WV3+H34, Cebu City, 6000 Cebu, Philippines",
        "latitude": 10.293877499999999,
        "longitude": 123.9027079
    },
    {
        "category": "museums",
        "title": "Archbishop Salvador Memorial Museum and Library",
        "rating": 4.8,
        "address": "QG6M+MVM, Dalaguete, Cebu, Philippines",
        "latitude": 9.761718799999999,
        "longitude": 123.53466739999999
    },
    {
        "category": "museums",
        "title": "Medellin Town Museum",
        "rating": 4.2,
        "address": "4XH6+QMH, Daan Bantayan Road, Medellin, Lalawigan ng Cebu, Philippines",
        "latitude": 11.1294341,
        "longitude": 123.96173089999999
    },
    {
        "category": "museums",
        "title": "Boljoon Parish Museum",
        "rating": 4.7,
        "address": "JFJH+2QH, Natalio Bacalso Avenue, Boljoon, Cebu, Philippines",
        "latitude": 9.6296758,
        "longitude": 123.47944559999999
    },
    {
        "category": "museums",
        "title": "Carcar City Museum",
        "rating": 4.2,
        "address": "Carcar Town Plaza, Santa Catalina, Carcar, Cebu, Philippines",
        "latitude": 10.105923899999999,
        "longitude": 123.64090449999999
    },
    {
        "category": "museums",
        "title": "USPF - Jose Rizal Museum",
        "rating": 5,
        "address": "7WW3+GFC, Cebu City, 6000 Cebu, Philippines",
        "latitude": 10.2963191,
        "longitude": 123.90363289999999
    },
    {
        "category": "museums",
        "title": "Halad Museum",
        "rating": 4.1,
        "address": "7WW2+RR7, J and J Building, Dionisio Jakosalem Street corner V. Gullas Street, Cebu City, Cebu, Cebu City, Philippines",
        "latitude": 10.2970314,
        "longitude": 123.90205569999999
    },
    {
        "category": "night markets",
        "title": "Carbon Night Market",
        "rating": 4.4,
        "address": "7VRX+FQ8, Cebu City, 6000 Cebu, Philippines",
        "latitude": 10.2912419,
        "longitude": 123.89949829999999
    },
    {
        "category": "night markets",
        "title": "Colon Night Market",
        "rating": 4.2,
        "address": "7VWX+G9R, Colon St, Cebu City, 6000 Cebu, Philippines",
        "latitude": 10.296356,
        "longitude": 123.89840029999999
    },
    {
        "category": "night markets",
        "title": "Sugbo Mercado",
        "rating": 4.4,
        "address": "Abad St, Cebu City, 6000 Cebu, Philippines",
        "latitude": 10.3322208,
        "longitude": 123.9056224
    },
    {
        "category": "night markets",
        "title": "Sea side night market",
        "rating": 5,
        "address": "6000, Philippines, Cebu, Cebu City",
        "latitude": 10.342084999999999,
        "longitude": 123.897088
    },
    {
        "category": "night markets",
        "title": "B. Rodriguez Night Market",
        "rating": 4.5,
        "address": "8V5Q+477, B. Rodriguez St, Cebu City, 6000 Cebu, Philippines",
        "latitude": 10.3078024,
        "longitude": 123.88825299999999
    },
    {
        "category": "night markets",
        "title": "Carbon Market",
        "rating": 4.2,
        "address": "59 M. C. Briones St, Cebu City, 6000 Cebu, Philippines",
        "latitude": 10.2914389,
        "longitude": 123.899131
    },
    {
        "category": "night markets",
        "title": "Taboan Public Market",
        "rating": 4.3,
        "address": "Cebu City, 6000 Cebu, Philippines",
        "latitude": 10.295522,
        "longitude": 123.8911419
    },
    {
        "category": "night markets",
        "title": "Sugbo Sentro IT Park",
        "rating": 4.4,
        "address": "Cebu City, 6000 Cebu, Philippines",
        "latitude": 10.3273955,
        "longitude": 123.9056718
    },
    {
        "category": "night markets",
        "title": "Cebu City Night Food Park",
        "rating": 4.2,
        "address": "39 Junquera St, Cebu City, 6000 Cebu, Philippines",
        "latitude": 10.299237999999999,
        "longitude": 123.90000459999999
    },
    {
        "category": "night markets",
        "title": "Lahug Market",
        "rating": 3.9,
        "address": "964d Cebu Veterans Dr, Cebu City, 6000 Cebu, Philippines",
        "latitude": 10.331825,
        "longitude": 123.8989635
    },
    {
        "category": "night markets",
        "title": "KAWATTA China Town",
        "rating": 4,
        "address": "8W45+J5W, Cebu City, 6014 Cebu, Philippines",
        "latitude": 10.3065625,
        "longitude": 123.90793749999999
    },
    {
        "category": "night markets",
        "title": "Cebu City Night Market",
        "rating": null,
        "address": "Colon St, Cebu City, 6000 Cebu, Philippines",
        "latitude": 10.2974371,
        "longitude": 123.9004477
    },
    {
        "category": "viewpoints",
        "title": "TOPS Cebu",
        "rating": 4.5,
        "address": "Cebu Tops Rd, Cebu City, 6000 Cebu, Philippines",
        "latitude": 10.3706141,
        "longitude": 123.8708714
    },
    {
        "category": "viewpoints",
        "title": "Buhisan Dam View Deck",
        "rating": 4.5,
        "address": "8R6X+QCX, Cebu City, 6000 Cebu, Philippines",
        "latitude": 10.311976,
        "longitude": 123.8486112
    },
    {
        "category": "viewpoints",
        "title": "Beverly Hills Lahug Cebu City",
        "rating": 4.5,
        "address": "8VMQ+6RX, Unnamed Road, Cebu City, 6000 Cebu, Philippines",
        "latitude": 10.3331125,
        "longitude": 123.8896094
    },
    {
        "category": "viewpoints",
        "title": "REDCLIFF VIEW PARK",
        "rating": 4.7,
        "address": "Cantipla, Cebu City, Philippines",
        "latitude": 10.4098627,
        "longitude": 123.8174834
    },
    {
        "category": "viewpoints",
        "title": "Manipis Viewing Deck",
        "rating": 4.4,
        "address": "8RG5+F78, Toledo - Manipis Rd, Cebu City, Cebu, Philippines",
        "latitude": 10.3261535,
        "longitude": 123.8081953
    },
    {
        "category": "viewpoints",
        "title": "Magellan's Cross",
        "rating": 4.4,
        "address": "7WV2+CQG, P. Burgos St, Cebu City, 6000 Cebu, Philippines",
        "latitude": 10.2935626,
        "longitude": 123.90195489999999
    },
    {
        "category": "viewpoints",
        "title": "Sirao Garden",
        "rating": 4.4,
        "address": "CV48+MPV, Cebu City, 6000 Cebu, Philippines",
        "latitude": 10.406157799999999,
        "longitude": 123.8658416
    },
    {
        "category": "viewpoints",
        "title": "Temple of Leah",
        "rating": 4.2,
        "address": "9V9F+G8R, Cebu Transcentral Hwy, Cebu City, 6000 Cebu, Philippines",
        "latitude": 10.368872699999999,
        "longitude": 123.8732522
    },
    {
        "category": "viewpoints",
        "title": "Millthy's View Entrada",
        "rating": 5,
        "address": "8VXC+MVG, Kalunasan-Sapangdaku Rd, Cebu City, 6000 Cebu, Philippines",
        "latitude": 10.3491936,
        "longitude": 123.8722031
    },
    {
        "category": "viewpoints",
        "title": "Miyahay View",
        "rating": 5,
        "address": "8RFQ+WH6, Cebu City, 6000 Cebu, Philippines",
        "latitude": 10.324781399999999,
        "longitude": 123.8388938
    },
    {
        "category": "viewpoints",
        "title": "Starbuk's Kapehan",
        "rating": 4.6,
        "address": "8V96+63H, Cebu City, 6000 Cebu, Philippines",
        "latitude": 10.3180678,
        "longitude": 123.86023809999999
    },
    {
        "category": "viewpoints",
        "title": "Tuburan 360 Resto and Sunset View Deck",
        "rating": 4.5,
        "address": "MVXc, Tuburan, Cebu, Philippines",
        "latitude": 10.6741418,
        "longitude": 123.8654681
    },
    {
        "category": "viewpoints",
        "title": "lantaw city view",
        "rating": null,
        "address": "n/a, sitio kalumboyan, Cebu City, 6000 Cebu, Philippines",
        "latitude": 10.2998637,
        "longitude": 123.85837799999999
    },
    {
        "category": "viewpoints",
        "title": "Sudlon National Park",
        "rating": 4.6,
        "address": "130 Cebu Veterans Dr, Cebu City, Cebu, Philippines",
        "latitude": 10.3822916,
        "longitude": 123.7908763
    },
    {
        "category": "viewpoints",
        "title": "Cebu's Favela View",
        "rating": 3,
        "address": "8VJM+GFC, Cebu City, 6000 Cebu, Philippines",
        "latitude": 10.3317149,
        "longitude": 123.8842214
    },
    {
        "category": "viewpoints",
        "title": "Basilica Minore del Sto. Niño de Cebu",
        "rating": 4.7,
        "address": "Pilgrim’s Center, Osmeña Blvd, Cebu City, 6000 Cebu, Philippines",
        "latitude": 10.2941085,
        "longitude": 123.90210569999999
    },
    {
        "category": "viewpoints",
        "title": "Purisima Mountain VIEW",
        "rating": 4.2,
        "address": "Consolacion, 6000 Cebu, Philippines",
        "latitude": 10.4256306,
        "longitude": 123.92901459999999
    },
    {
        "category": "viewpoints",
        "title": "Fort San Pedro",
        "rating": 4.2,
        "address": "7WR4+X7J, A. Pigafetta Street, Cebu City, 6000 Cebu, Philippines",
        "latitude": 10.292456999999999,
        "longitude": 123.905636
    },
    {
        "category": "viewpoints",
        "title": "SM Seaside City | Sky Park",
        "rating": 4.6,
        "address": "3rd Level, Mountain Wing, SM Seaside City, Antuwanga, Cebu City, 6000 Cebu, Philippines",
        "latitude": 10.282352399999999,
        "longitude": 123.8801056
    },
    {
        "category": "viewpoints",
        "title": "Elms View",
        "rating": 5,
        "address": "CR8V+XC4, Cebu Transcentral Hwy, Cebu City, 6000 Cebu, Philippines",
        "latitude": 10.4173791,
        "longitude": 123.84357929999999
    },
    {
        "category": "gardens",
        "title": "Sirao Garden",
        "rating": 4.4,
        "address": "CV48+MPV, Cebu City, 6000 Cebu, Philippines",
        "latitude": 10.406157799999999,
        "longitude": 123.8658416
    },
    {
        "category": "gardens",
        "title": "Terrazas de Flores Botanical Garden and Restaurant",
        "rating": 4.3,
        "address": "Cebu Transcentral Hwy, Cebu City, 6000 Cebu, Philippines",
        "latitude": 10.3790026,
        "longitude": 123.8687375
    },
    {
        "category": "gardens",
        "title": "Sirao Garden-Little Amsterdam",
        "rating": 4.4,
        "address": "Unnamed Road, Cebu City, 6000 Cebu, Philippines",
        "latitude": 10.406739199999999,
        "longitude": 123.8667904
    },
    {
        "category": "gardens",
        "title": "Celestial Garden",
        "rating": 3.8,
        "address": "8V78+MW9, Cebu City, 6000 Cebu, Philippines",
        "latitude": 10.3141588,
        "longitude": 123.8673687
    },
    {
        "category": "gardens",
        "title": "Sirao Pictorial Garden and Camping Site",
        "rating": 4.2,
        "address": "CV48+C8Q, Canada Drv, Cebu City, 6000 Cebu, Philippines",
        "latitude": 10.4060999,
        "longitude": 123.86584909999999
    },
    {
        "category": "gardens",
        "title": "Temple of Leah",
        "rating": 4.2,
        "address": "9V9F+G8R, Cebu Transcentral Hwy, Cebu City, 6000 Cebu, Philippines",
        "latitude": 10.368872699999999,
        "longitude": 123.8732522
    },
    {
        "category": "gardens",
        "title": "Celosia Flower Farm",
        "rating": 4.4,
        "address": "CV48+V6G, Cebu City, 6000 Cebu, Philippines",
        "latitude": 10.4071784,
        "longitude": 123.8655663
    },
    {
        "category": "gardens",
        "title": "Verano Jr Garden",
        "rating": 4.2,
        "address": "Espina Compound, 8 B. Rodriguez St, Cebu City, 6000 Cebu, Philippines",
        "latitude": 10.307748,
        "longitude": 123.8870669
    },
    {
        "category": "gardens",
        "title": "Love Lock Garden",
        "rating": 4.3,
        "address": "9VCC+9J8, Roosevelt Drive, Cebu City, 6000 Cebu, Philippines",
        "latitude": 10.370913,
        "longitude": 123.8715769
    },
    {
        "category": "gardens",
        "title": "Sky Park Garden",
        "rating": 4.7,
        "address": "SM, Cebu, Cebu South Coastal Rd, Cebu City, 6000 Cebu, Philippines",
        "latitude": 10.280702,
        "longitude": 123.88039789999999
    },
    {
        "category": "gardens",
        "title": "Buwakan ni Alejandra",
        "rating": 4.6,
        "address": "Sitio Bunga Barangay, Balamban, 6041 Cebu, Philippines",
        "latitude": 10.430538799999999,
        "longitude": 123.7761244
    },
    {
        "category": "gardens",
        "title": "Mandaue City Garden",
        "rating": 4.5,
        "address": "8WGV+X5Q, S.B. Cabahug, Mandaue, 6014 Cebu, Philippines",
        "latitude": 10.32746,
        "longitude": 123.9429734
    },
    {
        "category": "gardens",
        "title": "Don meon Garden",
        "rating": 4.9,
        "address": "CVR9+7J3, Cebu City, 6000 Cebu, Philippines",
        "latitude": 10.4406378,
        "longitude": 123.869035
    },
    {
        "category": "gardens",
        "title": "Little Amsterdam of Cebu",
        "rating": 4.2,
        "address": "CV48+PMP, Cebu City, 6000 Cebu, Philippines",
        "latitude": 10.4068272,
        "longitude": 123.8667074
    },
    {
        "category": "gardens",
        "title": "Garden Bloc",
        "rating": 4.7,
        "address": "W Geonzon St, Cebu City, 6000 Cebu, Philippines",
        "latitude": 10.3316433,
        "longitude": 123.9057991
    },
    {
        "category": "gardens",
        "title": "Ethan's garden",
        "rating": 4.4,
        "address": "Tierra dulce White Road, Cebu City, 6000 Cebu, Philippines",
        "latitude": 10.2630529,
        "longitude": 123.8634591
    },
    {
        "category": "gardens",
        "title": "Jumalon Butterfly Sanctuary And Art Gallery",
        "rating": 4.4,
        "address": "7VR7+9WJ, J.N Julian Jumalon St, Cebu City, 6000 Lalawigan ng Cebu, Philippines",
        "latitude": 10.290659,
        "longitude": 123.8644898
    },
    {
        "category": "gardens",
        "title": "YlaNior's Garden",
        "rating": 5,
        "address": "8VV2+C38, Cebu City, 6000 Cebu, Philippines",
        "latitude": 10.3435387,
        "longitude": 123.850208
    },
    {
        "category": "gardens",
        "title": "Norhanifa's Garden",
        "rating": 5,
        "address": "8W32+CGV, Cebu City, 6000 Cebu, Philippines",
        "latitude": 10.3037175,
        "longitude": 123.9013007
    },
    {
        "category": "gardens",
        "title": "Sorela’s Garden",
        "rating": 5,
        "address": "9R8H+474, Cebu City, 6000 Cebu, Philippines",
        "latitude": 10.3643472,
        "longitude": 123.8274119
    },
    {
        "category": "zoo",
        "title": "Cebu Safari and Adventure Park",
        "rating": 4.6,
        "address": "Barangay Corte, Toril, Carmen, 6005 Cebu, Philippines",
        "latitude": 10.5886553,
        "longitude": 123.9614118
    },
    {
        "category": "zoo",
        "title": "Cebu Ocean Park",
        "rating": 4.4,
        "address": "7VJH+97X, SM Seaside Complex, F. Vestil St, Cebu City, 6000 Cebu, Philippines",
        "latitude": 10.2811506,
        "longitude": 123.87859479999999
    },
    {
        "category": "zoo",
        "title": "CEBU SAFARI AND ADVENTURE PARK",
        "rating": 4.6,
        "address": "H2V9+FCX, TORIL BARANGAY, Carmen, 6005 Cebu, Philippines",
        "latitude": 10.5937494,
        "longitude": 124.01861729999999
    },
    {
        "category": "zoo",
        "title": "ML Cebu Safari Talamban Office",
        "rating": 4.3,
        "address": "6000 Kalubihan Rd, Cebu City, 6000 Cebu, Philippines",
        "latitude": 10.3639124,
        "longitude": 123.9142868
    },
    {
        "category": "zoo",
        "title": "Safari Stadium Bird Show",
        "rating": 4.8,
        "address": "HXQ6+66M, Carmen, Cebu, Philippines",
        "latitude": 10.5880946,
        "longitude": 123.96055369999999
    },
    {
        "category": "zoo",
        "title": "Baluarte Resort and Mini Zoo",
        "rating": 4,
        "address": "9WRV+36G, Tolotolo, Consolacion, 6001 Cebu, Philippines",
        "latitude": 10.3901785,
        "longitude": 123.94309109999999
    },
    {
        "category": "zoo",
        "title": "eco park kalunasan",
        "rating": 1,
        "address": "corner of boy scout, kalunasan st, city, Cebu City, 6000 Cebu, Philippines",
        "latitude": 10.3502923,
        "longitude": 123.8774052
    },
    {
        "category": "zoo",
        "title": "Lanner’s Backyard",
        "rating": 5,
        "address": "Beside summerville, Ibabao Rd, Cordova, 6017 Cebu, Philippines",
        "latitude": 10.270366899999999,
        "longitude": 123.9540799
    },
    {
        "category": "zoo",
        "title": "Cebu Safari and Adventure Park Parking Stations",
        "rating": 4.6,
        "address": "HXQ7+X4R, Toril, Barangay, Carmen, 6005 Cebu, Philippines",
        "latitude": 10.5899898,
        "longitude": 123.96275539999999
    },
    {
        "category": "zoo",
        "title": "Cebu City Botanical & Wildlife Center",
        "rating": null,
        "address": "8VPP+W22, Cebu City, 6000 Cebu, Philippines",
        "latitude": 10.3372721,
        "longitude": 123.88500289999999
    },
    {
        "category": "zoo",
        "title": "Paw Park",
        "rating": null,
        "address": "3/F, Unit 353, SM Seaside City Cebu, F. Vestil St, Cebu City, Cebu, Philippines",
        "latitude": 10.2803028,
        "longitude": 123.8814108
    },
    {
        "category": "adventure parks",
        "title": "Cebu Safari and Adventure Park",
        "rating": 4.6,
        "address": "Barangay Corte, Toril, Carmen, 6005 Cebu, Philippines",
        "latitude": 10.5886553,
        "longitude": 123.9614118
    },
    {
        "category": "adventure parks",
        "title": "Anjo World Theme Park",
        "rating": 4.4,
        "address": "Upper, Belmont One, South Road, Minglanilla, 6046 Cebu, Philippines",
        "latitude": 10.2490092,
        "longitude": 123.7998492
    },
    {
        "category": "adventure parks",
        "title": "BAGUIO DE CEBU ECO-MOUNTAIN PARK ADVENTURE",
        "rating": 4.4,
        "address": "FR37+7M6, Brgy, Balamban, Cebu, Philippines",
        "latitude": 10.453158799999999,
        "longitude": 123.8141524
    },
    {
        "category": "adventure parks",
        "title": "Sky Park",
        "rating": 4.7,
        "address": "7VMJ+892, Mountain Wing SM Seaside Cebu, Cebu South Coastal Rd, Cebu City, 6000 Cebu, Philippines",
        "latitude": 10.283252,
        "longitude": 123.8808851
    },
    {
        "category": "adventure parks",
        "title": "Danasan Eco Adventure Park",
        "rating": 4,
        "address": "Brgy Danasan Rd, Danao, 6004 Cebu, Philippines",
        "latitude": 10.5546363,
        "longitude": 123.8579324
    },
    {
        "category": "adventure parks",
        "title": "WaterWorld Cebu",
        "rating": 3.8,
        "address": "8XJ7+37Q, Unnamed Road, Mandaue, Cebu, Philippines",
        "latitude": 10.3302073,
        "longitude": 123.9632321
    },
    {
        "category": "adventure parks",
        "title": "Cebu Ocean Park",
        "rating": 4.4,
        "address": "7VJH+97X, SM Seaside Complex, F. Vestil St, Cebu City, 6000 Cebu, Philippines",
        "latitude": 10.2811506,
        "longitude": 123.87859479999999
    },
    {
        "category": "adventure parks",
        "title": "SM Storyland",
        "rating": 4,
        "address": "Lower Ground Floor, Juan Luna Ext, Cebu City, 6000 Cebu, Philippines",
        "latitude": 10.310460599999999,
        "longitude": 123.9187113
    },
    {
        "category": "adventure parks",
        "title": "Snow World Cebu",
        "rating": 3.9,
        "address": "6RX2+W2C, Minglanilla, Cebu, Philippines",
        "latitude": 10.2498139,
        "longitude": 123.8000125
    },
    {
        "category": "adventure parks",
        "title": "D' Family Park",
        "rating": 4.1,
        "address": "9W56+C82, Cebu City, 6000 Cebu, Philippines",
        "latitude": 10.3585053,
        "longitude": 123.9107686
    },
    {
        "category": "adventure parks",
        "title": "Sky Park Garden",
        "rating": 4.7,
        "address": "SM, Cebu, Cebu South Coastal Rd, Cebu City, 6000 Cebu, Philippines",
        "latitude": 10.280702,
        "longitude": 123.88039789999999
    },
    {
        "category": "adventure parks",
        "title": "Sky Experience Adventure",
        "rating": 4.2,
        "address": "Osmeña Blvd, Cebu City, 6000 Cebu, Philippines",
        "latitude": 10.3078635,
        "longitude": 123.8941119
    },
    {
        "category": "adventure parks",
        "title": "SM Seaside City | Sky Park",
        "rating": 4.6,
        "address": "3rd Level, Mountain Wing, SM Seaside City, Antuwanga, Cebu City, 6000 Cebu, Philippines",
        "latitude": 10.282352399999999,
        "longitude": 123.8801056
    },
    {
        "category": "adventure parks",
        "title": "Mountain View Nature's Park",
        "rating": 4.2,
        "address": "Cebu Transcentral Hwy, Cebu City, 6000 Cebu, Philippines",
        "latitude": 10.3711179,
        "longitude": 123.87427849999999
    },
    {
        "category": "adventure parks",
        "title": "Jpark Island Resort and Waterpark, Cebu",
        "rating": 4.4,
        "address": "M.L. Quezon National Highway, Lapu-Lapu, Cebu, Philippines",
        "latitude": 10.282778,
        "longitude": 123.9955854
    },
    {
        "category": "adventure parks",
        "title": "Water Play SM Seaside",
        "rating": 4.3,
        "address": "7VMJ+673, Antuwanga, Cebu City, 6000 Cebu, Philippines",
        "latitude": 10.283004,
        "longitude": 123.8806618
    },
    {
        "category": "adventure parks",
        "title": "Cloudland Cebu Eco Park",
        "rating": 5,
        "address": "FR48+PR, Balamban, Cebu, Philippines",
        "latitude": 10.456824,
        "longitude": 123.817
    },
    {
        "category": "adventure parks",
        "title": "Catch Fun",
        "rating": 4.9,
        "address": "4TH Floor, Elizabeth Mall, Leon Kilat Street, Sanciangko St, Cebu City, 6000 Cebu, Philippines",
        "latitude": 10.2973456,
        "longitude": 123.89517559999999
    },
    {
        "category": "adventure parks",
        "title": "Danao Adventure Park",
        "rating": 4.4,
        "address": "Buenavista-Carmen, Jetafe Road, Magtangtang, Danao, 6339 Bohol, Philippines",
        "latitude": 9.9578125,
        "longitude": 124.17893749999999
    },
    {
        "category": "adventure parks",
        "title": "Inflatable Island - Cebu",
        "rating": 3.8,
        "address": "72Q5+XVX, Hilutungan Channel, Lapu-Lapu, Philippines",
        "latitude": 10.289975799999999,
        "longitude": 124.0097217
    },
    {
        "category": "shopping malls",
        "title": "Ayala Center Cebu",
        "rating": 4.5,
        "address": "Cebu City, 6000 Cebu, Philippines",
        "latitude": 10.318237,
        "longitude": 123.90522949999999
    },
    {
        "category": "shopping malls",
        "title": "SM City Cebu",
        "rating": 4.4,
        "address": "Cebu Port Center, North Reclamation Area, Juan Luna Ave. cor. Cabahug and Kaoshiung Streets, Mabolo, Cebu City, 6000 Cebu, Philippines",
        "latitude": 10.3114191,
        "longitude": 123.91781639999999
    },
    {
        "category": "shopping malls",
        "title": "Ayala Malls Central Bloc",
        "rating": 4.5,
        "address": "Central Bloc, I. Villa St, Cebu City, 6000 Cebu, Philippines",
        "latitude": 10.3306811,
        "longitude": 123.9073198
    },
    {
        "category": "shopping malls",
        "title": "SM Seaside City Cebu",
        "rating": 4.6,
        "address": "Cebu South Coastal Rd, Antuwanga, Cebu City, 6000 Cebu, Philippines",
        "latitude": 10.28233,
        "longitude": 123.8813045
    },
    {
        "category": "shopping malls",
        "title": "Robinsons Galleria Cebu",
        "rating": 4.5,
        "address": "Gen. Maxilom Avenue Extension, Sergio Osmeña Jr Blvd, Cebu City, 6000 Cebu, Philippines",
        "latitude": 10.3041971,
        "longitude": 123.91126209999999
    },
    {
        "category": "shopping malls",
        "title": "Elizabeth Mall",
        "rating": 4.1,
        "address": "Natalio B. Bacalso Ave, Cebu City, 6000 Cebu, Philippines",
        "latitude": 10.2983587,
        "longitude": 123.8953188
    },
    {
        "category": "shopping malls",
        "title": "Robinsons Cybergate Cebu",
        "rating": 4.1,
        "address": "132 Don Mariano Cui St, Cebu City, 6000 Cebu, Philippines",
        "latitude": 10.310201,
        "longitude": 123.89203169999999
    },
    {
        "category": "shopping malls",
        "title": "Ayala Terraces",
        "rating": 4.5,
        "address": "8W94+H97, Biliran Rd, Cebu City, 6000 Cebu, Philippines",
        "latitude": 10.318905599999999,
        "longitude": 123.9059312
    },
    {
        "category": "shopping malls",
        "title": "Colonnade Mall",
        "rating": 4.2,
        "address": "Colon St, Cebu City, 6000 Cebu, Philippines",
        "latitude": 10.296946,
        "longitude": 123.8997108
    },
    {
        "category": "shopping malls",
        "title": "JY Square Mall",
        "rating": 3.9,
        "address": "1 Salinas Dr, Cebu City, 6000 Cebu, Philippines",
        "latitude": 10.3307263,
        "longitude": 123.8984361
    },
    {
        "category": "shopping malls",
        "title": "Escario Central Mall",
        "rating": 4.1,
        "address": "N Escario St, Cebu City, 6000 Cebu, Philippines",
        "latitude": 10.317558499999999,
        "longitude": 123.8941181
    },
    {
        "category": "shopping malls",
        "title": "Gaisano Country Mall",
        "rating": 3.9,
        "address": "Banilad Rd, Cebu City, 6000 Cebu, Philippines",
        "latitude": 10.3394189,
        "longitude": 123.91081199999999
    },
    {
        "category": "shopping malls",
        "title": "SM Seaside City Tower",
        "rating": 4.5,
        "address": "Lower G/F, SM Seaside City, Cebu South Coastal Rd, Antuwanga, Cebu City, 6000 Cebu, Philippines",
        "latitude": 10.2818335,
        "longitude": 123.88159689999999
    },
    {
        "category": "shopping malls",
        "title": "CityMall",
        "rating": 3.6,
        "address": "7VXV+8Q4, Natalio B. Bacalso Ave, Cebu City, 6000 Cebu, Philippines",
        "latitude": 10.298272299999999,
        "longitude": 123.8944614
    },
    {
        "category": "shopping malls",
        "title": "Gaisano Main",
        "rating": 4.1,
        "address": "7WX2+2PG, Vicente Gullas St, Cebu City, 6000 Cebu, Philippines",
        "latitude": 10.2975522,
        "longitude": 123.90183909999999
    },
    {
        "category": "shopping malls",
        "title": "ICONIQUE MALL",
        "rating": 4.3,
        "address": "Iconique Mall, Colon St, Cebu City, Cebu, Philippines",
        "latitude": 10.2971747,
        "longitude": 123.8995089
    },
    {
        "category": "shopping malls",
        "title": "Parkmall",
        "rating": 4.3,
        "address": "Ouano Avenue, Mandaue Reclamation Area, Mandaue, 6014 Cebu, Philippines",
        "latitude": 10.324775299999999,
        "longitude": 123.93480489999999
    },
    {
        "category": "shopping malls",
        "title": "GMall of Cebu - White Gold Center",
        "rating": 4.2,
        "address": "8W56+GXP, A. Soriano Ave, Cebu City, 6000 Cebu, Philippines",
        "latitude": 10.308847199999999,
        "longitude": 123.9124569
    },
    {
        "category": "shopping malls",
        "title": "Streetscape Mall",
        "rating": 4.4,
        "address": "Paseo Saturnino, Cebu City, 6000 Cebu, Philippines",
        "latitude": 10.344644299999999,
        "longitude": 123.90910729999999
    },
    {
        "category": "shopping malls",
        "title": "Pacific Mall",
        "rating": 4.2,
        "address": "U.N. Ave, Mandaue, Cebu, Philippines",
        "latitude": 10.3410007,
        "longitude": 123.9474857
    },
    {
        "category": "historical sites",
        "title": "Fort San Pedro",
        "rating": 4.2,
        "address": "7WR4+X7J, A. Pigafetta Street, Cebu City, 6000 Cebu, Philippines",
        "latitude": 10.292456999999999,
        "longitude": 123.905636
    },
    {
        "category": "historical sites",
        "title": "Yap-San Diego Ancestral House",
        "rating": 4.4,
        "address": "155 Mabini St, Cebu City, 6000 Cebu, Philippines",
        "latitude": 10.299271599999999,
        "longitude": 123.9039535
    },
    {
        "category": "historical sites",
        "title": "Casa Gorordo Museum",
        "rating": 4.6,
        "address": "35 Eduardo Aboitiz St, Cebu City, 6000 Cebu, Philippines",
        "latitude": 10.299913,
        "longitude": 123.90486159999999
    },
    {
        "category": "historical sites",
        "title": "Magellan's Cross",
        "rating": 4.4,
        "address": "7WV2+CQG, P. Burgos St, Cebu City, 6000 Cebu, Philippines",
        "latitude": 10.2935626,
        "longitude": 123.90195489999999
    },
    {
        "category": "historical sites",
        "title": "Heritage of Cebu Monument",
        "rating": 4.3,
        "address": "7WX3+GCP, Sikatuna St, Cebu City, 6000 Cebu, Philippines",
        "latitude": 10.2988468,
        "longitude": 123.90357449999999
    },
    {
        "category": "historical sites",
        "title": "Basilica Minore del Sto. Niño de Cebu",
        "rating": 4.7,
        "address": "Pilgrim’s Center, Osmeña Blvd, Cebu City, 6000 Cebu, Philippines",
        "latitude": 10.2941085,
        "longitude": 123.90210569999999
    },
    {
        "category": "historical sites",
        "title": "National Museum of the Philippines - Cebu",
        "rating": 4.6,
        "address": "A. Pigafetta Street, Cebu City, 6000 Cebu, Philippines",
        "latitude": 10.291778599999999,
        "longitude": 123.90438639999999
    },
    {
        "category": "historical sites",
        "title": "Colon Obelisk arcae",
        "rating": 3.5,
        "address": "Colon St, Cebu City, 6000 Cebu, Philippines",
        "latitude": 10.297979699999999,
        "longitude": 123.9036644
    },
    {
        "category": "historical sites",
        "title": "Andres Bonifacio Monument and Historical Marker",
        "rating": 4.6,
        "address": "7WR3+WXP, Cebu City, 6000 Cebu, Philippines",
        "latitude": 10.292349999999999,
        "longitude": 123.9049429
    },
    {
        "category": "historical sites",
        "title": "Temple of Leah",
        "rating": 4.2,
        "address": "9V9F+G8R, Cebu Transcentral Hwy, Cebu City, 6000 Cebu, Philippines",
        "latitude": 10.368872699999999,
        "longitude": 123.8732522
    },
    {
        "category": "historical sites",
        "title": "Manipis Cliff",
        "rating": 4.5,
        "address": "8RG5+FR2, Toledo - Manipis Rd, Cebu City, Cebu, Philippines",
        "latitude": 10.326145499999999,
        "longitude": 123.809505
    },
    {
        "category": "historical sites",
        "title": "Museo Sugbo",
        "rating": 4.3,
        "address": "731 M. J. Cuenco Ave, Cebu City, 6000 Cebu, Philippines",
        "latitude": 10.303791,
        "longitude": 123.90643109999999
    },
    {
        "category": "historical sites",
        "title": "Cebu Veterans Memorial",
        "rating": 4.7,
        "address": "Plaza Independencia, Cebu City, 6000 Cebu, Philippines",
        "latitude": 10.2922783,
        "longitude": 123.9046116
    },