[
    {
        "category": "tourist attractions",
        "title": "Leong San Tong Khoo Kongsi",
        "rating": 4.4,
        "address": "18, Cannon Square, Georgetown, 10450 George Town, Penang, Malaysia",
        "latitude": 5.4145737,
        "longitude": 100.33718999999999
    },
    {
        "category": "tourist attractions",
        "title": "Clan Jetties of Penang",
        "rating": 4.2,
        "address": "Pengkalan Weld, Georgetown, 10300 George Town, Penang, Malaysia",
        "latitude": 5.4128345,
        "longitude": 100.3396559
    },
    {
        "category": "tourist attractions",
        "title": "Entopia by Penang Butterfly Farm",
        "rating": 4.4,
        "address": "830, Jalan Teluk Bahang, Teluk Bahang, 11050 Tanjung Bungah, Penang, Malaysia",
        "latitude": 5.4476214999999995,
        "longitude": 100.2149943
    },
    {
        "category": "tourist attractions",
        "title": "Chew Jetty",
        "rating": 4.1,
        "address": "Georgetown, 10300 George Town, Penang, Malaysia",
        "latitude": 5.412717499999999,
        "longitude": 100.33977229999999
    },
    {
        "category": "tourist attractions",
        "title": "The TOP Penang, Theme Park Penang",
        "rating": 4.3,
        "address": "1, Jln Penang, 10000 George Town, Penang, Malaysia",
        "latitude": 5.4144543999999994,
        "longitude": 100.32954959999999
    },
    {
        "category": "tourist attractions",
        "title": "Batu Ferringhi Beach",
        "rating": 4.3,
        "address": "Jalan Batu Ferringhi Batu Ferringhi, 11100 George Town, Pulau Pinang, Malaysia",
        "latitude": 5.4734004,
        "longitude": 100.24605749999999
    },
    {
        "category": "tourist attractions",
        "title": "Fort Cornwallis",
        "rating": 3.5,
        "address": "4, Jalan Tun Syed Sheh Barakbah, Georgetown, 10200 George Town, Penang, Malaysia",
        "latitude": 5.4204143,
        "longitude": 100.34454889999999
    },
    {
        "category": "tourist attractions",
        "title": "Penang National Park",
        "rating": 4.2,
        "address": "Pejabat Taman Negara P. Pinang jalan Hassan Abbas, 11050 George Town, Penang, Malaysia",
        "latitude": 5.447142299999999,
        "longitude": 100.19399229999999
    },
    {
        "category": "tourist attractions",
        "title": "Tropical Spice Garden | Events Venue | Cooking Classes | Spice Store",
        "rating": 4.6,
        "address": "Lot 595 Mukim, 2, Jalan Teluk Bahang, Teluk Bahang, 11050 George Town, Pulau Pinang, Malaysia",
        "latitude": 5.4634881,
        "longitude": 100.22933979999999
    },
    {
        "category": "tourist attractions",
        "title": "Penang Little India",
        "rating": 4.3,
        "address": "59, Lebuh China, Georgetown, 10200 George Town, Penang, Malaysia",
        "latitude": 5.4162913,
        "longitude": 100.340406
    },
    {
        "category": "tourist attractions",
        "title": "Penang Street Art",
        "rating": 4.4,
        "address": "316, Beach St, Georgetown, 10300 George Town, Penang, Malaysia",
        "latitude": 5.4145962,
        "longitude": 100.3382558
    },
    {
        "category": "tourist attractions",
        "title": "The Habitat Penang Hill",
        "rating": 4.4,
        "address": "C7G9+69, Bukit Bendera, 11300 Bukit Bendera, Penang, Malaysia",
        "latitude": 5.4255625,
        "longitude": 100.26843749999999
    },
    {
        "category": "tourist attractions",
        "title": "Pinang Peranakan Mansion",
        "rating": 4.5,
        "address": "29, Church St, Georgetown, 10200 George Town, Penang, Malaysia",
        "latitude": 5.4178275,
        "longitude": 100.3412046
    },
    {
        "category": "tourist attractions",
        "title": "Botanical Gardens Penang",
        "rating": 4.5,
        "address": "Kompleks Pentadbiran,Bangunan Pavilion, Jalan Kebun Bunga, 10350 George Town, Pulau Pinang, Malaysia",
        "latitude": 5.4377324,
        "longitude": 100.2906982
    },
    {
        "category": "tourist attractions",
        "title": "Penang Bird Park",
        "rating": 4,
        "address": "Jalan Todak Seberang Jaya, 13700 Perai, Penang, Malaysia",
        "latitude": 5.394035,
        "longitude": 100.39475619999999
    },
    {
        "category": "tourist attractions",
        "title": "Kek Lok Si Temple",
        "rating": 4.4,
        "address": "86s, Jln Balik Pulau, 11500 Air Itam, Penang, Malaysia",
        "latitude": 5.3996413,
        "longitude": 100.27361259999999
    },
    {
        "category": "tourist attractions",
        "title": "Penang Snake Temple",
        "rating": 3.9,
        "address": "10, Jalan Sultan Azlan Shah, Bandar Bayan Baru, 11900 Bayan Lepas, Penang, Malaysia",
        "latitude": 5.3139425,
        "longitude": 100.2854153
    },
    {
        "category": "tourist attractions",
        "title": "Georgetown UNESCO Historic Site",
        "rating": 4.4,
        "address": "159, Chulia St, Georgetown, 10200 George Town, Penang, Malaysia",
        "latitude": 5.4170036999999995,
        "longitude": 100.3379775
    },
    {
        "category": "tourist attractions",
        "title": "Penang War Museum",
        "rating": 4.3,
        "address": "Jalan Batu Maung, 11960 Batu Maung, Penang, Malaysia",
        "latitude": 5.2813684,
        "longitude": 100.2888122
    },
    {
        "category": "tourist attractions",
        "title": "ESCAPE Penang",
        "rating": 4.6,
        "address": "828, Jalan Teluk Bahang, Teluk Bahang, 11050 Tanjung Bungah, Penang, Malaysia",
        "latitude": 5.4497405,
        "longitude": 100.214038
    },
    {
        "category": "parks",
        "title": "Penang National Park",
        "rating": 4.2,
        "address": "Pejabat Taman Negara P. Pinang jalan Hassan Abbas, 11050 George Town, Penang, Malaysia",
        "latitude": 5.447142299999999,
        "longitude": 100.19399229999999
    },
    {
        "category": "parks",
        "title": "Youth Park",
        "rating": 4.5,
        "address": "Persiaran Kuari, Pulau Tikus, 10450 George Town, Penang, Malaysia",
        "latitude": 5.4315891,
        "longitude": 100.2972906
    },
    {
        "category": "parks",
        "title": "Taman Bandar Pulau Pinang (formerly Taman Belia)",
        "rating": 4.4,
        "address": "Taman Belia, Pulau Tikus, 10450 George Town, Penang, Malaysia",
        "latitude": 5.430229,
        "longitude": 100.2976159
    },
    {
        "category": "parks",
        "title": "Penang Municipal Park",
        "rating": 4.5,
        "address": "Persiaran Kuari, 10450 George Town, Penang, Malaysia",
        "latitude": 5.4295917,
        "longitude": 100.29710539999999
    },
    {
        "category": "parks",
        "title": "Bukit Dumbar Park",
        "rating": 4.3,
        "address": "Jalan Jelutong, Bukit Dumbar, 11600 George Town, Penang, Malaysia",
        "latitude": 5.3827403,
        "longitude": 100.312393
    },
    {
        "category": "parks",
        "title": "Armenian Park",
        "rating": 4.4,
        "address": "95, Lbh Armenian, Georgetown, 10300 George Town, Penang, Malaysia",
        "latitude": 5.415397899999999,
        "longitude": 100.3359662
    },
    {
        "category": "parks",
        "title": "Penang Bird Park",
        "rating": 4,
        "address": "Jalan Todak Seberang Jaya, 13700 Perai, Penang, Malaysia",
        "latitude": 5.394035,
        "longitude": 100.39475619999999
    },
    {
        "category": "parks",
        "title": "Botanical Gardens Penang",
        "rating": 4.5,
        "address": "Kompleks Pentadbiran,Bangunan Pavilion, Jalan Kebun Bunga, 10350 George Town, Pulau Pinang, Malaysia",
        "latitude": 5.4377324,
        "longitude": 100.2906982
    },
    {
        "category": "parks",
        "title": "Bukit Mertajam Forest Park",
        "rating": 4.8,
        "address": "14000 Bukit Mertajam, Penang, Malaysia",
        "latitude": 5.355669799999999,
        "longitude": 100.4923249
    },
    {
        "category": "parks",
        "title": "ESCAPE Penang",
        "rating": 4.6,
        "address": "828, Jalan Teluk Bahang, Teluk Bahang, 11050 Tanjung Bungah, Penang, Malaysia",
        "latitude": 5.4497405,
        "longitude": 100.214038
    },
    {
        "category": "parks",
        "title": "The TOP Penang, Theme Park Penang",
        "rating": 4.3,
        "address": "1, Jln Penang, 10000 George Town, Penang, Malaysia",
        "latitude": 5.4144543999999994,
        "longitude": 100.32954959999999
    },
    {
        "category": "parks",
        "title": "Central Island Park Batu Kawan",
        "rating": 4.1,
        "address": "Persiaran Cassia Barat 8, 14110 Simpang Ampat, Penang, Malaysia",
        "latitude": 5.2349334999999995,
        "longitude": 100.43662359999999
    },
    {
        "category": "parks",
        "title": "Taman Rimba Teluk Bahang",
        "rating": 4.3,
        "address": "Lorong Rimba, Teluk Bahang, 11050 Tanjung Bungah, Penang, Malaysia",
        "latitude": 5.4465037,
        "longitude": 100.21525369999999
    },
    {
        "category": "parks",
        "title": "The Habitat Penang Hill",
        "rating": 4.4,
        "address": "C7G9+69, Bukit Bendera, 11300 Bukit Bendera, Penang, Malaysia",
        "latitude": 5.4255625,
        "longitude": 100.26843749999999
    },
    {
        "category": "parks",
        "title": "Straits Green Park By The Sea",
        "rating": 4.4,
        "address": "11200 Tanjung Tokong, Penang, Malaysia",
        "latitude": 5.4608169,
        "longitude": 100.30935869999999
    },
    {
        "category": "parks",
        "title": "Gurney Bay Park",
        "rating": 4.5,
        "address": "Gurney Dr, 10250 George Town, Penang, Malaysia",
        "latitude": 5.4326213999999995,
        "longitude": 100.3188222
    },
    {
        "category": "parks",
        "title": "Cherok Tokun Nature Park (National forest)",
        "rating": 4.4,
        "address": "Jalan Kolam, 14000 Bukit Mertajam, Penang, Malaysia",
        "latitude": 5.3578782,
        "longitude": 100.4930243
    },
    {
        "category": "parks",
        "title": "Sia Boey Urban Archaeological Park",
        "rating": 4.5,
        "address": "50, Jalan Dr Lim Chwee Leong, Georgetown, 10100 George Town, Penang, Malaysia",
        "latitude": 5.4128253,
        "longitude": 100.33340989999999
    },
    {
        "category": "parks",
        "title": "Peacock Eco Park Perai",
        "rating": 4.5,
        "address": "1038, Jalan Chain Ferry, Taman Kimsar, 13600 Perai, Penang, Malaysia",
        "latitude": 5.395427499999999,
        "longitude": 100.38868989999999
    },
    {
        "category": "parks",
        "title": "Bertam Souk & Water Park, Penang",
        "rating": 4.3,
        "address": "PMT 2200, Bertam Resort, Persiaran Bertam 8, 13200 Kepala Batas, Penang, Malaysia",
        "latitude": 5.5194524,
        "longitude": 100.4533259
    },
    {
        "category": "restaurants",
        "title": "Orinea Restaurant",
        "rating": 4.7,
        "address": "68-18-1, Sunrise Gurney, Gurney Dr, 10250 George Town, Penang, Malaysia",
        "latitude": 5.4325952,
        "longitude": 100.3166732
    },
    {
        "category": "restaurants",
        "title": "Tek Sen Restaurant",
        "rating": 4.5,
        "address": "18, Lebuh Carnarvon, Georgetown, 10100 George Town, Penang, Malaysia",
        "latitude": 5.417437,
        "longitude": 100.335962
    },
    {
        "category": "restaurants",
        "title": "Laksalicious",
        "rating": 4.5,
        "address": "117-117A, Jalan Hutton, Georgetown, 10050 George Town, Penang, Malaysia",
        "latitude": 5.4200843999999995,
        "longitude": 100.3300879
    },
    {
        "category": "restaurants",
        "title": "Indigo Restaurant • The Blue Mansion",
        "rating": 4.6,
        "address": "Cheong Fatt Tze Mansion, 14, Lebuh Leith, Georgetown, 10200 George Town, Penang, Malaysia",
        "latitude": 5.4214642,
        "longitude": 100.3348796
    },
    {
        "category": "restaurants",
        "title": "Firewood Penang",
        "rating": 4.9,
        "address": "15, Jln Masjid Kapitan Keling, Georgetown, 10200 George Town, Penang, Malaysia",
        "latitude": 5.418861499999999,
        "longitude": 100.3392873
    },
    {
        "category": "restaurants",
        "title": "The Loft - Love Lane",
        "rating": 4.5,
        "address": "57, Love Ln, Georgetown, 10200 George Town, Penang, Malaysia",
        "latitude": 5.4189576,
        "longitude": 100.33672469999999
    },
    {
        "category": "restaurants",
        "title": "Two Frenchies Cafe Bistro",
        "rating": 4.7,
        "address": "36, Lebuh Bishop, Georgetown, 10200 George Town, Penang, Malaysia",
        "latitude": 5.4185932,
        "longitude": 100.34179019999999
    },
    {
        "category": "restaurants",
        "title": "Me'nate Penang",
        "rating": 4.8,
        "address": "20, Jln Sultan Ahmad Shah, Georgetown, 10050 George Town, Penang, Malaysia",
        "latitude": 5.4226833999999995,
        "longitude": 100.3344588
    },
    {
        "category": "restaurants",
        "title": "Il Bacaro",
        "rating": 4.4,
        "address": "Campbell House, 106, Lebuh Campbell, Georgetown, 10200 George Town, Penang, Malaysia",
        "latitude": 5.4181722,
        "longitude": 100.33364999999999
    },
    {
        "category": "restaurants",
        "title": "DUAN @ George Town",
        "rating": 4.8,
        "address": "251, Lebuh Pantai, Georgetown, 10300 George Town, Penang, Malaysia",
        "latitude": 5.4133511,
        "longitude": 100.3372146
    },
    {
        "category": "restaurants",
        "title": "Lagenda House & Cafe",
        "rating": 4.6,
        "address": "2, Lebuh Carnarvon, Georgetown, 10100 George Town, Penang, Malaysia",
        "latitude": 5.4179854999999995,
        "longitude": 100.33615019999999
    },
    {
        "category": "restaurants",
        "title": "Restaurant au Jardin",
        "rating": 4.8,
        "address": "125, Jalan Timah, 10150 George Town, Penang, Malaysia",
        "latitude": 5.4120377,
        "longitude": 100.3275491
    },
    {
        "category": "restaurants",
        "title": "Bistro Tang",
        "rating": 4.7,
        "address": "82a, Lebuh Penang, Georgetown, 10200 George Town, Penang, Malaysia",
        "latitude": 5.4174204999999995,
        "longitude": 100.3401923
    },
    {
        "category": "restaurants",
        "title": "Bottega Penang",
        "rating": 4.5,
        "address": "76, Muntri St, Georgetown, 10200 George Town, Penang, Malaysia",
        "latitude": 5.4203364,
        "longitude": 100.334783
    },
    {
        "category": "restaurants",
        "title": "Halab Penang Arabic Restaurant",
        "rating": 4.6,
        "address": "381, Chulia St, Georgetown, 10200 George Town, Penang, Malaysia",
        "latitude": 5.4185491,
        "longitude": 100.3356634
    },
    {
        "category": "restaurants",
        "title": "Kebaya Dining Room",
        "rating": 4.4,
        "address": "14A, Lorong Stewart, Georgetown, 10200 George Town, Penang, Malaysia",
        "latitude": 5.419139599999999,
        "longitude": 100.3380281
    },
    {
        "category": "restaurants",
        "title": "Reggae Cafe Penang",
        "rating": 4.8,
        "address": "163, Lebuh Pantai, Georgetown, 10300 George Town, Penang, Malaysia",
        "latitude": 5.4146233,
        "longitude": 100.33858939999999
    },
    {
        "category": "restaurants",
        "title": "Jawi House Cafe Gallery",
        "rating": 4.5,
        "address": "85, Lbh Armenian, Georgetown, 10200 George Town, Penang, Malaysia",
        "latitude": 5.4156097999999995,
        "longitude": 100.3365879
    },
    {
        "category": "restaurants",
        "title": "Three Sixty Revolving Restaurant and Rooftop Bar",
        "rating": 4.5,
        "address": "25-A, Lebuh Farquhar, Georgetown, 10200 George Town, Penang, Malaysia",
        "latitude": 5.4218972,
        "longitude": 100.33596449999999
    },
    {
        "category": "restaurants",
        "title": "Emily's Steakhouse Penang",
        "rating": 4.5,
        "address": "89, Muntri St, Georgetown, 10200 George Town, Penang, Malaysia",
        "latitude": 5.420122999999999,
        "longitude": 100.33484519999999
    },
    {
        "category": "cafes",
        "title": "Reggae Cafe Penang",
        "rating": 4.8,
        "address": "163, Lebuh Pantai, Georgetown, 10300 George Town, Penang, Malaysia",
        "latitude": 5.4146233,
        "longitude": 100.33858939999999
    },
    {
        "category": "cafes",
        "title": "WHEELER'S",
        "rating": 4.6,
        "address": "67, Lorong Love, Georgetown, 10200 George Town, Penang, Malaysia",
        "latitude": 5.418730099999999,
        "longitude": 100.3365486
    },
    {
        "category": "cafes",
        "title": "The Alley, 5 Stewart Lane",
        "rating": 4.8,
        "address": "5, Stewart Ln, Georgetown, 10200 George Town, Penang, Malaysia",
        "latitude": 5.4185054,
        "longitude": 100.3384157
    },
    {
        "category": "cafes",
        "title": "Utoo Boho Cafe & Patisserie",
        "rating": 4.8,
        "address": "156, Victoria St, Georgetown, 10300 George Town, Penang, Malaysia",
        "latitude": 5.4134234,
        "longitude": 100.33878999999999
    },
    {
        "category": "cafes",
        "title": "The Mugshot Cafe",
        "rating": 4.4,
        "address": "302, Chulia St, Georgetown, 10200 George Town, Penang, Malaysia",
        "latitude": 5.4183084,
        "longitude": 100.33652889999999
    },
    {
        "category": "cafes",
        "title": "Space House Café",
        "rating": 4.9,
        "address": "26, Jalan Nagor, Georgetown, 10050 George Town, Penang, Malaysia",
        "latitude": 5.4214307999999996,
        "longitude": 100.3261163
    },
    {
        "category": "cafes",
        "title": "Emily Darling Cafe",
        "rating": 4.6,
        "address": "186, Jln Penang, Georgetown, 10000 George Town, Penang, Malaysia",
        "latitude": 5.419624499999999,
        "longitude": 100.3321406
    },
    {
        "category": "cafes",
        "title": "PINWHEEL RESTO CAFE",
        "rating": 4.8,
        "address": "461, Chulia St, Georgetown, 10200 George Town, Penang, Malaysia",
        "latitude": 5.4193991,
        "longitude": 100.3337818
    },
    {
        "category": "cafes",
        "title": "Mews Cafe",
        "rating": 4.4,
        "address": "77, Muntri St, Georgetown, 10200 George Town, Penang, Malaysia",
        "latitude": 5.4199338,
        "longitude": 100.3351201
    },
    {
        "category": "cafes",
        "title": "Kraffmen Cafe",
        "rating": 4.7,
        "address": "80, Jalan Zainul Abidin, 10400 George Town, Penang, Malaysia",
        "latitude": 5.4165867,
        "longitude": 100.3251116
    },
    {
        "category": "cafes",
        "title": "Unknown Café & Bistro Town Series",
        "rating": 4.7,
        "address": "35, Pahang Rd, 10400 George Town, Penang, Malaysia",
        "latitude": 5.4137534,
        "longitude": 100.3211649
    },
    {
        "category": "cafes",
        "title": "The Daily Dose Cafe Penang",
        "rating": 4.6,
        "address": "36, Stewart Ln, Georgetown, 10200 George Town, Penang, Malaysia",
        "latitude": 5.4193772,
        "longitude": 100.3374109
    },
    {
        "category": "cafes",
        "title": "Black Kettle",
        "rating": 4.2,
        "address": "105, Beach St, Georgetown, 10300 George Town, Penang, Malaysia",
        "latitude": 5.4154122,
        "longitude": 100.339716
    },
    {
        "category": "cafes",
        "title": "Constant Gardener Coffee",
        "rating": 4.5,
        "address": "Ground Floor, Penang Chinese Chamber Of Commerce Building, 9, Lebuh Light, George Town, 10200 George Town, Pulau Pinang, Malaysia",
        "latitude": 5.4201136,
        "longitude": 100.3418062
    },
    {
        "category": "cafes",
        "title": "Higher Ground",
        "rating": 4.3,
        "address": "19-19A, Lebuh Leith, Georgetown, 10200 George Town, Penang, Malaysia",
        "latitude": 5.4207034,
        "longitude": 100.3343417
    },
    {
        "category": "cafes",
        "title": "My Own Cafe",
        "rating": 4.7,
        "address": "2, Cannon St, Georgetown, 10200 George Town, Penang, Malaysia",
        "latitude": 5.415176,
        "longitude": 100.336781
    },
    {
        "category": "cafes",
        "title": "The Maker",
        "rating": 4.8,
        "address": "243, Beach St, Georgetown, 10300 George Town, Penang, Malaysia",
        "latitude": 5.4134199999999995,
        "longitude": 100.3373464
    },
    {
        "category": "cafes",
        "title": "Kopi Hutan",
        "rating": 4.8,
        "address": "Bukit Bendera, Penang, Malaysia",
        "latitude": 5.415720299999999,
        "longitude": 100.26025279999999
    },
    {
        "category": "cafes",
        "title": "Santorini Café",
        "rating": 4.5,
        "address": "94, Jalan Burma, 10050 George Town, Penang, Malaysia",
        "latitude": 5.4190444,
        "longitude": 100.32752389999999
    },
    {
        "category": "cafes",
        "title": "Kafka Coffee",
        "rating": 4.2,
        "address": "15, Kelawai Rd, Kampung Syed, 10250 George Town, Penang, Malaysia",
        "latitude": 5.4291355,
        "longitude": 100.3182384
    },
    {
        "category": "mountains",
        "title": "Penang Hill",
        "rating": 4.2,
        "address": "11500 Bukit Bendera, Penang, Malaysia",
        "latitude": 5.4084613,
        "longitude": 100.27733169999999
    },
    {
        "category": "mountains",
        "title": "Bukit Gambier",
        "rating": 4.4,
        "address": "11700 Gelugor, Penang, Malaysia",
        "latitude": 5.364999999999999,
        "longitude": 100.2983333
    },
    {
        "category": "mountains",
        "title": "Bukit Western",
        "rating": 4.7,
        "address": "11100, Penang, Malaysia",
        "latitude": 5.4333333,
        "longitude": 100.25
    },
    {
        "category": "mountains",
        "title": "Mount Pleasure",
        "rating": 3,
        "address": "11100 Batu Ferringhi, Penang, Malaysia",
        "latitude": 5.4747221999999995,
        "longitude": 100.2686111
    },
    {
        "category": "mountains",
        "title": "Bukit Papan",
        "rating": 4.6,
        "address": "11920, Penang, Malaysia",
        "latitude": 5.308611099999999,
        "longitude": 100.2419444
    },
    {
        "category": "mountains",
        "title": "Bukit Penara",
        "rating": 4,
        "address": "11000, Penang, Malaysia",
        "latitude": 5.415,
        "longitude": 100.2208333
    },
    {
        "category": "mountains",
        "title": "Bukit Tambun",
        "rating": null,
        "address": "Kampung Masjid, 14100 Simpang Ampat, Penang, Malaysia",
        "latitude": 5.279166699999999,
        "longitude": 100.42472219999999
    },
    {
        "category": "mountains",
        "title": "Mount Elvira",
        "rating": 5,
        "address": "11000, Penang, Malaysia",
        "latitude": 5.3863889,
        "longitude": 100.24333329999999
    },
    {
        "category": "mountains",
        "title": "Mount Olivia",
        "rating": 4,
        "address": "Tanjung Tokong, 10470 Tanjung Bungah, Penang, Malaysia",
        "latitude": 5.45,
        "longitude": 100.3
    },
    {
        "category": "mountains",
        "title": "Bukit Gedung",
        "rating": 4.1,
        "address": "11900 Bayan Lepas, Penang, Malaysia",
        "latitude": 5.313055599999999,
        "longitude": 100.27749999999999
    },
    {
        "category": "mountains",
        "title": "Bukit Laksamana",
        "rating": 4.5,
        "address": "Penang, Malaysia",
        "latitude": 5.4166666999999995,
        "longitude": 100.2333333
    },
    {
        "category": "mountains",
        "title": "Bukit Seraya",
        "rating": 4.4,
        "address": "14000, Penang, Malaysia",
        "latitude": 5.3638889,
        "longitude": 100.5072222
    },
    {
        "category": "mountains",
        "title": "Bukit Kerajae",
        "rating": 5,
        "address": "Penang, Malaysia",
        "latitude": 5.416388899999999,
        "longitude": 100.2611111
    },
    {
        "category": "mountains",
        "title": "Bukit Juru",
        "rating": 4.1,
        "address": "Penang, Malaysia",
        "latitude": 5.3263888999999995,
        "longitude": 100.4088889
    },
    {
        "category": "mountains",
        "title": "Bukit Telaga Batu",
        "rating": null,
        "address": "Penang, Malaysia",
        "latitude": 5.466666699999999,
        "longitude": 100.1833333
    },
    {
        "category": "mountains",
        "title": "Bukit Batu Feringgi",
        "rating": 3,
        "address": "11100, Penang, Malaysia",
        "latitude": 5.4536111,
        "longitude": 100.2627778
    },
    {
        "category": "mountains",
        "title": "Batu Itam",
        "rating": null,
        "address": "11000, Penang, Malaysia",
        "latitude": 5.3999999999999995,
        "longitude": 100.2333333
    },
    {
        "category": "mountains",
        "title": "Bukit Genting",
        "rating": 3,
        "address": "11000, Penang, Malaysia",
        "latitude": 5.3083333,
        "longitude": 100.2216667
    },
    {
        "category": "mountains",
        "title": "Bukit Champedak",
        "rating": null,
        "address": "11100, Penang, Malaysia",
        "latitude": 5.45,
        "longitude": 100.25
    },
    {
        "category": "mountains",
        "title": "Bukit Romania",
        "rating": 3,
        "address": "11600 Jelutong, Penang, Malaysia",
        "latitude": 5.3999999999999995,
        "longitude": 100.3
    },
    {
        "category": "waterfalls",
        "title": "Chin Farm Waterfall",
        "rating": 4,
        "address": "Feringgi Villas, 11050 Batu Ferringhi, Penang, Malaysia",
        "latitude": 5.4637261,
        "longitude": 100.2417359
    },
    {
        "category": "waterfalls",
        "title": "Batu Ferringhi Iron Waterfall",
        "rating": 3.7,
        "address": "11100 Batu Ferringhi, Penang, Malaysia",
        "latitude": 5.460166999999999,
        "longitude": 100.24199999999999
    },
    {
        "category": "waterfalls",
        "title": "Titi Kerawang Waterfalls",
        "rating": 4,
        "address": "42, Jalan Tanjung Bungah 11050 Tanjung Bungah, Jalan Tanjung Bungah, 11050 Tanjung Bungah, Penang, Malaysia",
        "latitude": 5.4031227,
        "longitude": 100.22240749999999
    },
    {
        "category": "waterfalls",
        "title": "Air Terjun Titi Kerawang",
        "rating": 3.7,
        "address": "11000, Penang, Malaysia",
        "latitude": 5.4038308,
        "longitude": 100.22327589999999
    },
    {
        "category": "waterfalls",
        "title": "Waterfall",
        "rating": 4.8,
        "address": "87F2+P5, Balik Pulau, Penang, Malaysia",
        "latitude": 5.3243697,
        "longitude": 100.2504135
    },
    {
        "category": "waterfalls",
        "title": "Hidden Waterfall @Changkat Tembaga",
        "rating": 4.4,
        "address": "91, Cangkat Tembaga, Taman Greenview, Jelutong, Penang, Malaysia",
        "latitude": 5.388259,
        "longitude": 100.2939997
    },
    {
        "category": "waterfalls",
        "title": "Air Terjun Titi Kerawang",
        "rating": 3.7,
        "address": "10, 6, 11050 Tanjung Bungah, Penang, Malaysia",
        "latitude": 5.403607,
        "longitude": 100.22359139999999
    },
    {
        "category": "waterfalls",
        "title": "Air Terjun Sungai Ara",
        "rating": 4.2,
        "address": "Unnamed Road, Penang, Malaysia",
        "latitude": 5.3225887,
        "longitude": 100.25424799999999
    },
    {
        "category": "waterfalls",
        "title": "Air Terjun Teruna Dara",
        "rating": 3.9,
        "address": "Unnamed Road, 11000 Balik Pulau, Penang, Malaysia",
        "latitude": 5.3874065,
        "longitude": 100.217625
    },
    {
        "category": "waterfalls",
        "title": "To' Janggut Waterfall",
        "rating": 3.6,
        "address": "14000 Bukit Mertajam, Penang, Malaysia",
        "latitude": 5.35466,
        "longitude": 100.50282999999999
    },
    {
        "category": "waterfalls",
        "title": "Air Terjun Bukit Teruna Dara Sungai Rusa",
        "rating": 4,
        "address": "11000 Balik Pulau, Penang, Malaysia",
        "latitude": 5.3892842,
        "longitude": 100.22087479999999
    },
    {
        "category": "waterfalls",
        "title": "218 Waterfall",
        "rating": 4.8,
        "address": "George Town, Penang, Malaysia",
        "latitude": 5.439532499999999,
        "longitude": 100.2813551
    },
    {
        "category": "waterfalls",
        "title": "Penang Waterfall Hill Temple (தண்ணீர் மலை கோயில்)",
        "rating": 4.7,
        "address": "25, Jalan Kebun Bunga, Pulau Tikus, 10350 George Town, Penang, Malaysia",
        "latitude": 5.4324297999999995,
        "longitude": 100.2935809
    },
    {
        "category": "waterfalls",
        "title": "Penang Hill Jeep Service Waterfall Cafe",
        "rating": 3.6,
        "address": "Jalan Kebun Bunga, 10470 George Town, Penang, Malaysia",
        "latitude": 5.4365412,
        "longitude": 100.2916442
    },
    {
        "category": "waterfalls",
        "title": "Devi River",
        "rating": 3.7,
        "address": "Lot 484 & 485, jalan batu ferringhi batu ferringhi, 11100 penang, Pulau Pinang, Malaysia",
        "latitude": 5.461197599999999,
        "longitude": 100.242626
    },
    {
        "category": "lakes",
        "title": "Meromictic Lake",
        "rating": 4.3,
        "address": "Penang, Malaysia",
        "latitude": 5.4524925,
        "longitude": 100.18520889999999
    },
    {
        "category": "lakes",
        "title": "Tasik Mengkuang",
        "rating": 4.2,
        "address": "Penang, Malaysia",
        "latitude": 5.3866667,
        "longitude": 100.50638889999999
    },
    {
        "category": "lakes",
        "title": "Telok Bahang Dam",
        "rating": 4.2,
        "address": "Penang, Malaysia",
        "latitude": 5.4392527,
        "longitude": 100.2137565
    },
    {
        "category": "lakes",
        "title": "Meromictic Lake Tasik Meromiktik",
        "rating": 4.4,
        "address": "Penang, Malaysia",
        "latitude": 5.4531477,
        "longitude": 100.1841491
    },
    {
        "category": "lakes",
        "title": "Guillemard Service Reservoir",
        "rating": 5,
        "address": "Tanjung Tokong, 10470 Tanjung Bungah, Penang, Malaysia",
        "latitude": 5.45,
        "longitude": 100.3
    },
    {
        "category": "lakes",
        "title": "Khai Lake",
        "rating": 4.3,
        "address": "Jalan Sungai Batu, 11000 Bayan Lepas, Penang, Malaysia",
        "latitude": 5.2793575,
        "longitude": 100.24237289999999
    },
    {
        "category": "lakes",
        "title": "Bukit Jambul Indah Lake",
        "rating": 4.3,
        "address": "Bayan Lepas, Penang, Malaysia",
        "latitude": 5.3455775,
        "longitude": 100.2753633
    },
    {
        "category": "lakes",
        "title": "West Lake Park Temple",
        "rating": 4.4,
        "address": "Jln Balik Pulau, Penang, Malaysia",
        "latitude": 5.3991373,
        "longitude": 100.2705216
    },
    {
        "category": "lakes",
        "title": "Hidden Lake Penang",
        "rating": 3,
        "address": "11000 Bayan Lepas, Penang, Malaysia",
        "latitude": 5.279278199999999,
        "longitude": 100.2417765
    },
    {
        "category": "beaches",
        "title": "Monkey Beach",
        "rating": 3.9,
        "address": "Jalan Hassan Abas, Teluk Bahang, 11050 Tanjung Bungah, Pulau Pinang, Malaysia",
        "latitude": 5.470703299999999,
        "longitude": 100.1878509
    },
    {
        "category": "beaches",
        "title": "Pantai Keracut",
        "rating": 4.5,
        "address": "Teluk Bahang, Tanjung Bungah, Penang, Malaysia",
        "latitude": 5.4508623,
        "longitude": 100.1827433
    },
    {
        "category": "beaches",
        "title": "Pantai Pasir Panjang (Long Sand Beach)",
        "rating": 4.4,
        "address": "Pulau Betong, 11000 Balik Pulau, Penang, Malaysia",
        "latitude": 5.299040499999999,
        "longitude": 100.1846266
    },
    {
        "category": "beaches",
        "title": "Tanjung Bungah Beach",
        "rating": 4.5,
        "address": "11200 Tanjung Bungah, Penang, Malaysia",
        "latitude": 5.4665305,
        "longitude": 100.2880114
    },
    {
        "category": "beaches",
        "title": "Pantai Kilat / Kilat Beach (viewing area)",
        "rating": 4.3,
        "address": "11050 George Town, Malaysia",
        "latitude": 5.4656082,
        "longitude": 100.2386484
    },
    {
        "category": "beaches",
        "title": "Teluk Bahang Beach",
        "rating": 4.3,
        "address": "SBLH 3592 Persisiran Pantai Hujung Batu, Jalan Teluk Bahang, Teluk Bahang, 11050, Penang, Malaysia",
        "latitude": 5.4613594999999995,
        "longitude": 100.21741329999999
    },
    {
        "category": "beaches",
        "title": "Tanjung Bungah Public Beach",
        "rating": 4.1,
        "address": "11200, Penang, Malaysia",
        "latitude": 5.467896199999999,
        "longitude": 100.288555
    },
    {
        "category": "beaches",
        "title": "Teluk Kampi",
        "rating": 4.6,
        "address": "Penang, Malaysia",
        "latitude": 5.4418467,
        "longitude": 100.1816774
    },
    {
        "category": "beaches",
        "title": "Pasir Panjang Beach",
        "rating": 4.4,
        "address": "11000, Penang, Malaysia",
        "latitude": 5.2998093,
        "longitude": 100.18462919999999
    },
    {
        "category": "beaches",
        "title": "Tanjung Tokong Public Beach",
        "rating": 4.3,
        "address": "Pantai, Tanjung Tokong, 10470 Tanjung Tokong, Penang, Malaysia",
        "latitude": 5.4616922,
        "longitude": 100.3094867
    },
    {
        "category": "beaches",
        "title": "Miami Beach - Pantai Miami",
        "rating": 4.2,
        "address": "25, Solok Batu Ferringgi, 11100 Batu Ferringhi, Penang, Malaysia",
        "latitude": 5.4779361,
        "longitude": 100.2680632
    },
    {
        "category": "beaches",
        "title": "Batu Ferringhi Beach",
        "rating": 4.3,
        "address": "Jalan Batu Ferringhi Batu Ferringhi, 11100 George Town, Pulau Pinang, Malaysia",
        "latitude": 5.4734004,
        "longitude": 100.24605749999999
    },
    {
        "category": "beaches",
        "title": "Pantai Beach",
        "rating": 4.2,
        "address": "11200 Tanjung Bungah, Penang, Malaysia",
        "latitude": 5.464828499999999,
        "longitude": 100.3012727
    },
    {
        "category": "beaches",
        "title": "Pantai Kerachut",
        "rating": 4.4,
        "address": "Penang, Malaysia",
        "latitude": 5.4497222,
        "longitude": 100.18249999999999
    },
    {
        "category": "beaches",
        "title": "Pantai Tanjung Asam ( Bayan Lepas, Pulau Pinang )",
        "rating": 4.2,
        "address": "Jalan Gertak Sanggul, Gertak Sanggul, 11910 Bayan Lepas, Pulau Pinang, Malaysia",
        "latitude": 5.281772999999999,
        "longitude": 100.2116362
    },
    {
        "category": "beaches",
        "title": "Tropical Public Beach",
        "rating": 4.5,
        "address": "Opposite Tropica Spice Garden, Jalan Tanjung Bungah, 11050, Penang, Malaysia",
        "latitude": 5.4639508999999995,
        "longitude": 100.2290725
    },
    {
        "category": "beaches",
        "title": "Batu Feringgi Beach (Viewing Area)",
        "rating": 4.4,
        "address": "11200 Tanjung Bungah, Penang, Malaysia",
        "latitude": 5.4750496,
        "longitude": 100.276679
    },
    {
        "category": "beaches",
        "title": "Tanjung Asam Beach",
        "rating": 4.4,
        "address": "11000, Penang, Malaysia",
        "latitude": 5.2817178,
        "longitude": 100.2115523
    },
    {
        "category": "beaches",
        "title": "Tanjung Bungah Seaside Beaches",
        "rating": 4.5,
        "address": "Feringgi Heights, Jalan Tanjung Bungah, 11200 Tanjung Bungah, Penang, Malaysia",
        "latitude": 5.4717823,
        "longitude": 100.2778115
    },
    {
        "category": "beaches",
        "title": "Pantai Batu Feringghi",
        "rating": 4.3,
        "address": "11050, Malaysia",
        "latitude": 5.472815199999999,
        "longitude": 100.2454614
    },
    {
        "category": "swimming pools",
        "title": "Setia SPICE Aquatic Centre",
        "rating": 4.5,
        "address": "SETIA SPICE AQUATIC CENTRE, Bayan Baru, 11900 Bayan Lepas, Penang, Malaysia",
        "latitude": 5.3282527,
        "longitude": 100.2799022
    },
    {
        "category": "swimming pools",
        "title": "Penang Swimming Club • PSC Tower Block",
        "rating": 4.3,
        "address": "Jalan Tanjung Bungah, 10470 Tanjung Bungah, Penang, Malaysia",
        "latitude": 5.4652237999999995,
        "longitude": 100.2944443
    },
    {
        "category": "swimming pools",
        "title": "Swimming Pools Youth Park",
        "rating": 4.5,
        "address": "George Town, Penang, Malaysia",
        "latitude": 5.4288837999999995,
        "longitude": 100.2960147
    },
    {
        "category": "swimming pools",
        "title": "Permata Sports Complex",
        "rating": 4,
        "address": "Desa Permata, 19, Lintang Paya Terubong 1, Paya Terubong, 11060 Air Itam, Penang, Malaysia",
        "latitude": 5.3916360999999995,
        "longitude": 100.27649
    },
    {
        "category": "swimming pools",
        "title": "Ria Apartment Swimming Pool",
        "rating": 4.3,
        "address": "2, Lebuh Benggali 1, Kampung Benggali, 12000 Butterworth, Penang, Malaysia",
        "latitude": 5.4092313999999995,
        "longitude": 100.37431459999999
    },
    {
        "category": "swimming pools",
        "title": "Penang Swimming Club - Main Building",
        "rating": 4.3,
        "address": "513, 6, Taman Tanjung Bunga, 10470 Tanjung Bungah, Penang, Malaysia",
        "latitude": 5.4651556,
        "longitude": 100.29649169999999
    },
    {
        "category": "swimming pools",
        "title": "Chinese Swimming Club",
        "rating": 4.1,
        "address": "562, Jalan Tanjung Bungah, 11200 Tanjung Bungah, Penang, Malaysia",
        "latitude": 5.4632973,
        "longitude": 100.3043594
    },
    {
        "category": "swimming pools",
        "title": "RNJ Swimming Academy（George Town）",
        "rating": 4.7,
        "address": "25, Jalan Jones, 10250 George Town, Penang, Malaysia",
        "latitude": 5.4307229,
        "longitude": 100.3151369
    },
    {
        "category": "swimming pools",
        "title": "RNJ Swimming Academy (Butterworth)",
        "rating": 4.9,
        "address": "48-G, Lorong Tanjung Aman 2, Taman Tanjung Indah, 12300 Butterworth, Penang, Malaysia",
        "latitude": 5.428411,
        "longitude": 100.3868025
    },
    {
        "category": "swimming pools",
        "title": "Kolam Renang USM",
        "rating": 4.5,
        "address": "Blok A10 Universiti Sains Malaysia, Jalan Sungai 2, 11800 Gelugor, Pulau Pinang, Malaysia",
        "latitude": 5.3583244,
        "longitude": 100.30756009999999
    },
    {
        "category": "swimming pools",
        "title": "MBPP Relau Sport Complex",
        "rating": 4.3,
        "address": "Lot 10986, Mukim 13 Jalan Paya Terubong berhampiran Persimpangan antara Lebuh Relau dengan, Lebuh Relau 4, 11900 Bayan Lepas, Pulau Pinang, Malaysia",
        "latitude": 5.342166,
        "longitude": 100.2715903
    },
    {
        "category": "swimming pools",
        "title": "Kelas Renang Bertam/Kepala Batas ( Swimming Centre)",
        "rating": 5,
        "address": "Jalan Bertam, Penang Golf Resort, 13200 Kepala Batas, Penang, Malaysia",
        "latitude": 5.5234697,
        "longitude": 100.4445152
    },
    {
        "category": "swimming pools",
        "title": "RNJ SWIMMING ACADEMY (Alma)",
        "rating": 4.9,
        "address": "No. 5, Tingkat Bawah, Medan Seri Impian 2, Pusat Perniagaan Seri Impian, 14000 Bukit Mertajam, Pulau Pinang, Malaysia",
        "latitude": 5.3170497,
        "longitude": 100.4759321
    },
    {
        "category": "swimming pools",
        "title": "WAHOO Swim School @ Setia SPICE Aquatic Centre",
        "rating": 4.6,
        "address": "No 108-A, SPICE Jalan Tun Dr Awang Bayan Lepas, 11900 George Town, Pulau Pinang, Malaysia",
        "latitude": 5.328206,
        "longitude": 100.279827
    },
    {
        "category": "swimming pools",
        "title": "ActiveSwim @ Relau Sports Complex",
        "rating": 4.9,
        "address": "Lot 10986, Mukim 13 Jalan Paya Terubong, Lebuh Relau 4, Relau, 11900 Bayan Lepas, Pulau Pinang, Malaysia",
        "latitude": 5.341653,
        "longitude": 100.27215729999999
    },
    {
        "category": "swimming pools",
        "title": "MBSP Swimming Pool",
        "rating": 4.3,
        "address": "2, Lebuh Benggali 1, Kampung Benggali, 12000 Butterworth, Penang, Malaysia",
        "latitude": 5.4092313999999995,
        "longitude": 100.37431459999999
    },
    {
        "category": "swimming pools",
        "title": "Penang Sports Club",
        "rating": 4.3,
        "address": "Jln. Utama, 10450 George Town, Penang, Malaysia",
        "latitude": 5.419351799999999,
        "longitude": 100.305452
    },
    {
        "category": "swimming pools",
        "title": "BlueChamp Swim Academy",
        "rating": 5,
        "address": "5, Lintang Teratai, Taman Teratai, 13400 Butterworth, Penang, Malaysia",
        "latitude": 5.4362033,
        "longitude": 100.3904517
    },
    {
        "category": "swimming pools",
        "title": "ActiveSwim @ USM",
        "rating": 5,
        "address": "Universiti Sains Malaysia, USM Swimming Pool, University of Science Malaysia Blok A10, Jalan Sungai Dua, 11800 Gelugor, Pulau Pinang, Malaysia",
        "latitude": 5.358322299999999,
        "longitude": 100.30752059999999
    },
    {
        "category": "swimming pools",
        "title": "Kompleks Sukan MBSP...",
        "rating": 4.1,
        "address": "1, Jalan Betek, Taman Sungai Rambai, 14000 Bukit Mertajam, Penang, Malaysia",
        "latitude": 5.3546784,
        "longitude": 100.44952289999999
    },
    {
        "category": "resorts",
        "title": "Shangri-La's Rasa Sayang Resort & Spa",
        "rating": 4.6,
        "address": "Jalan Batu Ferringhi, Kampung Tanjung Huma, 11100 Batu Ferringhi, Penang, Malaysia",
        "latitude": 5.478133499999999,
        "longitude": 100.2536076
    },
    {
        "category": "resorts",
        "title": "PARKROYAL Penang Resort",
        "rating": 4.5,
        "address": "PARKROYAL Penang Resort Batu Ferringhi Beach, 11100 Batu Ferringhi, Pulau Pinang, Malaysia",
        "latitude": 5.4722851,
        "longitude": 100.2461974
    },
    {
        "category": "resorts",
        "title": "Shangri-La Golden Sands, Penang",
        "rating": 4.2,
        "address": "Jalan Batu Ferringhi, Kampung Tanjung Huma, 11100 Batu Ferringhi, Penang, Malaysia",
        "latitude": 5.4763041,
        "longitude": 100.2511543
    },
    {
        "category": "resorts",
        "title": "DoubleTree Resort by Hilton Penang",
        "rating": 4.3,
        "address": "56, Jalan Low Yat, Puncak Ria, 11100 Batu Ferringhi, Penang, Malaysia",
        "latitude": 5.4775016999999995,
        "longitude": 100.26947279999999
    },
    {
        "category": "resorts",
        "title": "Lexis Suites Penang",
        "rating": 4.4,
        "address": "28, Jalan Teluk Kumbar, 11920 Bayan Lepas, Penang, Malaysia",
        "latitude": 5.2871562999999995,
        "longitude": 100.23292479999999
    },
    {
        "category": "resorts",
        "title": "Bayview Beach Resort",
        "rating": 4.2,
        "address": "Batu Ferringhi Beach, 11100 Batu Ferringhi, Pulau Pinang, Malaysia",
        "latitude": 5.4661117,
        "longitude": 100.2411412
    },
    {
        "category": "resorts",
        "title": "Angsana Teluk Bahang Penang",
        "rating": 4.5,
        "address": "11, Jalan Teluk Bahang, Teluk Bahang, 11050 Tanjung Bungah, Penang, Malaysia",
        "latitude": 5.4615865,
        "longitude": 100.219383
    },
    {
        "category": "resorts",
        "title": "Rainbow Paradise Beach Resort",
        "rating": 3.8,
        "address": "527, Jalan Tanjung Bungah, Tanjung Tokong, 11200 Tanjung Bungah, Penang, Malaysia",
        "latitude": 5.4667721,
        "longitude": 100.28922299999999
    },
    {
        "category": "resorts",
        "title": "Hotel Mercure Penang Beach",
        "rating": 4,
        "address": "505, Jalan Tanjung Bungah, 11200 Tanjung Bungah, Penang, Malaysia",
        "latitude": 5.4637088,
        "longitude": 100.301801
    },
    {
        "category": "resorts",
        "title": "Lost Paradise Resort",
        "rating": 4.3,
        "address": "260, Jalan Batu Ferringhi, 11100 Tanjung Bungah, Penang, Malaysia",
        "latitude": 5.4724745,
        "longitude": 100.2774132
    },
    {
        "category": "resorts",
        "title": "Flamingo Hotel By The Beach,Penang",
        "rating": 3.8,
        "address": "Jalan Tanjung Bunga, 11200 Tanjung Bungah, Penang, Malaysia",
        "latitude": 5.4666860999999995,
        "longitude": 100.28868469999999
    },
    {
        "category": "resorts",
        "title": "Bertam Resort & Water Park Penang",
        "rating": 4.3,
        "address": "PMT 2200, Persiaran Bertam 8, 13200 Kepala Batas, Penang, Malaysia",
        "latitude": 5.520429399999999,
        "longitude": 100.4529233
    },
    {
        "category": "resorts",
        "title": "Hompton by the Beach Penang",
        "rating": 4.6,
        "address": "533, Jalan C M Hashim, Tanjung Tokong, 11200 Tanjung Bungah, Penang, Malaysia",
        "latitude": 5.4635364,
        "longitude": 100.3051766
    },
    {
        "category": "resorts",
        "title": "Hard Rock Hotel Penang",
        "rating": 4.5,
        "address": "Batu Ferringhi Beach, 11100 Batu Ferringghi, Pulau Pinang, Malaysia",
        "latitude": 5.4676941999999995,
        "longitude": 100.24155569999999
    },
    {
        "category": "resorts",
        "title": "Lone Pine, Penang, A Tribute Portfolio Resort",
        "rating": 4.1,
        "address": "97, Jalan Batu Ferringhi, 11100 Batu Ferringhi, Penang, Malaysia",
        "latitude": 5.4762606,
        "longitude": 100.2501211
    },
    {
        "category": "resorts",
        "title": "The Prestige Hotel Penang",
        "rating": 4.6,
        "address": "8, Gat Lebuh Gereja, Georgetown, 10300 George Town, Penang, Malaysia",
        "latitude": 5.4163622,
        "longitude": 100.3428866
    },
    {
        "category": "resorts",
        "title": "Hotel Sentral Seaview, Penang",
        "rating": 3.4,
        "address": "No.555, Jalan C M Hashim, Tanjung Tokong, 11200 Tanjung Tokong, Penang, Malaysia",
        "latitude": 5.4636979,
        "longitude": 100.3054611
    },
    {
        "category": "resorts",
        "title": "Leisure Cove Hotel & Apartments",
        "rating": 3.6,
        "address": "563, Jalan Wee Hein Tze, 11200 Tanjung Bungah, Penang, Malaysia",
        "latitude": 5.4661132,
        "longitude": 100.2828459
    },
    {
        "category": "resorts",
        "title": "Royale Chulan Penang",
        "rating": 4,
        "address": "No 1 & 2, Pengkalan Weld, Georgetown, 10300 George Town, Penang, Malaysia",
        "latitude": 5.4168989,
        "longitude": 100.34395649999999
    },
    {
        "category": "resorts",
        "title": "Nature Fruit Farm - Farmstay",
        "rating": 4.3,
        "address": "311 mk 7, Kampung Genting, 11000 Balik Pulau, Penang, Malaysia",
        "latitude": 5.3177752,
        "longitude": 100.22183419999999
    },
    {
        "category": "camping sites",
        "title": "Black Pearl Campsite",
        "rating": 4.4,
        "address": "Monkey Beach, Teluk Bahang, 11050 Tanjung Bungah, Penang, Malaysia",
        "latitude": 5.4702334,
        "longitude": 100.19094079999999
    },
    {
        "category": "camping sites",
        "title": "Penang Mini Campsite",
        "rating": 4.4,
        "address": "77CM+54, Jalan Teluk Tempoyak Batu Maung, 11950 Bayan Lepas, Penang, Malaysia",
        "latitude": 5.2705022999999995,
        "longitude": 100.2825125
    },
    {
        "category": "camping sites",
        "title": "Fortress Hill Recreational",
        "rating": 5,
        "address": "PTN 1055-Y, Jln Paya Terubung, Paya Terubong, 11060, Malaysia",
        "latitude": 5.3739731,
        "longitude": 100.27777599999999
    },
    {
        "category": "hiking trails",
        "title": "Bukit Jambul Hiking Trail Entrance",
        "rating": 4.6,
        "address": "Lintang Bukit Jambul 1, Bj Cove, 11900 Bayan Lepas, Penang, Malaysia",
        "latitude": 5.3428739,
        "longitude": 100.28201609999999
    },
    {
        "category": "hiking trails",
        "title": "Penang Hill Hike",
        "rating": 4.6,
        "address": "11500 Air Itam, Penang, Malaysia",
        "latitude": 5.4062563,
        "longitude": 100.2765932
    },
    {
        "category": "hiking trails",
        "title": "Nan Shan Hiking Trail",
        "rating": 4.5,
        "address": "Unnamed Road, Penang, Malaysia",
        "latitude": 5.371711299999999,
        "longitude": 100.26270029999999
    },
    {
        "category": "hiking trails",
        "title": "Moon Gate Station 5",
        "rating": 4.6,
        "address": "Unnamed Road, George Town, Penang, Malaysia",
        "latitude": 5.4288929999999995,
        "longitude": 100.289355
    },
    {
        "category": "hiking trails",
        "title": "Freedom Hill Trailhead",
        "rating": 4.7,
        "address": "47, Jalan Sungai Emas 3, Kawasan Perumahan Sungai Emas, 11100 Air Itam, Penang, Malaysia",
        "latitude": 5.4742009,
        "longitude": 100.2578039
    },
    {
        "category": "hiking trails",
        "title": "Penang Hill Heritage Trail",
        "rating": 4.4,
        "address": "478, Jalan Pokok Ceri, 11500 Air Itam, Penang, Malaysia",
        "latitude": 5.4105491,
        "longitude": 100.2761003
    },
    {
        "category": "hiking trails",
        "title": "Moongate Trail Botanic Garden",
        "rating": 4.9,
        "address": "10470 Jelutong, Penang, Malaysia",
        "latitude": 5.4308361,
        "longitude": 100.2964562
    },
    {
        "category": "hiking trails",
        "title": "Hiking Area@Bukit Bendera",
        "rating": 4.7,
        "address": "Unnamed Road, Bukit Bendera, Penang, Malaysia",
        "latitude": 5.4134243,
        "longitude": 100.270232
    },
    {
        "category": "hiking trails",
        "title": "Climbing Area Bukit Jambul",
        "rating": 4.4,
        "address": "Lintang Bukit Jambul 1, Bukit Jambul Indah, 11900 Bayan Lepas, Penang, Malaysia",
        "latitude": 5.3428211999999995,
        "longitude": 100.28199339999999
    },
    {
        "category": "hiking trails",
        "title": "Bukit Mertajam Forest Park",
        "rating": 4.8,
        "address": "14000 Bukit Mertajam, Penang, Malaysia",
        "latitude": 5.355669799999999,
        "longitude": 100.4923249
    },
    {
        "category": "hiking trails",
        "title": "Taman Rimba Teluk Bahang",
        "rating": 4.3,
        "address": "Lorong Rimba, Teluk Bahang, 11050 Tanjung Bungah, Penang, Malaysia",
        "latitude": 5.4465037,
        "longitude": 100.21525369999999
    },
    {
        "category": "hiking trails",
        "title": "Penang Hill Trail",
        "rating": 4.4,
        "address": "11500 Bukit Bendera, Penang, Malaysia",
        "latitude": 5.4087378,
        "longitude": 100.2709367
    },
    {
        "category": "hiking trails",
        "title": "Hiking Area @ Penang National Park (Kawasan Hiking @ Taman Negara Pulau Pinang)",
        "rating": 3,
        "address": "Jalan Hassan Abas, 11050, Penang, Malaysia",
        "latitude": 5.46104,
        "longitude": 100.2052509
    },
    {
        "category": "hiking trails",
        "title": "Penang Hill Bat Cave Trail",
        "rating": 4.8,
        "address": "Bukit Bendera, Penang, Malaysia",
        "latitude": 5.417566,
        "longitude": 100.2743472
    },
    {
        "category": "hiking trails",
        "title": "Esen Hill",
        "rating": 4.5,
        "address": "Batu Maung, Penang, Malaysia",
        "latitude": 5.2647997,
        "longitude": 100.27288539999999
    },
    {
        "category": "hiking trails",
        "title": "Bukit Hijau",
        "rating": 4.5,
        "address": "George Town, Penang, Malaysia",
        "latitude": 5.3892581,
        "longitude": 100.29168829999999
    },
    {
        "category": "hiking trails",
        "title": "Station 46",
        "rating": 4.4,
        "address": "George Town, Penang, Malaysia",
        "latitude": 5.4387731,
        "longitude": 100.28191629999999
    },
    {
        "category": "hiking trails",
        "title": "Bukit Rimbah Peak 335m",
        "rating": 4.7,
        "address": "Penang, Malaysia",
        "latitude": 5.350896199999999,
        "longitude": 100.28301809999999
    },
    {
        "category": "hiking trails",
        "title": "Cherok Tokun Nature Park (National forest)",
        "rating": 4.4,
        "address": "Jalan Kolam, 14000 Bukit Mertajam, Penang, Malaysia",
        "latitude": 5.3578782,
        "longitude": 100.4930243
    },
    {
        "category": "hiking trails",
        "title": "Astro Rock",
        "rating": 4.8,
        "address": "George Town, Penang, Malaysia",
        "latitude": 5.4217504,
        "longitude": 100.2921188
    },
    {
        "category": "ecotourism areas",
        "title": "The Habitat Penang Hill",
        "rating": 4.4,
        "address": "C7G9+69, Bukit Bendera, 11300 Bukit Bendera, Penang, Malaysia",
        "latitude": 5.4255625,
        "longitude": 100.26843749999999
    },
    {
        "category": "ecotourism areas",
        "title": "Entopia by Penang Butterfly Farm",
        "rating": 4.4,
        "address": "830, Jalan Teluk Bahang, Teluk Bahang, 11050 Tanjung Bungah, Penang, Malaysia",
        "latitude": 5.4476214999999995,
        "longitude": 100.2149943
    },
    {
        "category": "ecotourism areas",
        "title": "Tropical Spice Garden | Events Venue | Cooking Classes | Spice Store",
        "rating": 4.6,
        "address": "Lot 595 Mukim, 2, Jalan Teluk Bahang, Teluk Bahang, 11050 George Town, Pulau Pinang, Malaysia",
        "latitude": 5.4634881,
        "longitude": 100.22933979999999
    },
    {
        "category": "ecotourism areas",
        "title": "Air Hitam Dalam Educational Forest",
        "rating": 3.9,
        "address": "13310 Air Hitam, Penang, Malaysia",
        "latitude": 5.4550563,
        "longitude": 100.4526228
    },
    {
        "category": "ecotourism areas",
        "title": "Curtis Crest Treetop Walk",
        "rating": 4.6,
        "address": "Bukit Bendera, Penang, Malaysia",
        "latitude": 5.422907899999999,
        "longitude": 100.2657222
    },
    {
        "category": "ecotourism areas",
        "title": "Frog Hill",
        "rating": 4.3,
        "address": "Unnamed Road 14400, Kubang Semang, Penang, Malaysia",
        "latitude": 5.4368416999999996,
        "longitude": 100.4849426
    },
    {
        "category": "ecotourism areas",
        "title": "Langur Way Canopy Walk",
        "rating": 4.6,
        "address": "Jalan Bukit Bendera, Bukit Bendera, 11500 Air Itam, Penang, Malaysia",
        "latitude": 5.4238338,
        "longitude": 100.26606579999999
    },
    {
        "category": "ecotourism areas",
        "title": "Penang National Park",
        "rating": 4.2,
        "address": "Pejabat Taman Negara P. Pinang jalan Hassan Abbas, 11050 George Town, Penang, Malaysia",
        "latitude": 5.447142299999999,
        "longitude": 100.19399229999999
    },
    {
        "category": "ecotourism areas",
        "title": "Teluk Bahang Forest",
        "rating": 4.4,
        "address": "C6W8+HW, Teluk Bahang, 11050 Tanjung Bungah, Penang, Malaysia",
        "latitude": 5.4464026,
        "longitude": 100.2173452
    },
    {
        "category": "ecotourism areas",
        "title": "Teluk Kampi",
        "rating": 4.6,
        "address": "Penang, Malaysia",
        "latitude": 5.4418467,
        "longitude": 100.1816774
    },
    {
        "category": "ecotourism areas",
        "title": "National Parks Office",
        "rating": 4.2,
        "address": "Jalan Hassan Abas, 11050 Tanjung Bungah, Penang, Malaysia",
        "latitude": 5.4602202,
        "longitude": 100.2061691
    },
    {
        "category": "ecotourism areas",
        "title": "Frog Hills Tasek Gelugor",
        "rating": 4.5,
        "address": "14400 Tasek Gelugor, Penang, Malaysia",
        "latitude": 5.4356186,
        "longitude": 100.4852499
    },
    {
        "category": "ecotourism areas",
        "title": "Bukit Mertajam Forest Park",
        "rating": 4.8,
        "address": "14000 Bukit Mertajam, Penang, Malaysia",
        "latitude": 5.355669799999999,
        "longitude": 100.4923249
    },
    {
        "category": "ecotourism areas",
        "title": "Balik Pulau Paddy Field",
        "rating": 4.6,
        "address": "Kampung Terang, 11000 Balik Pulau, Penang, Malaysia",
        "latitude": 5.322075,
        "longitude": 100.20792089999999
    },
    {
        "category": "ecotourism areas",
        "title": "Forest Eco Park",
        "rating": 4,
        "address": "11050, Malaysia, Penang, Tanjung Bungah, Teluk Bahang, Lorong Rimba",
        "latitude": 5.446575,
        "longitude": 100.2160806
    },
    {
        "category": "ecotourism areas",
        "title": "Batu Ferringhi Beach",
        "rating": 4.3,
        "address": "Jalan Batu Ferringhi Batu Ferringhi, 11100 George Town, Pulau Pinang, Malaysia",
        "latitude": 5.4734004,
        "longitude": 100.24605749999999
    },
    {
        "category": "ecotourism areas",
        "title": "The TOP Penang, Theme Park Penang",
        "rating": 4.3,
        "address": "1, Jln Penang, 10000 George Town, Penang, Malaysia",
        "latitude": 5.4144543999999994,
        "longitude": 100.32954959999999
    },
    {
        "category": "ecotourism areas",
        "title": "Monkey Cup Garden (Taman pokok peria kera/கெண்டி பூங்கா)",
        "rating": 4.2,
        "address": "Monkey Cup Garden, Jalan Tunku Yahaya Petra, 10000 Bukit Bendera, Penang, Malaysia",
        "latitude": 5.415568599999999,
        "longitude": 100.2597672
    },
    {
        "category": "ecotourism areas",
        "title": "Eco Capsule Resort, Teluk Bahang, Penang",
        "rating": 4.1,
        "address": "Lorong Rimba, off, Jalan Teluk Bahang, Teluk Bahang, 11050, Pulau Pinang, Malaysia",
        "latitude": 5.4468743,
        "longitude": 100.21665229999999
    },
    {
        "category": "ecotourism areas",
        "title": "Nature Walks",
        "rating": 5,
        "address": "Jalan Bukit Bendera, 10350 Bukit Bendera, Penang, Malaysia",
        "latitude": 5.407119799999999,
        "longitude": 100.2790883
    },
    {
        "category": "temples",
        "title": "Kek Lok Si Temple",
        "rating": 4.4,
        "address": "86s, Jln Balik Pulau, 11500 Air Itam, Penang, Malaysia",
        "latitude": 5.3996413,
        "longitude": 100.27361259999999
    },
    {
        "category": "temples",
        "title": "Penang Snake Temple",
        "rating": 3.9,
        "address": "10, Jalan Sultan Azlan Shah, Bandar Bayan Baru, 11900 Bayan Lepas, Penang, Malaysia",
        "latitude": 5.3139425,
        "longitude": 100.2854153
    },
    {
        "category": "temples",
        "title": "Dhammikarama Burmese Temple",
        "rating": 4.6,
        "address": "10250, Lorong Burma, Georgetown, 10350 George Town, Penang, Malaysia",
        "latitude": 5.431392799999999,
        "longitude": 100.31399599999999
    },
    {
        "category": "temples",
        "title": "Wat Chayamangkalaram",
        "rating": null,
        "address": "10350 George Town, Penang, Malaysia",
        "latitude": 5.4316735,
        "longitude": 100.3138109
    },
    {
        "category": "temples",
        "title": "Leong San Tong Khoo Kongsi",
        "rating": 4.4,
        "address": "18, Cannon Square, Georgetown, 10450 George Town, Penang, Malaysia",
        "latitude": 5.4145737,
        "longitude": 100.33718999999999
    },
    {
        "category": "museums",
        "title": "Pinang Peranakan Mansion",
        "rating": 4.5,
        "address": "29, Church St, Georgetown, 10200 George Town, Penang, Malaysia",
        "latitude": 5.4178275,
        "longitude": 100.3412046
    },
    {
        "category": "museums",
        "title": "Leong San Tong Khoo Kongsi",
        "rating": 4.4,
        "address": "18, Cannon Square, Georgetown, 10450 George Town, Penang, Malaysia",
        "latitude": 5.4145737,
        "longitude": 100.33718999999999
    },
    {
        "category": "museums",
        "title": "Asia Camera Museum",
        "rating": 4.6,
        "address": "1st Floor, 71, Lbh Armenian, Georgetown, 10200 George Town, Penang, Malaysia",
        "latitude": 5.4154278,
        "longitude": 100.3368096
    },
    {
        "category": "museums",
        "title": "Wonderfood Museum",
        "rating": 4.6,
        "address": "49, Lebuh Pantai, Georgetown, 10200 George Town, Penang, Malaysia",
        "latitude": 5.4163117,
        "longitude": 100.34118459999999
    },
    {
        "category": "museums",
        "title": "Penang 3D Trick Art Museum",
        "rating": 4.3,
        "address": "10, Lebuh Penang, Georgetown, 10200 George Town, Penang, Malaysia",
        "latitude": 5.4198087,
        "longitude": 100.34170209999999
    },
    {
        "category": "museums",
        "title": "Glass Museum Penang",
        "rating": 4.3,
        "address": "6, Wisma Cheok Holdings, Jalan Burma, George Town, 10050 George Town, Pulau Pinang, Malaysia",
        "latitude": 5.4175289,
        "longitude": 100.32955109999999
    },
    {
        "category": "museums",
        "title": "Upside Down Museum",
        "rating": 4.2,
        "address": "45, Lebuh Kimberley, Georgetown, 10100 George Town, Penang, Malaysia",
        "latitude": 5.4158045999999995,
        "longitude": 100.33352959999999
    },
    {
        "category": "museums",
        "title": "Ghost Museum",
        "rating": 4.5,
        "address": "57, Lebuh Melayu, Georgetown, 10100 George Town, Penang, Malaysia",
        "latitude": 5.4137354,
        "longitude": 100.3348618
    },
    {
        "category": "museums",
        "title": "Penang Straits Oriental Museum 博物馆",
        "rating": 4.9,
        "address": "20, Stewart Ln, Georgetown, 10200 George Town, Penang, Malaysia",
        "latitude": 5.4191609,
        "longitude": 100.33789569999999
    },
    {
        "category": "museums",
        "title": "Batik Painting Museum Penang",
        "rating": 4.5,
        "address": "19, Lbh Armenian, Georgetown, 10200 George Town, Penang, Malaysia",
        "latitude": 5.4147682999999995,
        "longitude": 100.33794429999999
    },
    {
        "category": "museums",
        "title": "Indian Heritage Museum Penang (இந்திய பாரம்பரிய அருங்காட்சியகம் பினாங்கு)",
        "rating": 4.9,
        "address": "221, Jln Macalister, 10450 George Town, Penang, Malaysia",
        "latitude": 5.4217517,
        "longitude": 100.3046593
    },
    {
        "category": "museums",
        "title": "Tech Dome Penang",
        "rating": 4.4,
        "address": "Level 4 & 5, KOMTAR, Geodesic Dome, Jln Penang, 10000 George Town, Penang, Malaysia",
        "latitude": 5.414144299999999,
        "longitude": 100.3304141
    },
    {
        "category": "museums",
        "title": "Georgetown Mansion",
        "rating": 4.8,
        "address": "23, Lebuh Clarke, Georgetown, 10050 George Town, Penang, Malaysia",
        "latitude": 5.420181599999999,
        "longitude": 100.3314011
    },
    {
        "category": "museums",
        "title": "P. Ramlee House",
        "rating": 4.5,
        "address": "Lot 2180, Jalan P. Ramlee, Taman P. Ramlee, 10460 George Town, Penang, Malaysia",
        "latitude": 5.4098850999999994,
        "longitude": 100.3138274
    },
    {
        "category": "museums",
        "title": "PG Gold Museum",
        "rating": 3.9,
        "address": "95, Lebuh Bishop, Georgetown, 10200 George Town, Penang, Malaysia",
        "latitude": 5.419636199999999,
        "longitude": 100.33987479999999
    },
    {
        "category": "museums",
        "title": "Teddyville Museum Penang",
        "rating": 4.4,
        "address": "56, Jalan Low Yat, Puncak Ria, 11100 Batu Ferringhi, Penang, Malaysia",
        "latitude": 5.477475399999999,
        "longitude": 100.2693621
    },
    {
        "category": "museums",
        "title": "The TOP Penang, Theme Park Penang",
        "rating": 4.3,
        "address": "1, Jln Penang, 10000 George Town, Penang, Malaysia",
        "latitude": 5.4144543999999994,
        "longitude": 100.32954959999999
    },
    {
        "category": "museums",
        "title": "Penang War Museum",
        "rating": 4.3,
        "address": "Jalan Batu Maung, 11960 Batu Maung, Penang, Malaysia",
        "latitude": 5.2813684,
        "longitude": 100.2888122
    },
    {
        "category": "museums",
        "title": "The museum in Penang",
        "rating": 4.8,
        "address": "3D Trick Art Museum, George Town, Pulau Pinang, Malaysia",
        "latitude": 5.419814,
        "longitude": 100.341696
    },
    {
        "category": "museums",
        "title": "Sun Yat Sen Museum Penang",
        "rating": 4.5,
        "address": "120, Lbh Armenian, Georgetown, 10200 George Town, Penang, Malaysia",
        "latitude": 5.4157093,
        "longitude": 100.3362209
    },
    {
        "category": "night markets",
        "title": "Kimberley Street Food Night Market",
        "rating": 4,
        "address": "1, Jalan Sungai Ujong, Georgetown, 10100 George Town, Penang, Malaysia",
        "latitude": 5.4163993,
        "longitude": 100.33268179999999
    },
    {
        "category": "night markets",
        "title": "Macallum Street Night Market",
        "rating": 4,
        "address": "Lintang Macallum 1, Pengkalan Weld, 10300 George Town, Penang, Malaysia",
        "latitude": 5.4057653,
        "longitude": 100.3348568
    },
    {
        "category": "night markets",
        "title": "Pasar Malam Batu Feringghi",
        "rating": 3.8,
        "address": "Jalan Pantai Batu, Taman Pantai Batu, 11200 Tanjong Bungah, Penang, Malaysia",
        "latitude": 5.4742717999999995,
        "longitude": 100.2482593
    },
    {
        "category": "night markets",
        "title": "Night Market on Friday (Pasar Malam Van Praagh)",
        "rating": 4.2,
        "address": "52, Jalan Van Praagh, Taman Continental, 11600 George Town, Penang, Malaysia",
        "latitude": 5.3967941,
        "longitude": 100.31376019999999
    },
    {
        "category": "night markets",
        "title": "Farlim Wednesday Night Market",
        "rating": 4,
        "address": "27-75, Medan Angsana, Bandar Baru Ayer Itam, 11500 Ayer Itam, Pulau Pinang, Malaysia",
        "latitude": 5.3897564,
        "longitude": 100.2828689
    },
    {
        "category": "night markets",
        "title": "Friday Night Market",
        "rating": 4.2,
        "address": "Persiaran Bayan, Sungai Ara, 11900 Bayan Lepas, Penang, Malaysia",
        "latitude": 5.3241095,
        "longitude": 100.2736888
    },
    {
        "category": "night markets",
        "title": "JELUTONG STREET MARKET",
        "rating": 4.1,
        "address": "94, Lrg Batu, Taman Jelutong, 11600 George Town, Penang, Malaysia",
        "latitude": 5.3897376,
        "longitude": 100.312305
    },
    {
        "category": "night markets",
        "title": "Sungai Dua Night Market",
        "rating": 4,
        "address": "1, Jalan Sungai Dua, Sungai Dua, 13800 Gelugor, Penang, Malaysia",
        "latitude": 5.3502776999999995,
        "longitude": 100.2976887
    },
    {
        "category": "night markets",
        "title": "Tanjung Bungah Night Market • Tuesday",
        "rating": 4.1,
        "address": "Jalan Sungai Kelian, Taman Tanjung Bunga, 11200 Tanjung Bungah, Penang, Malaysia",
        "latitude": 5.464410099999999,
        "longitude": 100.2845942
    },
    {
        "category": "night markets",
        "title": "Wednesday Night Market",
        "rating": 4.2,
        "address": "39, Jln Pantai Jerjak 15, Taman Pantai Jerjak, 11700 Gelugor, Penang, Malaysia",
        "latitude": 5.3407257999999995,
        "longitude": 100.30296969999999
    },
    {
        "category": "night markets",
        "title": "Market Street",
        "rating": 4.6,
        "address": "52, Lebuh Pasar, Georgetown, 10200 George Town, Penang, Malaysia",
        "latitude": 5.4167404,
        "longitude": 100.33988989999999
    },
    {
        "category": "night markets",
        "title": "Pasar Malam Desa Permata, Paya Terubong",
        "rating": 3.9,
        "address": "1228l, Jln Paya Terubung, Farlim, 11500 Air Itam, Penang, Malaysia",
        "latitude": 5.3933273,
        "longitude": 100.276529
    },
    {
        "category": "night markets",
        "title": "Pasar Malam Sungai Ara",
        "rating": 4.3,
        "address": "Kampung Sungai Ara, 11900 Bayan Lepas, Penang, Malaysia",
        "latitude": 5.325621099999999,
        "longitude": 100.2738952
    },
    {
        "category": "night markets",
        "title": "Night Market Site",
        "rating": 3.8,
        "address": "Pasar Awam, Lintang Bukit Penara 1, 11000 Balik Pulau, Penang, Malaysia",
        "latitude": 5.352464599999999,
        "longitude": 100.2403717
    },
    {
        "category": "night markets",
        "title": "Pasar Malam Sungai Batu",
        "rating": 3.8,
        "address": "Lintang Sungai Batu, Taman Teluk Kumbar, 11950 Bayan Lepas, Penang, Malaysia",
        "latitude": 5.2849618,
        "longitude": 100.2406996
    },
    {
        "category": "night markets",
        "title": "Pantai Jerejak Night Market",
        "rating": 4.1,
        "address": "Jln Pantai Jerjak 15, Taman Pantai Jerjak, 11900 Gelugor, Pulau Pinang, Malaysia",
        "latitude": 5.3402521,
        "longitude": 100.30346689999999
    },
    {
        "category": "night markets",
        "title": "Penang Bazaar",
        "rating": 4.1,
        "address": "Jln Penang, Georgetown, 10050 George Town, Penang, Malaysia",
        "latitude": 5.418488399999999,
        "longitude": 100.3316254
    },
    {
        "category": "night markets",
        "title": "Pasar Chowrasta Market",
        "rating": 4.2,
        "address": "Lot 124, Jln Penang, Georgetown, 10100 George Town, Penang, Malaysia",
        "latitude": 5.4181782,
        "longitude": 100.3313024
    },
    {
        "category": "night markets",
        "title": "Gurney Drive Hawker Center",
        "rating": 3.8,
        "address": "172, Solok Gurney 1, Pulau Tikus, 10250 Jelutong, Penang, Malaysia",
        "latitude": 5.4402265,
        "longitude": 100.3087316
    },
    {
        "category": "night markets",
        "title": "Pasar Malam Bayan Baru",
        "rating": 4.2,
        "address": "24, Lorong Mahsuri 7, Bayan Baru, 11950 Bayan Lepas, Penang, Malaysia",
        "latitude": 5.3292012,
        "longitude": 100.29077869999999
    },
    {
        "category": "viewpoints",
        "title": "Penang Hill Best Viewpoint",
        "rating": 4.6,
        "address": "230 Jalan Tuanku Yahya Petra, Bukit Bendera, Hill, Penang, Malaysia",
        "latitude": 5.4222217,
        "longitude": 100.2674612
    },
    {
        "category": "viewpoints",
        "title": "Curtis Crest Treetop Walk",
        "rating": 4.6,
        "address": "Bukit Bendera, Penang, Malaysia",
        "latitude": 5.422907899999999,
        "longitude": 100.2657222
    },
    {
        "category": "viewpoints",
        "title": "Queens Waterfront Viewing Spot",
        "rating": 4.6,
        "address": "88J5+HP, Bayan Lepas, Penang, Malaysia",
        "latitude": 5.3314375,
        "longitude": 100.30931249999999
    },
    {
        "category": "viewpoints",
        "title": "Viewing Deck",
        "rating": 4.2,
        "address": "Hill Heritage Trail, Jalan Bukit Bendera, 11300 Ayer Itam, Pulau Pinang, Malaysia",
        "latitude": 5.423807099999999,
        "longitude": 100.269947
    },
    {
        "category": "viewpoints",
        "title": "Rainbow Skywalk @The TOP Penang",
        "rating": 4.6,
        "address": "Jalan Dr Lim Chwee Leong, Georgetown, 10450 George Town, Penang, Malaysia",
        "latitude": 5.4146846,
        "longitude": 100.32959799999999
    },
    {
        "category": "viewpoints",
        "title": "Penang Hill Viewing Area",
        "rating": 4.6,
        "address": "230 Jalan Tuanku Yahya Petra, Bukit Bendera, Penang, Malaysia",
        "latitude": 5.4187093,
        "longitude": 100.2641293
    },
    {
        "category": "viewpoints",
        "title": "View Point Wave Breaker",
        "rating": 4.7,
        "address": "11200 Tanjung Bungah, Penang, Malaysia",
        "latitude": 5.4646918,
        "longitude": 100.3096715
    },
    {
        "category": "viewpoints",
        "title": "Ayer Itam Dam Lookout Point",
        "rating": 4.8,
        "address": "11500, Jln Balik Pulau, 11500 Air Itam, Penang, Malaysia",
        "latitude": 5.396456,
        "longitude": 100.263228
    },
    {
        "category": "viewpoints",
        "title": "Fortress Hill Penang",
        "rating": 4.8,
        "address": "Jln Paya Terubung, Farlim, 11500 Air Itam, Penang, Malaysia",
        "latitude": 5.3668232,
        "longitude": 100.26244009999999
    },
    {
        "category": "viewpoints",
        "title": "View Point",
        "rating": 5,
        "address": "C7CR+XR, George Town, Penang, Malaysia",
        "latitude": 5.4224632999999995,
        "longitude": 100.2920759
    },
    {
        "category": "viewpoints",
        "title": "Scenic Spot Area",
        "rating": 4.6,
        "address": "Persiaran Bayan Indah, 11900 Bayan Lepas, Penang, Malaysia",
        "latitude": 5.3371793,
        "longitude": 100.3108487
    },
    {
        "category": "viewpoints",
        "title": "Viewpoint seaside",
        "rating": 5,
        "address": "Opposite Floating Mosque, Jalan, 11200 Tanjung Bungah, Penang, Malaysia",
        "latitude": 5.4701229,
        "longitude": 100.2776288
    },
    {
        "category": "viewpoints",
        "title": "Esplanade Sea Wall Heritage Trail",
        "rating": 4.5,
        "address": "Kompleks Makanan Medan Renong Padang Kota Lama, 11, Jalan Tun Syed Sheh Barakbah, Georgetown, 10200 George Town, Penang, Malaysia",
        "latitude": 5.4224193,
        "longitude": 100.341976
    },
    {
        "category": "viewpoints",
        "title": "The Habitat Penang Hill",
        "rating": 4.4,
        "address": "C7G9+69, Bukit Bendera, 11300 Bukit Bendera, Penang, Malaysia",
        "latitude": 5.4255625,
        "longitude": 100.26843749999999
    },
    {
        "category": "viewpoints",
        "title": "Viewing area",
        "rating": 4.2,
        "address": "5, Gurney Dr, Georgetown, 10250 George Town, Penang, Malaysia",
        "latitude": 5.4294736,
        "longitude": 100.3215798
    },
    {
        "category": "viewpoints",
        "title": "NTP Dam Lookout Point",
        "rating": 4.2,
        "address": "C6W7+3G, Teluk Bahang, 11050 Tanjung Bungah, Penang, Malaysia",
        "latitude": 5.4452364,
        "longitude": 100.2137547
    },
    {
        "category": "viewpoints",
        "title": "Viewpoint",
        "rating": 3.4,
        "address": "262, Jalan Batu Ferringhi, Tanjung Bungah, 11200 Tanjung Bungah, Penang, Malaysia",
        "latitude": 5.4727942999999994,
        "longitude": 100.2775755
    },
    {
        "category": "viewpoints",
        "title": "Sunset view point Penang hill",
        "rating": null,
        "address": "C7G9+56, Bukit Bendera, Penang, Malaysia",
        "latitude": 5.4251415,
        "longitude": 100.2679953
    },
    {
        "category": "viewpoints",
        "title": "Clock Tower Viewpoint",
        "rating": 4.1,
        "address": "Georgetown, 10200 George Town, Penang, Malaysia",
        "latitude": 5.4198926,
        "longitude": 100.34416739999999
    },
    {
        "category": "viewpoints",
        "title": "Moongate 5 Penang",
        "rating": 4.5,
        "address": "673A, Jalan Kebun Bunga, Pulau Tikus, 10350 George Town, Penang, Malaysia",
        "latitude": 5.435738799999999,
        "longitude": 100.2927888
    },
    {
        "category": "gardens",
        "title": "Botanical Gardens Penang",
        "rating": 4.5,
        "address": "Kompleks Pentadbiran,Bangunan Pavilion, Jalan Kebun Bunga, 10350 George Town, Pulau Pinang, Malaysia",
        "latitude": 5.4377324,
        "longitude": 100.2906982
    },
    {
        "category": "gardens",
        "title": "Penang Hill",
        "rating": 4.4,
        "address": "Bukit Bendera, 11300 Bukit Bendera, Penang, Malaysia",
        "latitude": 5.4235809,
        "longitude": 100.2696725
    },
    {
        "category": "gardens",
        "title": "Tropical Spice Garden | Events Venue | Cooking Classes | Spice Store",
        "rating": 4.6,
        "address": "Lot 595 Mukim, 2, Jalan Teluk Bahang, Teluk Bahang, 11050 George Town, Pulau Pinang, Malaysia",
        "latitude": 5.4634881,
        "longitude": 100.22933979999999
    },
    {
        "category": "gardens",
        "title": "Moongate Penang Botanic Garden (Taman Botani Pulau Pinang Moongate/மூங்கேட் பினாங்கு தாவரவியல் பூங்கா)",
        "rating": 4,
        "address": "10470 George Town, Penang, Malaysia",
        "latitude": 5.4353723,
        "longitude": 100.2927753
    },
    {
        "category": "gardens",
        "title": "Japanese Garden",
        "rating": 4.3,
        "address": "Jalan Mas, Taman Guan Joo Seng, 11600 Jelutong, Penang, Malaysia",
        "latitude": 5.3961761,
        "longitude": 100.30205529999999
    },
    {
        "category": "gardens",
        "title": "Lily Pond",
        "rating": 4.2,
        "address": "Unnamed Road, 10470 George Town, Penang, Malaysia",
        "latitude": 5.4414986,
        "longitude": 100.2900287
    },
    {
        "category": "gardens",
        "title": "Armenian Garden",
        "rating": 4.6,
        "address": "86, Lebuh Aceh, Georgetown, 10300 George Town, Penang, Malaysia",
        "latitude": 5.4152930999999995,
        "longitude": 100.3360909
    },
    {
        "category": "gardens",
        "title": "Penang Kebun Bunga",
        "rating": 3.8,
        "address": "10470 George Town, Penang, Malaysia",
        "latitude": 5.4377572,
        "longitude": 100.2907151
    },
    {
        "category": "gardens",
        "title": "Best Viewing Area",
        "rating": 4.5,
        "address": "10470 George Town, Penang, Malaysia",
        "latitude": 5.4317609,
        "longitude": 100.2913389
    },
    {
        "category": "gardens",
        "title": "Moongate Trail Botanic Garden",
        "rating": 4.9,
        "address": "10470 Jelutong, Penang, Malaysia",
        "latitude": 5.4308361,
        "longitude": 100.2964562
    },
    {
        "category": "gardens",
        "title": "Taman Bandar Pulau Pinang (formerly Taman Belia)",
        "rating": 4.4,
        "address": "Taman Belia, Pulau Tikus, 10450 George Town, Penang, Malaysia",
        "latitude": 5.430229,
        "longitude": 100.2976159
    },
    {
        "category": "gardens",
        "title": "Armenian Park",
        "rating": 4.4,
        "address": "95, Lbh Armenian, Georgetown, 10300 George Town, Penang, Malaysia",
        "latitude": 5.415397899999999,
        "longitude": 100.3359662
    },
    {
        "category": "gardens",
        "title": "Iskcon Penang Botanical Garden",
        "rating": 4.5,
        "address": "No. 43A, Jalan Kebun Bunga, 10350 George Town, Penang, Malaysia",
        "latitude": 5.4315389,
        "longitude": 100.29844089999999
    },
    {
        "category": "gardens",
        "title": "Moongate 5 Penang",
        "rating": 4.5,
        "address": "673A, Jalan Kebun Bunga, Pulau Tikus, 10350 George Town, Penang, Malaysia",
        "latitude": 5.435738799999999,
        "longitude": 100.2927888
    },
    {
        "category": "gardens",
        "title": "Youth Park",
        "rating": 4.5,
        "address": "Persiaran Kuari, Pulau Tikus, 10450 George Town, Penang, Malaysia",
        "latitude": 5.4315891,
        "longitude": 100.2972906
    },
    {
        "category": "gardens",
        "title": "Moon Gate Station 5",
        "rating": 4.6,
        "address": "Unnamed Road, George Town, Penang, Malaysia",
        "latitude": 5.4288929999999995,
        "longitude": 100.289355
    },
    {
        "category": "gardens",
        "title": "The Habitat Penang Hill",
        "rating": 4.4,
        "address": "C7G9+69, Bukit Bendera, 11300 Bukit Bendera, Penang, Malaysia",
        "latitude": 5.4255625,
        "longitude": 100.26843749999999
    },
    {
        "category": "gardens",
        "title": "Big Field Botanical Garden",
        "rating": 5,
        "address": "C7QQ+V3, 10470 George Town, Penang, Malaysia",
        "latitude": 5.439733599999999,
        "longitude": 100.2877163
    },
    {
        "category": "gardens",
        "title": "Japanese Garden (Taman Jepun/ஜப்பானிய பூங்கா)",
        "rating": 4,
        "address": "673A, Jalan Kebun Bunga, Georgetown, 10350 George Town, Penang, Malaysia",
        "latitude": 5.4368178,
        "longitude": 100.2919422
    },
    {
        "category": "gardens",
        "title": "Economic Garden / Taman Ekonomi",
        "rating": 5,
        "address": "10470 George Town, Penang, Malaysia",
        "latitude": 5.4369383,
        "longitude": 100.29029419999999
    },
    {
        "category": "zoo",
        "title": "Penang Bird Park",
        "rating": 4,
        "address": "Jalan Todak Seberang Jaya, 13700 Perai, Penang, Malaysia",
        "latitude": 5.394035,
        "longitude": 100.39475619999999
    },
    {
        "category": "zoo",
        "title": "Audi Dream Farm",
        "rating": 3.5,
        "address": "Audi dreamfarm 145, MK B, Sg.Rusa, 11010 Balik Pulau, Pulau Pinang, Malaysia",
        "latitude": 5.3852058,
        "longitude": 100.2097307
    },
    {
        "category": "zoo",
        "title": "Zoo Taiping & Night Safari",
        "rating": 4.1,
        "address": "Jalan Pekeliling, Taman Tasik Taiping, 34000 Taiping, Perak, Malaysia",
        "latitude": 4.8549951,
        "longitude": 100.751032
    },
    {
        "category": "zoo",
        "title": "Zoo Negara Malaysia",
        "rating": 4.1,
        "address": "Jalan Taman Zooview, Taman Zooview, 68000 Ampang Jaya, Selangor, Malaysia",
        "latitude": 3.2103488,
        "longitude": 101.7588188
    },
    {
        "category": "zoo",
        "title": "Penang Hill",
        "rating": 4.4,
        "address": "Bukit Bendera, 11300 Bukit Bendera, Penang, Malaysia",
        "latitude": 5.4235809,
        "longitude": 100.2696725
    },
    {
        "category": "zoo",
        "title": "Friendship Park",
        "rating": 4.3,
        "address": "Lebuh Farquhar, Georgetown, 10450 George Town, Penang, Malaysia",
        "latitude": 5.4215481,
        "longitude": 100.33658469999999
    },
    {
        "category": "zoo",
        "title": "Dinosaur Park",
        "rating": 4.1,
        "address": "10450 George Town, Penang, Malaysia",
        "latitude": 5.4144158,
        "longitude": 100.3289374
    },
    {
        "category": "zoo",
        "title": "The Top Boutique Aquarium",
        "rating": 4.1,
        "address": "1, No, 1, Jln Penang, 10000 George Town, Pulau Pinang, Malaysia",
        "latitude": 5.4143929,
        "longitude": 100.3299503
    },
    {
        "category": "zoo",
        "title": "Penang Snake Temple",
        "rating": 3.9,
        "address": "10, Jalan Sultan Azlan Shah, Bandar Bayan Baru, 11900 Bayan Lepas, Penang, Malaysia",
        "latitude": 5.3139425,
        "longitude": 100.2854153
    },
    {
        "category": "zoo",
        "title": "ESCAPE Penang",
        "rating": 4.6,
        "address": "828, Jalan Teluk Bahang, Teluk Bahang, 11050 Tanjung Bungah, Penang, Malaysia",
        "latitude": 5.4497405,
        "longitude": 100.214038
    },
    {
        "category": "zoo",
        "title": "Saanen Dairy Goat Farm",
        "rating": 4.6,
        "address": "298 Mukim 1 Sungai Pinang, 11010 Balik Pulau, Penang, Malaysia",
        "latitude": 5.4055162999999995,
        "longitude": 100.20770259999999
    },
    {
        "category": "zoo",
        "title": "Chew Thean Yeang Aquatic & Pet",
        "rating": 4.4,
        "address": "82, Jalan Burma, Georgetown, 10050 George Town, Penang, Malaysia",
        "latitude": 5.4190511,
        "longitude": 100.32779719999999
    },
    {
        "category": "zoo",
        "title": "The TOP Penang, Theme Park Penang",
        "rating": 4.3,
        "address": "1, Jln Penang, 10000 George Town, Penang, Malaysia",
        "latitude": 5.4144543999999994,
        "longitude": 100.32954959999999
    },
    {
        "category": "zoo",
        "title": "Penang Hill Swings",
        "rating": 4.6,
        "address": "Bukit Bendera, Penang, Malaysia",
        "latitude": 5.4236604999999996,
        "longitude": 100.2665371
    },
    {
        "category": "zoo",
        "title": "Penang Leng Tua Keong",
        "rating": null,
        "address": "88c, Lebuh Tye Sin, Georgetown, 10300 George Town, Penang, Malaysia",
        "latitude": 5.4108516,
        "longitude": 100.329296
    },
    {
        "category": "zoo",
        "title": "Rainbow Skywalk @The TOP Penang",
        "rating": 4.6,
        "address": "Jalan Dr Lim Chwee Leong, Georgetown, 10450 George Town, Penang, Malaysia",
        "latitude": 5.4146846,
        "longitude": 100.32959799999999
    },
    {
        "category": "zoo",
        "title": "Pinang Peranakan Mansion",
        "rating": 4.5,
        "address": "29, Church St, Georgetown, 10200 George Town, Penang, Malaysia",
        "latitude": 5.4178275,
        "longitude": 100.3412046
    },
    {
        "category": "zoo",
        "title": "Department Of Wildlife And National Parks, Penang",
        "rating": 1.7,
        "address": "Tgkt. 40, Bangunan Komtar, 10000, Pulau Pinang, Malaysia",
        "latitude": 5.4145942,
        "longitude": 100.3295291
    },
    {
        "category": "zoo",
        "title": "2-R Jalan Zoo",
        "rating": null,
        "address": "28, Solok Zoo 1, Kampung Cantik, 11500 Air Itam, Penang, Malaysia",
        "latitude": 5.3926302999999995,
        "longitude": 100.2801805
    },
    {
        "category": "zoo",
        "title": "Graveyard Jalan Zoo",
        "rating": 5,
        "address": "Masjid Jamik Al-qadrie, 11500 Ayer Itam, Pulau Pinang, Malaysia",
        "latitude": 5.4038759,
        "longitude": 100.2856389
    },
    {
        "category": "adventure parks",
        "title": "ESCAPE Penang",
        "rating": 4.6,
        "address": "828, Jalan Teluk Bahang, Teluk Bahang, 11050 Tanjung Bungah, Penang, Malaysia",
        "latitude": 5.4497405,
        "longitude": 100.214038
    },
    {
        "category": "adventure parks",
        "title": "The TOP Penang, Theme Park Penang",
        "rating": 4.3,
        "address": "1, Jln Penang, 10000 George Town, Penang, Malaysia",
        "latitude": 5.4144543999999994,
        "longitude": 100.32954959999999
    },
    {
        "category": "adventure parks",
        "title": "Adventure Zone",
        "rating": 4.3,
        "address": "Jalan Batu Ferringhi, Kampung Tanjung Huma, 11100 Batu Ferringhi, Pulau Pinang, Malaysia",
        "latitude": 5.4776922,
        "longitude": 100.25211809999999
    },
    {
        "category": "adventure parks",
        "title": "The TOP Penang Avenue of Adventure (AOA)",
        "rating": 4.4,
        "address": "The TOP Komtar, Komtar, Phase 2B-03-01, Concourse No.3, Unit No.1, Jln Penang, 10000 George Town, Pulau Pinang, Malaysia",
        "latitude": 5.414706,
        "longitude": 100.3301374
    },
    {
        "category": "adventure parks",
        "title": "Bertam Souk & Water Park, Penang",
        "rating": 4.3,
        "address": "PMT 2200, Bertam Resort, Persiaran Bertam 8, 13200 Kepala Batas, Penang, Malaysia",
        "latitude": 5.5194524,
        "longitude": 100.4533259
    },
    {
        "category": "adventure parks",
        "title": "ESCAPE Longest Water Slide",
        "rating": 4.7,
        "address": "C6X7+7J, Teluk Bahang, 11200 Tanjung Bungah, Penang, Malaysia",
        "latitude": 5.4482146,
        "longitude": 100.2141041
    },
    {
        "category": "adventure parks",
        "title": "Lavenda Fun Park",
        "rating": 4.4,
        "address": "Juru Auto City Phase 2, Bukit Tengah, 14000 Perai, Pulau Pinang Penang, 13600 Perai, Pulau Pinang, Malaysia",
        "latitude": 5.3381522,
        "longitude": 100.42677379999999
    },
    {
        "category": "adventure parks",
        "title": "Cosmic Family Theme Park",
        "rating": 4,
        "address": "6H-G, Jalan Rumbia, Sungai Nibong Kecil, 11900 Bayan Lepas, Pulau Pinang, 11900, Malaysia",
        "latitude": 5.333493799999999,
        "longitude": 100.29220319999999
    },
    {
        "category": "adventure parks",
        "title": "Kids Adventureland Penang",
        "rating": 4.8,
        "address": "8-3-11 & 8-3-12, Sunshine Mall@Sunshine Central, Jln Thean Tek, Bandar Baru Air Itam, 11400 Ayer Itam, Pulau Pinang, Malaysia",
        "latitude": 5.3987221,
        "longitude": 100.2871406
    },
    {
        "category": "adventure parks",
        "title": "Amazonia",
        "rating": 5,
        "address": "Batu Ferringhi Beach, 11100 Batu Ferringhi, Pulau Pinang, Malaysia",
        "latitude": 5.4727833,
        "longitude": 100.24643739999999
    },
    {
        "category": "adventure parks",
        "title": "Sim Leisure Adventureplay Sdn. Bhd.",
        "rating": 5,
        "address": "828, Jalan Teluk Bahang, Teluk Bahang, 11050 Tanjung Bungah, Penang, Malaysia",
        "latitude": 5.4494408,
        "longitude": 100.21517329999999
    },
    {
        "category": "adventure parks",
        "title": "TKC Adventure Park",
        "rating": 5,
        "address": "14400 Kubang Semang, Penang, Malaysia",
        "latitude": 5.421619199999999,
        "longitude": 100.4733809
    },
    {
        "category": "adventure parks",
        "title": "SkyBridge @The TOP Penang",
        "rating": 4.8,
        "address": "Level 65, The Top Penang, No. 1, Komtar, Jln Penang, 10000 George Town, Malaysia",
        "latitude": 5.4145728,
        "longitude": 100.3297271
    },
    {
        "category": "adventure parks",
        "title": "World Longest Zip Coaster ESCAPE",
        "rating": 3.5,
        "address": "ESCAPE, Teluk Bahang, 11050 Tanjung Bungah, Penang, Malaysia",
        "latitude": 5.4484224999999995,
        "longitude": 100.2144283
    },
    {
        "category": "adventure parks",
        "title": "WONDUCKFUL PARK",
        "rating": 4.3,
        "address": "Malaysia, Penang, Butterworth, Taman Robina, Lrg. Aman 7, 邮政编码: 13050",
        "latitude": 5.4720737999999995,
        "longitude": 100.3797575
    },
    {
        "category": "adventure parks",
        "title": "Laguna Waterpark",
        "rating": 4.2,
        "address": "1, Jalan Laguna 2, Kampung Jawa, 13600 Perai, Penang, Malaysia",
        "latitude": 5.3722993,
        "longitude": 100.40581859999999
    },
    {
        "category": "adventure parks",
        "title": "Ocean Family Theme Park",
        "rating": 2.2,
        "address": "88 D, Jalan Tun Dr Awang, Bukit Jambul, 11900 Bayan Lepas, Penang, Malaysia",
        "latitude": 5.331535,
        "longitude": 100.2815409
    },
    {
        "category": "adventure parks",
        "title": "Rainbow Skywalk @The TOP Penang",
        "rating": 4.6,
        "address": "Jalan Dr Lim Chwee Leong, Georgetown, 10450 George Town, Penang, Malaysia",
        "latitude": 5.4146846,
        "longitude": 100.32959799999999
    },
    {
        "category": "adventure parks",
        "title": "Entopia by Penang Butterfly Farm",
        "rating": 4.4,
        "address": "830, Jalan Teluk Bahang, Teluk Bahang, 11050 Tanjung Bungah, Penang, Malaysia",
        "latitude": 5.4476214999999995,
        "longitude": 100.2149943
    },
    {
        "category": "adventure parks",
        "title": "D Lap Family Drift Kart @ Gurney Paragon",
        "rating": 5,
        "address": "Level 7A, Multi carpark, Gurney Paragon Mall, Kelawai Rd, Pulau Tikus, 11500 George Town, Penang, Malaysia",
        "latitude": 5.4352960999999995,
        "longitude": 100.3104767
    },
    {
        "category": "hot springs",
        "title": "The Banjaran Hotsprings Retreat",
        "rating": 4.8,
        "address": "1, Persiaran Lagoon, Sunway 3, 31150 Ipoh, Perak, Malaysia",
        "latitude": 4.6310761,
        "longitude": 101.1561254
    },
    {
        "category": "hot springs",
        "title": "La Hot Spring",
        "rating": 4.3,
        "address": "Sungai Peng, 22010 Jerteh, Terengganu, Malaysia",
        "latitude": 5.5168574,
        "longitude": 102.5345947
    },
    {
        "category": "hot springs",
        "title": "SMOO by Shea Spa & Massage",
        "rating": 4.9,
        "address": "27, Lorong Abu Siti, 10400 George Town, Penang, Malaysia",
        "latitude": 5.4190987999999995,
        "longitude": 100.32454039999999
    },
    {
        "category": "hot springs",
        "title": "Sungai Klah Hot Springs",
        "rating": 4.2,
        "address": "35600 Sungkai, Perak, Malaysia",
        "latitude": 3.9950164,
        "longitude": 101.39332189999999
    },
    {
        "category": "hot springs",
        "title": "Poring Hot Spring",
        "rating": 4.1,
        "address": "89300 Ranau, Sabah, Malaysia",
        "latitude": 6.0457241999999995,
        "longitude": 116.7033598
    },
    {
        "category": "hot springs",
        "title": "ēRYAbySURIA Hot Spring Bentong",
        "rating": 3.8,
        "address": "2527, Jalan Kuala Lumpur Lama, Mukim, 28700 Bentong, Pahang, Malaysia",
        "latitude": 3.4095203,
        "longitude": 101.89099879999999
    },
    {
        "category": "hot springs",
        "title": "Sg. Lalang Hot Spring",
        "rating": 4.3,
        "address": "Jalan Sungai Lalang, 43500 Semenyih, Selangor, Malaysia",
        "latitude": 3.0426569999999997,
        "longitude": 101.87218299999999
    },
    {
        "category": "hot springs",
        "title": "Kerling Hot Spring",
        "rating": 3.9,
        "address": "44000 Kerling, Selangor, Malaysia",
        "latitude": 3.6098044,
        "longitude": 101.60902879999999
    },
    {
        "category": "hot springs",
        "title": "Hulu Tamu Hot Springs",
        "rating": 4,
        "address": "Hulu Tamu, 44300, Selangor, Malaysia",
        "latitude": 3.4638644,
        "longitude": 101.69693459999999
    },
    {
        "category": "hot springs",
        "title": "Kampung Panchor Hot Spring",
        "rating": 4.2,
        "address": "1305, 93050 Kuching, Sarawak, Malaysia",
        "latitude": 1.2536954999999999,
        "longitude": 110.45074539999999
    },
    {
        "category": "hot springs",
        "title": "The Granite Luxury Hotel Penang",
        "rating": 4.3,
        "address": "191A, Jalan Magazine, 10300 George Town, Penang, Malaysia",
        "latitude": 5.413244,
        "longitude": 100.3294059
    },
    {
        "category": "hot springs",
        "title": "Summer Spring Retail Sdn. Bhd.",
        "rating": 4,
        "address": "No. 23A, Ground Floor, Lebuh Sungai Pinang 5, Sungai Pinang, Bandar Jelutong, 11600, Georgetown, Pulau Pinang, 11600 Georgetown, Malaysia",
        "latitude": 5.396642,
        "longitude": 100.327929
    },
    {
        "category": "hot springs",
        "title": "Ma Siao Er Hotpot",
        "rating": 4.9,
        "address": "21, Jalan Gurdwara, 10300 George Town, Pulau Pinang, Malaysia",
        "latitude": 5.4128172,
        "longitude": 100.3282704
    },
    {
        "category": "hot springs",
        "title": "Hean Boo Thean Kuan Yin Temple",
        "rating": 4.6,
        "address": "No. A Reclamation Area, 52, Pengkalan Weld, Georgetown, 10300 George Town, Malaysia",
        "latitude": 5.4095244,
        "longitude": 100.3383705
    },
    {
        "category": "hot springs",
        "title": "Beacon Resort",
        "rating": 4.7,
        "address": "PT 4049, Mukim Sungai Gumut,, Kampung Gumut Tambahan, 44100 Kerling, Selangor, Malaysia",
        "latitude": 3.6336279,
        "longitude": 101.58864709999999
    },
    {
        "category": "hot springs",
        "title": "Kolam Air Panas Bentong",
        "rating": 3.5,
        "address": "Kolam Air Panas, 28700 Bentong, Pahang, Malaysia",
        "latitude": 3.4095766999999997,
        "longitude": 101.8913333
    },
    {
        "category": "hot springs",
        "title": "Penang Straits Oriental Museum 博物馆",
        "rating": 4.9,
        "address": "20, Stewart Ln, Georgetown, 10200 George Town, Penang, Malaysia",
        "latitude": 5.4191609,
        "longitude": 100.33789569999999
    },
    {
        "category": "hot springs",
        "title": "Betong Hot Spring",
        "rating": 4.1,
        "address": "74, 5, Tano Maero, Betong District, Yala 95110, Thailand",
        "latitude": 5.8497803,
        "longitude": 101.0717028
    },
    {
        "category": "hot springs",
        "title": "Mary Hot Bread",
        "rating": 4.7,
        "address": "111, Jln Perak, Jelutong, 11600 George Town, Penang, Malaysia",
        "latitude": 5.414204,
        "longitude": 100.31652729999999
    },
    {
        "category": "hot springs",
        "title": "Selayang Hot Spring Pool",
        "rating": 4.2,
        "address": "Baru Selayang, 68100 Batu Caves, Selangor, Malaysia",
        "latitude": 3.2589517,
        "longitude": 101.6461375
    },
    {
        "category": "shopping malls",
        "title": "Gurney Paragon Mall",
        "rating": 4.3,
        "address": "163d, Gurney Dr, 10250 George Town, Penang, Malaysia",
        "latitude": 5.4357359,
        "longitude": 100.311185
    },
    {
        "category": "shopping malls",
        "title": "Penang Times Square",
        "rating": 3.7,
        "address": "144, Jalan Dato Keramat, Georgetown, 10150 George Town, Penang, Malaysia",
        "latitude": 5.412176,
        "longitude": 100.3256387
    },
    {
        "category": "shopping malls",
        "title": "Gurney Plaza",
        "rating": 4.4,
        "address": "170, Gurney Dr, Pulau Tikus, 10250 George Town, Penang, Malaysia",
        "latitude": 5.4380431,
        "longitude": 100.31002319999999
    },