[
    {
        "category": "tourist attractions",
        "title": "Takayama Jinya",
        "rating": 4.2,
        "address": "1 Chome-5 Hachikenmachi, Takayama, Gifu 506-0012, Japan",
        "latitude": 36.1396312,
        "longitude": 137.25760449999999
    },
    {
        "category": "tourist attractions",
        "title": "Hida no Sato Folk Village Museum",
        "rating": 4.4,
        "address": "1 Chome-590 Kamiokamotomachi, Takayama, Gifu 506-0055, Japan",
        "latitude": 36.1324902,
        "longitude": 137.2350898
    },
    {
        "category": "tourist attractions",
        "title": "Sanmachi Suji",
        "rating": 4.4,
        "address": "20 Kamisannomachi, Takayama, Gifu 506-0846, Japan",
        "latitude": 36.1413161,
        "longitude": 137.2596227
    },
    {
        "category": "tourist attractions",
        "title": "Takayama Shōwa-kan Museum",
        "rating": 4.4,
        "address": "6番地, Shimoichinomachi, Takayama, Gifu 506-0843, Japan",
        "latitude": 36.143974799999995,
        "longitude": 137.2599215
    },
    {
        "category": "tourist attractions",
        "title": "Hida Takayama Museum of Art",
        "rating": 4.2,
        "address": "サンクチュアリコート高山 アートギャラリーリゾート 内, 1 Chome-124-1 Kamiokamotomachi, Takayama, Gifu 506-0055, Japan",
        "latitude": 36.1366279,
        "longitude": 137.2409008
    },
    {
        "category": "tourist attractions",
        "title": "Takayama Sky Park",
        "rating": 4.3,
        "address": "7 Chome-417-1 Kamiokamotomachi, Takayama, Gifu 506-0055, Japan",
        "latitude": 36.146239699999995,
        "longitude": 137.2396645
    },
    {
        "category": "tourist attractions",
        "title": "Hida Great Limestone Cave",
        "rating": 4.1,
        "address": "1147 Nyukawacho Hiyomo, Takayama, Gifu 506-2256, Japan",
        "latitude": 36.1838158,
        "longitude": 137.4248082
    },
    {
        "category": "tourist attractions",
        "title": "Higashiyama Teramachi/Higashiyama Promenade",
        "rating": 4.5,
        "address": "ほか Tenshojimachi, Takayama, Gifu 506-0832, Japan",
        "latitude": 36.1449631,
        "longitude": 137.26328519999998
    },
    {
        "category": "tourist attractions",
        "title": "Hidatakayama Town Museum",
        "rating": 4.1,
        "address": "75 Kamiichinomachi, Takayama, Gifu 506-0844, Japan",
        "latitude": 36.1422968,
        "longitude": 137.2611723
    },
    {
        "category": "tourist attractions",
        "title": "Takayama Castle Ruins",
        "rating": 3.8,
        "address": "Shiroyama, Takayama, Gifu 506-0822, Japan",
        "latitude": 36.138093,
        "longitude": 137.2632319
    },
    {
        "category": "tourist attractions",
        "title": "Miyagawa Morning Markets",
        "rating": 4.1,
        "address": "Shimosannomachi, Takayama, Gifu 506-0841, Japan",
        "latitude": 36.144704,
        "longitude": 137.2579466
    },
    {
        "category": "tourist attractions",
        "title": "Hida Takayama Retro Museum",
        "rating": 4.3,
        "address": "4 Chome-7 Shinmeimachi, Takayama, Gifu 506-0821, Japan",
        "latitude": 36.1391025,
        "longitude": 137.2598451
    },
    {
        "category": "tourist attractions",
        "title": "Hida Kokubun-ji Temple",
        "rating": 4.2,
        "address": "1 Chome-83 Sowamachi, Takayama, Gifu 506-0007, Japan",
        "latitude": 36.1434743,
        "longitude": 137.253864
    },
    {
        "category": "tourist attractions",
        "title": "Shiroyama Park",
        "rating": 4,
        "address": "Shiroyama, Takayama, Gifu 506-0822, Japan",
        "latitude": 36.1400419,
        "longitude": 137.263259
    },
    {
        "category": "tourist attractions",
        "title": "Takayama Matsuri Yatai Kaikan",
        "rating": 4,
        "address": "178 Sakuramachi, Takayama, Gifu 506-0858, Japan",
        "latitude": 36.148341699999996,
        "longitude": 137.2601188
    },
    {
        "category": "tourist attractions",
        "title": "東山遊歩道",
        "rating": 4.7,
        "address": "Japan, 〒506-0843 Gifu, Takayama, Shimoichinomachi, 152",
        "latitude": 36.1462316,
        "longitude": 137.2602114
    },
    {
        "category": "tourist attractions",
        "title": "Shinhotaka Ropeway",
        "rating": 4.5,
        "address": "710-7 Okuhida Onsengo Kansaka, Takayama, Gifu 506-1421, Japan",
        "latitude": 36.2857919,
        "longitude": 137.5752622
    },
    {
        "category": "tourist attractions",
        "title": "Sakurayama Hachimangu Shrine",
        "rating": 4.4,
        "address": "178 Sakuramachi, Takayama, Gifu 506-0858, Japan",
        "latitude": 36.148444999999995,
        "longitude": 137.2608132
    },
    {
        "category": "tourist attractions",
        "title": "Nakabashi Park",
        "rating": 4.3,
        "address": "５０番地4ほか Kawaharamachi, Takayama, Gifu 506-0023, Japan",
        "latitude": 36.1397812,
        "longitude": 137.2588666
    },
    {
        "category": "tourist attractions",
        "title": "Kitayama Park ,Ayuzaki Castle Ruins",
        "rating": 3.7,
        "address": "Oshinmachi, Takayama, Gifu 506-0851, Japan",
        "latitude": 36.1519926,
        "longitude": 137.2588212
    },
    {
        "category": "parks",
        "title": "Takayama Sky Park",
        "rating": 4.3,
        "address": "7 Chome-417-1 Kamiokamotomachi, Takayama, Gifu 506-0055, Japan",
        "latitude": 36.146239699999995,
        "longitude": 137.2396645
    },
    {
        "category": "parks",
        "title": "Shiroyama Park",
        "rating": 4,
        "address": "Shiroyama, Takayama, Gifu 506-0822, Japan",
        "latitude": 36.1400419,
        "longitude": 137.263259
    },
    {
        "category": "parks",
        "title": "Nakabashi Park",
        "rating": 4.3,
        "address": "５０番地4ほか Kawaharamachi, Takayama, Gifu 506-0023, Japan",
        "latitude": 36.1397812,
        "longitude": 137.2588666
    },
    {
        "category": "parks",
        "title": "Squirrel Forest Hidayama Wild Grass Nature Garden",
        "rating": 4.2,
        "address": "2351-7 Matsukuramachi, Takayama, Gifu 506-0034, Japan",
        "latitude": 36.116528699999996,
        "longitude": 137.22156139999998
    },
    {
        "category": "parks",
        "title": "Kitayama Park ,Ayuzaki Castle Ruins",
        "rating": 3.7,
        "address": "Oshinmachi, Takayama, Gifu 506-0851, Japan",
        "latitude": 36.1519926,
        "longitude": 137.2588212
    },
    {
        "category": "parks",
        "title": "Miyagawa Ryokuchi Park",
        "rating": 4.1,
        "address": "1 Chome Kiriumachi, Takayama, Gifu 506-0004, Japan",
        "latitude": 36.1526966,
        "longitude": 137.25554019999998
    },
    {
        "category": "parks",
        "title": "Harayama City Park",
        "rating": 4.2,
        "address": "３３９１番地1ほか Shingumachi, Takayama, Gifu 506-0035, Japan",
        "latitude": 36.133339299999996,
        "longitude": 137.2201368
    },
    {
        "category": "parks",
        "title": "Bijokogen Park",
        "rating": 4,
        "address": "1358-1 Asahicho Miza, Takayama, Gifu 509-3306, Japan",
        "latitude": 36.1012361,
        "longitude": 137.3180893
    },
    {
        "category": "parks",
        "title": "Nakayama Park",
        "rating": 3.6,
        "address": "1306 Shimobayashimachi, Takayama, Gifu 506-0058, Japan",
        "latitude": 36.147812699999996,
        "longitude": 137.2321119
    },
    {
        "category": "parks",
        "title": "Water Park",
        "rating": 3.8,
        "address": "655 Fuyutomachi, Takayama, Gifu 506-0001, Japan",
        "latitude": 36.1700257,
        "longitude": 137.2442137
    },
    {
        "category": "parks",
        "title": "Sakurano Park",
        "rating": 3.9,
        "address": "510-1 Kokufucho Hirosemachi, Takayama, Gifu 509-4119, Japan",
        "latitude": 36.2062156,
        "longitude": 137.2247745
    },
    {
        "category": "parks",
        "title": "Garyu Park",
        "rating": 4.1,
        "address": "275番地１ Ichinomiyamachi, Takayama, Gifu 509-3505, Japan",
        "latitude": 36.0887902,
        "longitude": 137.2478318
    },
    {
        "category": "parks",
        "title": "Sanmachi Suji",
        "rating": 4.4,
        "address": "20 Kamisannomachi, Takayama, Gifu 506-0846, Japan",
        "latitude": 36.1413161,
        "longitude": 137.2596227
    },
    {
        "category": "parks",
        "title": "Takayama Jinya",
        "rating": 4.2,
        "address": "1 Chome-5 Hachikenmachi, Takayama, Gifu 506-0012, Japan",
        "latitude": 36.1396312,
        "longitude": 137.25760449999999
    },
    {
        "category": "parks",
        "title": "Green Park Hirono",
        "rating": 4.2,
        "address": "713番地 Nyukawacho Hosogoe, Takayama, Gifu 506-2133, Japan",
        "latitude": 36.1771078,
        "longitude": 137.2975568
    },
    {
        "category": "parks",
        "title": "Utsue Forty-Eight Waterfalls Prefectural Park",
        "rating": 4,
        "address": "Kokufucho Utsue, Takayama, Gifu 509-4121, Japan",
        "latitude": 36.197337999999995,
        "longitude": 137.16053159999998
    },
    {
        "category": "parks",
        "title": "Okuhida Bear's Ranch",
        "rating": 3.9,
        "address": "2535-309 Okuhida Onsengo Hitoegane, Takayama, Gifu 506-1432, Japan",
        "latitude": 36.2195827,
        "longitude": 137.54329239999998
    },
    {
        "category": "parks",
        "title": "Sanmachi-dori",
        "rating": 4.5,
        "address": "さんまち通り, Takayama, Gifu 506-0846, Japan",
        "latitude": 36.141572499999995,
        "longitude": 137.2595503
    },
    {
        "category": "parks",
        "title": "Kurumadashiseki Park",
        "rating": 4,
        "address": "1775 Matsunokimachi, Takayama, Gifu 506-0802, Japan",
        "latitude": 36.1558723,
        "longitude": 137.2933018
    },
    {
        "category": "parks",
        "title": "Ekimae Pocket Park",
        "rating": 3,
        "address": "6 Chome-６-5 Hanasatomachi, Takayama, Gifu 506-0026, Japan",
        "latitude": 36.1414596,
        "longitude": 137.2527418
    },
    {
        "category": "restaurants",
        "title": "Suzuya Restaurant",
        "rating": 4.6,
        "address": "24 Hanakawamachi, Takayama, Gifu 506-0015, Japan",
        "latitude": 36.1424136,
        "longitude": 137.2556933
    },
    {
        "category": "restaurants",
        "title": "Hida Takayama Gyoza Sohonzan",
        "rating": 4.7,
        "address": "24-8 Asahimachi, Takayama, Gifu 506-0017, Japan",
        "latitude": 36.143784,
        "longitude": 137.2566336
    },
    {
        "category": "restaurants",
        "title": "Le Midi",
        "rating": 4.4,
        "address": "2 Chome-８５ Honmachi, Takayama, Gifu 506-0011, Japan",
        "latitude": 36.141148799999996,
        "longitude": 137.25834559999998
    },
    {
        "category": "restaurants",
        "title": "EVILTEX Hamburgers & Tex-Mex",
        "rating": 4.6,
        "address": "6 Chome-19 Hanasatomachi, Takayama, Gifu 506-0026, Japan",
        "latitude": 36.1425367,
        "longitude": 137.25245479999998
    },
    {
        "category": "restaurants",
        "title": "Heianraku",
        "rating": 4.9,
        "address": "6 Chome-７の2 Tenmanmachi, Takayama, Gifu 506-0025, Japan",
        "latitude": 36.1426357,
        "longitude": 137.2539223
    },
    {
        "category": "restaurants",
        "title": "Bistro Kanzo",
        "rating": 4.6,
        "address": "シングビル 1f, 46 Uramachi, Takayama, Gifu 506-0013, Japan",
        "latitude": 36.1417797,
        "longitude": 137.2572864
    },
    {
        "category": "restaurants",
        "title": "Aji-no-Yohei",
        "rating": 4.3,
        "address": "7 Kamininomachi, Takayama, Gifu 506-0845, Japan",
        "latitude": 36.140671399999995,
        "longitude": 137.26008769999999
    },
    {
        "category": "restaurants",
        "title": "Uemura (Farm to table restaurant )",
        "rating": 4.8,
        "address": "Japan, 〒506-0025 Gifu, Takayama, Tenmanmachi, 6 Chome−６",
        "latitude": 36.1421175,
        "longitude": 137.2537415
    },
    {
        "category": "restaurants",
        "title": "Kyōya",
        "rating": 4.5,
        "address": "1 Chome-77 Oshinmachi, Takayama, Gifu 506-0851, Japan",
        "latitude": 36.1462619,
        "longitude": 137.2589866
    },
    {
        "category": "restaurants",
        "title": "Kitchen Hida",
        "rating": 4.4,
        "address": "1 Chome-６６番地 Honmachi, Takayama, Gifu 506-0011, Japan",
        "latitude": 36.1406658,
        "longitude": 137.2577719
    },
    {
        "category": "restaurants",
        "title": "Matsuki Sushi",
        "rating": 4.4,
        "address": "1 Chome-40 Sowamachi, Takayama, Gifu 506-0007, Japan",
        "latitude": 36.1441783,
        "longitude": 137.25450949999998
    },
    {
        "category": "restaurants",
        "title": "Ebihachi",
        "rating": 4.7,
        "address": "41 Aioimachi, Takayama, Gifu 506-0014, Japan",
        "latitude": 36.1420075,
        "longitude": 137.2567125
    },
    {
        "category": "restaurants",
        "title": "Royal Nan House Takayama",
        "rating": 4.2,
        "address": "6 Chome-18 Hanasatomachi, Takayama, Gifu 506-0026, Japan",
        "latitude": 36.1426945,
        "longitude": 137.2526425
    },
    {
        "category": "restaurants",
        "title": "Center4 Hamburgers",
        "rating": 4.6,
        "address": "94 Kamiichinomachi, Takayama, Gifu 506-0844, Japan",
        "latitude": 36.1410627,
        "longitude": 137.26100499999998
    },
    {
        "category": "restaurants",
        "title": "Jakson Curry & Coffee",
        "rating": 4.5,
        "address": "5 Chome-5 Tenmanmachi, Takayama, Gifu 506-0025, Japan",
        "latitude": 36.1411681,
        "longitude": 137.2537831
    },
    {
        "category": "restaurants",
        "title": "Hidagyu Maruaki",
        "rating": 4.1,
        "address": "6 Chome-8 Tenmanmachi, Takayama, Gifu 506-0025, Japan",
        "latitude": 36.1425437,
        "longitude": 137.2541783
    },
    {
        "category": "restaurants",
        "title": "Tenaga Ashinaga",
        "rating": 4.2,
        "address": "3 Chome-38 Honmachi, Takayama, Gifu 506-0011, Japan",
        "latitude": 36.1445477,
        "longitude": 137.2570122
    },
    {
        "category": "restaurants",
        "title": "Sakurajaya",
        "rating": 4.6,
        "address": "3 Chome-84-13 Sowamachi, Takayama, Gifu 506-0007, Japan",
        "latitude": 36.1502536,
        "longitude": 137.2532254
    },
    {
        "category": "restaurants",
        "title": "TEPPAN OSAKA",
        "rating": 4.9,
        "address": "6 Chome-9-2 Tenmanmachi, Takayama, Gifu 506-0025, Japan",
        "latitude": 36.142648,
        "longitude": 137.253663
    },
    {
        "category": "restaurants",
        "title": "Dining Bull",
        "rating": 4.8,
        "address": "1 Chome-30 Hachikenmachi, Takayama, Gifu 506-0012, Japan",
        "latitude": 36.1393019,
        "longitude": 137.2584317
    },
    {
        "category": "cafes",
        "title": "SWAY COFFEE ROASTERY HIDA TAKAYAMA CAFE",
        "rating": 4.7,
        "address": "Japan, 〒506-0845 Gifu, Takayama, Kamininomachi, ６４−3",
        "latitude": 36.1428418,
        "longitude": 137.2599985
    },
    {
        "category": "cafes",
        "title": "Don",
        "rating": 4.5,
        "address": "2 Chome-５２ Honmachi, Takayama, Gifu 506-0011, Japan",
        "latitude": 36.142745999999995,
        "longitude": 137.257536
    },
    {
        "category": "cafes",
        "title": "Ninja Experience Cafe Takayama",
        "rating": 4.9,
        "address": "58番地, 3 Chome Honmachi, Takayama, Gifu 506-0011, Japan",
        "latitude": 36.1437503,
        "longitude": 137.2571949
    },
    {
        "category": "cafes",
        "title": "Cafe Ao",
        "rating": 4.5,
        "address": "67 Kamisannomachi, Takayama, Gifu 506-0846, Japan",
        "latitude": 36.14311,
        "longitude": 137.25911589999998
    },
    {
        "category": "cafes",
        "title": "Tori Coffee",
        "rating": 4.9,
        "address": "３５番地, 1 Chome Oshinmachi, Takayama, Gifu 506-0851, Japan",
        "latitude": 36.1475764,
        "longitude": 137.2578989
    },
    {
        "category": "cafes",
        "title": "Falò Coffee Brewers",
        "rating": 4.8,
        "address": "Japan, 〒506-0844 Gifu, Takayama, Kamiichinomachi, 45番地2",
        "latitude": 36.1428949,
        "longitude": 137.2606185
    },
    {
        "category": "cafes",
        "title": "Brand New Day Coffee",
        "rating": 4.6,
        "address": "山本ビル, 1階, 5 Chome-１３-13 Hanasatomachi, Takayama, Gifu 506-0026, Japan",
        "latitude": 36.1412852,
        "longitude": 137.2528619
    },
    {
        "category": "cafes",
        "title": "EMBER espresso",
        "rating": 4.7,
        "address": "48-2 Shimoninomachi, Takayama, Gifu 506-0842, Japan",
        "latitude": 36.145277899999996,
        "longitude": 137.2590056
    },
    {
        "category": "cafes",
        "title": "No Name Coffee",
        "rating": 4.9,
        "address": "58 Hanakawamachi, Takayama, Gifu 506-0015, Japan",
        "latitude": 36.142628699999996,
        "longitude": 137.2554767
    },
    {
        "category": "cafes",
        "title": "Sugi",
        "rating": 4.9,
        "address": "70 Horibatamachi, Takayama, Gifu 506-0837, Japan",
        "latitude": 36.1396285,
        "longitude": 137.2624691
    },
    {
        "category": "cafes",
        "title": "haiz coffee takayama（ヘイズコーヒー高山/カフェ）",
        "rating": 4.8,
        "address": "Japan, 〒506-0011 Gifu, Takayama, Honmachi, 3 Chome−7 1F",
        "latitude": 36.1436254,
        "longitude": 137.2577287
    },
    {
        "category": "cafes",
        "title": "Sabou Usagi",
        "rating": 4.8,
        "address": "40 Shimoninomachi, Takayama, Gifu 506-0842, Japan",
        "latitude": 36.1456261,
        "longitude": 137.2588653
    },
    {
        "category": "cafes",
        "title": "JUNE COFFEE TAKAYAMA",
        "rating": 4.7,
        "address": "Japan, 〒506-0026 Gifu, Takayama, Hanasatomachi, 6 Chome−101",
        "latitude": 36.1426239,
        "longitude": 137.2517308
    },
    {
        "category": "cafes",
        "title": "Ranka Coffee",
        "rating": 4.6,
        "address": "９３ Kamisannomachi, Takayama, Gifu 506-0846, Japan",
        "latitude": 36.141455,
        "longitude": 137.259637
    },
    {
        "category": "cafes",
        "title": "Cafe Courier",
        "rating": 4.8,
        "address": "1 Chome-12 Hachikenmachi, Takayama, Gifu 506-0012, Japan",
        "latitude": 36.138740999999996,
        "longitude": 137.258206
    },
    {
        "category": "cafes",
        "title": "Hids' cafe & bar",
        "rating": 4.5,
        "address": "5 Chome-13-17 Hanasatomachi, Takayama, Gifu 506-0026, Japan",
        "latitude": 36.1413516,
        "longitude": 137.2530147
    },
    {
        "category": "cafes",
        "title": "Cha‐Mame Cafe",
        "rating": 4.8,
        "address": "4 Chome-３８ Honmachi, Takayama, Gifu 506-0011, Japan",
        "latitude": 36.145907,
        "longitude": 137.2565086
    },
    {
        "category": "cafes",
        "title": "Bagpipe",
        "rating": 4.6,
        "address": "75 Kataharamachi, Takayama, Gifu 506-0847, Japan",
        "latitude": 36.1411209,
        "longitude": 137.25907899999999
    },
    {
        "category": "cafes",
        "title": "SANU coffee stand",
        "rating": 5,
        "address": "Japan, 〒506-0011 Gifu, Takayama, Honmachi, 4 Chome−4",
        "latitude": 36.1451367,
        "longitude": 137.2570242
    },
    {
        "category": "cafes",
        "title": "Rinrin",
        "rating": 4.9,
        "address": "3 Chome-57 Tenmanmachi, Takayama, Gifu 506-0025, Japan",
        "latitude": 36.1384123,
        "longitude": 137.2545969
    },
    {
        "category": "mountains",
        "title": "Mount Norikura",
        "rating": 4.7,
        "address": "Nyukawacho Iwaidani, Takayama, Gifu 506-2254, Japan",
        "latitude": 36.1163259,
        "longitude": 137.5360177
    },
    {
        "category": "mountains",
        "title": "Mount Kurai",
        "rating": 4.4,
        "address": "Ichinomiyamachi, Takayama, Gifu 509-3505, Japan",
        "latitude": 36.0383326,
        "longitude": 137.196601
    },
    {
        "category": "mountains",
        "title": "Japanese Alps",
        "rating": 3.9,
        "address": "Shokawacho Terakawado, Takayama, Gifu 501-5405, Japan",
        "latitude": 36,
        "longitude": 137
    },
    {
        "category": "mountains",
        "title": "Hidakochi",
        "rating": 5,
        "address": "Kiyomicho Sakashita, Takayama, Gifu 506-0106, Japan",
        "latitude": 36.0857643,
        "longitude": 137.1321532
    },
    {
        "category": "mountains",
        "title": "Kengamine",
        "rating": 4.7,
        "address": "Takanemachi Nomugi, Takayama, Gifu 509-3402, Japan",
        "latitude": 36.1068219,
        "longitude": 137.55383949999998
    },
    {
        "category": "mountains",
        "title": "Mt. Tateyama",
        "rating": 5,
        "address": "Osakacho Kadosaka, Gero, Gifu 509-3102, Japan",
        "latitude": 35.990252999999996,
        "longitude": 137.33731029999998
    },
    {
        "category": "mountains",
        "title": "Hidasanmyaku",
        "rating": 4.4,
        "address": "Okuhida Onsengo Kansaka, Takayama, Gifu 506-1421, Japan",
        "latitude": 36.330883199999995,
        "longitude": 137.5961635
    },
    {
        "category": "mountains",
        "title": "Mt. Terashiyama",
        "rating": 4.8,
        "address": "Okuhida Onsengo Hitoegane, Takayama, Gifu 506-1432, Japan",
        "latitude": 36.1940503,
        "longitude": 137.52229739999999
    },
    {
        "category": "mountains",
        "title": "Hideridake",
        "rating": 4.5,
        "address": "Shokawacho Okamigo, Takayama, Gifu 501-5426, Japan",
        "latitude": 36.105868,
        "longitude": 136.89414159999998
    },
    {
        "category": "mountains",
        "title": "Inobuseyama",
        "rating": 4.5,
        "address": "Kiyomicho Ikemoto, Takayama, Gifu 506-0203, Japan",
        "latitude": 36.189917099999995,
        "longitude": 137.11262209999998
    },
    {
        "category": "mountains",
        "title": "Kaoredake",
        "rating": 4.5,
        "address": "Ichinomiyamachi, Takayama, Gifu 509-3505, Japan",
        "latitude": 36.0083589,
        "longitude": 137.1496818
    },
    {
        "category": "mountains",
        "title": "Funayama",
        "rating": 3.9,
        "address": "Kugunocho Musugo, Takayama, Gifu 509-3214, Japan",
        "latitude": 36.0242297,
        "longitude": 137.2394678
    },
    {
        "category": "mountains",
        "title": "Mt. Takayama",
        "rating": 2.7,
        "address": "Miyagawacho Maruyama, Hida, Gifu 509-4405, Japan",
        "latitude": 36.308351,
        "longitude": 137.1757486
    },
    {
        "category": "mountains",
        "title": "Akandanayama",
        "rating": 4.2,
        "address": "Okuhida Onsengo Hirayu, Takayama, Gifu 506-1433, Japan",
        "latitude": 36.200344199999996,
        "longitude": 137.5728293
    },
    {
        "category": "mountains",
        "title": "Kasagatake",
        "rating": 4.6,
        "address": "Kamitakaracho Kanakido, Takayama, Gifu 506-1308, Japan",
        "latitude": 36.3154614,
        "longitude": 137.550413
    },
    {
        "category": "mountains",
        "title": "Satomidake",
        "rating": null,
        "address": "Nyukawacho Iwaidani, Takayama, Gifu 506-2254, Japan",
        "latitude": 36.1212296,
        "longitude": 137.5445627
    },
    {
        "category": "mountains",
        "title": "Mt. Dainichi",
        "rating": 5,
        "address": "Takanemachi Nomugi, Takayama, Gifu 509-3402, Japan",
        "latitude": 36.1043916,
        "longitude": 137.55174
    },
    {
        "category": "mountains",
        "title": "Kazan",
        "rating": 1,
        "address": "Shokawacho Mumaya, Takayama, Gifu 501-5401, Japan",
        "latitude": 36.044275,
        "longitude": 137.0484718
    },
    {
        "category": "mountains",
        "title": "Shinhotaka Ropeway",
        "rating": 4.5,
        "address": "710-7 Okuhida Onsengo Kansaka, Takayama, Gifu 506-1421, Japan",
        "latitude": 36.2857919,
        "longitude": 137.5752622
    },
    {
        "category": "mountains",
        "title": "Mt. Asahi",
        "rating": 4.1,
        "address": "Nyukawacho Iwaidani, Takayama, Gifu 506-2254, Japan",
        "latitude": 36.109772899999996,
        "longitude": 137.5509588
    },
    {
        "category": "waterfalls",
        "title": "Hirayuo Falls",
        "rating": 4.2,
        "address": "Okuhida Onsengo Hirayu, Takayama, Gifu 506-1433, Japan",
        "latitude": 36.1771269,
        "longitude": 137.5596961
    },
    {
        "category": "waterfalls",
        "title": "Utsue Forty-Eight Waterfalls",
        "rating": 4.3,
        "address": "Kokufucho Utsue, Takayama, Gifu 509-4121, Japan",
        "latitude": 36.1968556,
        "longitude": 137.15712779999998
    },
    {
        "category": "waterfalls",
        "title": "Choshi Falls",
        "rating": 4.2,
        "address": "Nyukawacho Hatahoko, Takayama, Gifu 506-2251, Japan",
        "latitude": 36.1877134,
        "longitude": 137.4683957
    },
    {
        "category": "waterfalls",
        "title": "Hirayu Waterfall",
        "rating": 4.2,
        "address": "温泉 Okuhida Onsengo Hirayu, Takayama, Gifu 506-1433, Japan",
        "latitude": 36.17702,
        "longitude": 137.559632
    },
    {
        "category": "waterfalls",
        "title": "O Falls",
        "rating": 3.5,
        "address": "Kamitakaracho Nezumochi, Takayama, Gifu 506-1311, Japan",
        "latitude": 36.261400699999996,
        "longitude": 137.39818649999998
    },
    {
        "category": "waterfalls",
        "title": "Choshi Falls",
        "rating": 4.3,
        "address": "Nyukawacho Hatahoko, Takayama, Gifu 506-2251, Japan",
        "latitude": 36.187665599999995,
        "longitude": 137.46842469999999
    },
    {
        "category": "waterfalls",
        "title": "Kurumio Falls",
        "rating": 3,
        "address": "Asahicho Kurumijima, Takayama, Gifu 509-3313, Japan",
        "latitude": 35.9522395,
        "longitude": 137.460444
    },
    {
        "category": "waterfalls",
        "title": "Shijuhachi Falls",
        "rating": 4.2,
        "address": "Kokufucho Utsue, Takayama, Gifu 509-4121, Japan",
        "latitude": 36.1967749,
        "longitude": 137.1539755
    },
    {
        "category": "waterfalls",
        "title": "Nunobikino Falls",
        "rating": 4.7,
        "address": "Nyukawacho Iwaidani, Takayama, Gifu 506-2254, Japan",
        "latitude": 36.1452548,
        "longitude": 137.4918811
    },
    {
        "category": "waterfalls",
        "title": "O Falls",
        "rating": null,
        "address": "Takanemachi Hiwada, Takayama, Gifu 509-3403, Japan",
        "latitude": 35.9826623,
        "longitude": 137.4962799
    },
    {
        "category": "waterfalls",
        "title": "Aodaru Falls",
        "rating": 5,
        "address": "Nyukawacho Ikenomata, Takayama, Gifu 506-2253, Japan",
        "latitude": 36.1528658,
        "longitude": 137.5056492
    },
    {
        "category": "waterfalls",
        "title": "Anageo Falls",
        "rating": 5,
        "address": "Okuhida Onsengo Kansaka, Takayama, Gifu 506-1421, Japan",
        "latitude": 36.3131765,
        "longitude": 137.5693607
    },
    {
        "category": "waterfalls",
        "title": "Me Falls",
        "rating": 3.8,
        "address": "Shokawacho Mumaya, Takayama, Gifu 501-5401, Japan",
        "latitude": 36.073958499999996,
        "longitude": 137.01292859999998
    },
    {
        "category": "waterfalls",
        "title": "Kutemikoshi Falls",
        "rating": 4,
        "address": "Nyukawacho Kute, Takayama, Gifu 506-2252, Japan",
        "latitude": 36.1669601,
        "longitude": 137.5106899
    },
    {
        "category": "waterfalls",
        "title": "Uogaeri Falls",
        "rating": 4,
        "address": "Shokawacho Miogo, Takayama, Gifu 501-5403, Japan",
        "latitude": 36.0290424,
        "longitude": 136.9963296
    },
    {
        "category": "waterfalls",
        "title": "Utsue Forty-Eight Waterfalls Prefectural Park",
        "rating": 4,
        "address": "Kokufucho Utsue, Takayama, Gifu 509-4121, Japan",
        "latitude": 36.197337999999995,
        "longitude": 137.16053159999998
    },
    {
        "category": "waterfalls",
        "title": "Sankyuno Falls",
        "rating": 3,
        "address": "Kokufucho Miyaji, Takayama, Gifu 509-4103, Japan",
        "latitude": 36.239437699999996,
        "longitude": 137.2750557
    },
    {
        "category": "waterfalls",
        "title": "Takedani Falls",
        "rating": null,
        "address": "Takanemachi Nomugi, Takayama, Gifu 509-3402, Japan",
        "latitude": 36.0799181,
        "longitude": 137.5716112
    },
    {
        "category": "waterfalls",
        "title": "Iwafune Falls",
        "rating": null,
        "address": "Nyukawacho Sannose, Takayama, Gifu 506-2105, Japan",
        "latitude": 36.20689,
        "longitude": 137.2958554
    },
    {
        "category": "waterfalls",
        "title": "Utsue Forty-Eight Waterfalls Lookout",
        "rating": 4.5,
        "address": "Kokufucho Utsue, Takayama, Gifu 509-4121, Japan",
        "latitude": 36.1965673,
        "longitude": 137.1518656
    },
    {
        "category": "lakes",
        "title": "Tsuruga Pond",
        "rating": 4.5,
        "address": "Nyukawacho Iwaidani, Takayama, Gifu 506-2254, Japan",
        "latitude": 36.1248007,
        "longitude": 137.5562433
    },
    {
        "category": "lakes",
        "title": "Lake Araragi",
        "rating": 3.7,
        "address": "2501-1 Kugunocho Musugo, 高山市 Gifu 509-2501, Japan",
        "latitude": 36.0266807,
        "longitude": 137.21326059999998
    },
    {
        "category": "lakes",
        "title": "Takanenorikura Lake",
        "rating": 4,
        "address": "Takayama, Gifu, Japan",
        "latitude": 36.0256097,
        "longitude": 137.4937962
    },
    {
        "category": "lakes",
        "title": "Miboro Lake",
        "rating": 4,
        "address": "Shokawacho Nakano, Takayama, Gifu 501-5424, Japan",
        "latitude": 36.0740011,
        "longitude": 136.9451129
    },
    {
        "category": "lakes",
        "title": "Somaga Pond",
        "rating": 4,
        "address": "Takanemachi Hiwada, Takayama, Gifu 509-3403, Japan",
        "latitude": 35.9699167,
        "longitude": 137.5191036
    },
    {
        "category": "lakes",
        "title": "Akigami Reservoir",
        "rating": 3.7,
        "address": "Takayama, Gifu, Japan",
        "latitude": 36.055389999999996,
        "longitude": 137.39819889999998
    },
    {
        "category": "lakes",
        "title": "五味原湖",
        "rating": 3,
        "address": "Japan, 〒506-2103 Gifu, Takayama, Nyukawacho Oshikiji",
        "latitude": 36.2170317,
        "longitude": 137.37493899999998
    },
    {
        "category": "lakes",
        "title": "Takanenorikura Lake",
        "rating": 4.3,
        "address": "Takanemachi Adanogo, Takayama, Gifu 509-3401, Japan",
        "latitude": 36.0267984,
        "longitude": 137.4934953
    },
    {
        "category": "lakes",
        "title": "Bijoga Pond",
        "rating": 4,
        "address": "Asahicho Miza, Takayama, Gifu 509-3306, Japan",
        "latitude": 36.1013874,
        "longitude": 137.31882149999998
    },
    {
        "category": "lakes",
        "title": "Gongen Pond",
        "rating": 5,
        "address": "Nyukawacho Iwaidani, Takayama, Gifu 506-2254, Japan",
        "latitude": 36.107629599999996,
        "longitude": 137.5482607
    },
    {
        "category": "lakes",
        "title": "Takanenorikura Lake",
        "rating": 5,
        "address": "Takanemachi Hiwada, Takayama, Gifu 509-3403, Japan",
        "latitude": 36.0141266,
        "longitude": 137.5059948
    },
    {
        "category": "lakes",
        "title": "Shiramizu Lake",
        "rating": 4.1,
        "address": "Hirase, Shirakawa, Ono District, Gifu 501-5507, Japan",
        "latitude": 36.1352167,
        "longitude": 136.8159713
    },
    {
        "category": "lakes",
        "title": "Kuguno Reservoir",
        "rating": null,
        "address": "Takayama, Gifu, Japan",
        "latitude": 36.0753931,
        "longitude": 137.39605609999998
    },
    {
        "category": "lakes",
        "title": "Asahi Reservoir",
        "rating": 3.8,
        "address": "Takayama, Gifu, Japan",
        "latitude": 36.054794,
        "longitude": 137.4300452
    },
    {
        "category": "lakes",
        "title": "Tsuchitoi Pond",
        "rating": null,
        "address": "Nyukawacho Ikenomata, Takayama, Gifu 506-2253, Japan",
        "latitude": 36.1436643,
        "longitude": 137.5270818
    },
    {
        "category": "lakes",
        "title": "Gono Pond",
        "rating": null,
        "address": "Nyukawacho Iwaidani, Takayama, Gifu 506-2254, Japan",
        "latitude": 36.1170823,
        "longitude": 137.5436559
    },
    {
        "category": "lakes",
        "title": "Onyu Pond",
        "rating": null,
        "address": "Nyukawacho Ikenomata, Takayama, Gifu 506-2253, Japan",
        "latitude": 36.136282699999995,
        "longitude": 137.54235119999998
    },
    {
        "category": "lakes",
        "title": "Takayama",
        "rating": null,
        "address": "Gifu, Japan",
        "latitude": 36.1461317,
        "longitude": 137.252159
    },
    {
        "category": "lakes",
        "title": "Mount Norikura",
        "rating": 4.7,
        "address": "Nyukawacho Iwaidani, Takayama, Gifu 506-2254, Japan",
        "latitude": 36.1163259,
        "longitude": 137.5360177
    },
    {
        "category": "lakes",
        "title": "Chinmaga Pond",
        "rating": null,
        "address": "Takanemachi Hiwada, Takayama, Gifu 509-3403, Japan",
        "latitude": 35.9678995,
        "longitude": 137.5286162
    },
    {
        "category": "beaches",
        "title": "Ohana Beach",
        "rating": 4.8,
        "address": "1 Chome-50-4 Hatsudamachi, Takayama, Gifu 506-0008, Japan",
        "latitude": 36.1440967,
        "longitude": 137.2531385
    },
    {
        "category": "beaches",
        "title": "Shirarahama Beach",
        "rating": 4.5,
        "address": "Shirahama, Nishimuro District, Wakayama 649-2211, Japan",
        "latitude": 33.681725899999996,
        "longitude": 135.3444329
    },
    {
        "category": "beaches",
        "title": "小舞子海水浴場",
        "rating": 4,
        "address": "Japan, 〒929-0217 Ishikawa, Hakusan, Minatomachi, I−１−３先",
        "latitude": 36.4800293,
        "longitude": 136.472466
    },
    {
        "category": "beaches",
        "title": "Ataka Beach",
        "rating": 4.2,
        "address": "Ta Atakamachi, Komatsu, Ishikawa 923-0003, Japan",
        "latitude": 36.420043299999996,
        "longitude": 136.4168527
    },
    {
        "category": "beaches",
        "title": "Shiroyama",
        "rating": null,
        "address": "Takayama, Gifu 506-0822, Japan",
        "latitude": 36.1344631,
        "longitude": 137.2618488
    },
    {
        "category": "beaches",
        "title": "KADA beach",
        "rating": 3.9,
        "address": "Kada, Wakayama, 640-0103, Japan",
        "latitude": 34.278667399999996,
        "longitude": 135.0741271
    },
    {
        "category": "beaches",
        "title": "Mercure Hida Takayama",
        "rating": 4.6,
        "address": "4 Chome-311-1 Hanasatomachi, Takayama, Gifu 506-0026, Japan",
        "latitude": 36.1391048,
        "longitude": 137.2518575
    },
    {
        "category": "beaches",
        "title": "Hamanomiya beach",
        "rating": 4.2,
        "address": "Kemi, Wakayama, 641-0014, Japan",
        "latitude": 34.1628639,
        "longitude": 135.1829666
    },
    {
        "category": "beaches",
        "title": "Kataonami Beach",
        "rating": 4,
        "address": "3 Chome-1740 Wakauraminami, Wakayama, 641-0022, Japan",
        "latitude": 34.1842174,
        "longitude": 135.1690435
    },
    {
        "category": "beaches",
        "title": "香りと洗車を楽しむお店。BEACH SOUND",
        "rating": 5,
        "address": "Japan, 〒506-0008 Gifu, Takayama, Hatsudamachi, 2 Chome−11-2",
        "latitude": 36.1462998,
        "longitude": 137.2531605
    },
    {
        "category": "beaches",
        "title": "Nagaragawa Start Beach",
        "rating": 4,
        "address": "2132 美並町三戸, Gujo, Gifu 501-4103, Japan",
        "latitude": 35.6784652,
        "longitude": 136.96358619999998
    },
    {
        "category": "beaches",
        "title": "Isonoura Beach Resort",
        "rating": 4.3,
        "address": "Isonoura, Wakayama, 640-0114, Japan",
        "latitude": 34.258984399999996,
        "longitude": 135.0948761
    },
    {
        "category": "beaches",
        "title": "Kujirahama Beach",
        "rating": 3.7,
        "address": "Taiji, Higashimuro District, Wakayama 649-5171, Japan",
        "latitude": 33.5996774,
        "longitude": 135.9453285
    },
    {
        "category": "beaches",
        "title": "Birth",
        "rating": 4.6,
        "address": "65番地3, 4 Chome Honmachi, Takayama, Gifu 506-0011, Japan",
        "latitude": 36.1449634,
        "longitude": 137.2565784
    },
    {
        "category": "beaches",
        "title": "休憩コーナー（道の駅 飛騨街道なぎさ）",
        "rating": null,
        "address": "Japan, 〒509-3213 Gifu, Takayama, Kugunochonagisa, 2685",
        "latitude": 36.0063933,
        "longitude": 137.29169109999998
    },
    {
        "category": "beaches",
        "title": "Mattokaihin Hot Spring",
        "rating": 4.1,
        "address": "2665-1 Tokumitsumachi, Hakusan, Ishikawa 924-0071, Japan",
        "latitude": 36.5360371,
        "longitude": 136.5303165
    },
    {
        "category": "beaches",
        "title": "C.C.Z beach",
        "rating": 3.9,
        "address": "Tokumitsumachi, Hakusan, Ishikawa 924-0071, Japan",
        "latitude": 36.5383992,
        "longitude": 136.5292249
    },
    {
        "category": "beaches",
        "title": "小舞子海岸",
        "rating": 4.2,
        "address": "Japan, 〒929-0217 Ishikawa, Hakusan, Minatomachi, I",
        "latitude": 36.480142,
        "longitude": 136.4721142
    },
    {
        "category": "beaches",
        "title": "Tokumitsu beach",
        "rating": 4.2,
        "address": "Tokumitsumachi, Hakusan, Ishikawa 924-0071, Japan",
        "latitude": 36.5358471,
        "longitude": 136.5271313
    },
    {
        "category": "beaches",
        "title": "Mihana Modern Japanese & Lounge",
        "rating": 4.7,
        "address": "7930 Jericho Tpke unit c, Woodbury, NY 11797",
        "latitude": 40.8136534,
        "longitude": -73.4775274
    },
    {
        "category": "swimming pools",
        "title": "Takayama City Swimming Pool",
        "rating": 3.5,
        "address": "1636-1 Akahokimachi, Takayama, Gifu 506-0045, Japan",
        "latitude": 36.1578417,
        "longitude": 137.2312119
    },
    {
        "category": "swimming pools",
        "title": "Okuhida Training Center Pool",
        "rating": 4.3,
        "address": "1689-3 Okuhida Onsengo Murakami, Takayama, Gifu 506-1431, Japan",
        "latitude": 36.2460366,
        "longitude": 137.513982
    },
    {
        "category": "swimming pools",
        "title": "Kiyomi B & G Kaiyo Center",
        "rating": 3.8,
        "address": "Japan, 〒506-0102 Gifu, Takayama, Kiyomicho Mikkamachi, 三日町 ２５４−１",
        "latitude": 36.1244024,
        "longitude": 137.1840679
    },
    {
        "category": "swimming pools",
        "title": "Hotel Wing International Hida Takayama",
        "rating": 4.1,
        "address": "2 Chome-51番地 Hatsudamachi, Takayama, Gifu 506-0008, Japan",
        "latitude": 36.144712399999996,
        "longitude": 137.253379
    },
    {
        "category": "swimming pools",
        "title": "Spa Hotel Alpina Hida Takayama",
        "rating": 4.2,
        "address": "5 Chome-４１ Nadamachi, Takayama, Gifu 506-0021, Japan",
        "latitude": 36.1403312,
        "longitude": 137.25434869999998
    },
    {
        "category": "swimming pools",
        "title": "スポーツクラブアクトス高山",
        "rating": 3.9,
        "address": "Japan, 〒506-0054 Gifu, Takayama, Okamotomachi, 3 Chome−117-1",
        "latitude": 36.1482976,
        "longitude": 137.2457637
    },
    {
        "category": "swimming pools",
        "title": "Takayama Green Hotel",
        "rating": 4.2,
        "address": "2 Chome-180 Nishinoisshikimachi, Takayama, Gifu 506-0031, Japan",
        "latitude": 36.137366899999996,
        "longitude": 137.2480352
    },
    {
        "category": "swimming pools",
        "title": "Utsue 48 Waterfalls Spa - Yuyukan",
        "rating": 4,
        "address": "964 宇津江, 国府町 Takayama, Gifu 509-4121, Japan",
        "latitude": 36.197336,
        "longitude": 137.1693226
    },
    {
        "category": "swimming pools",
        "title": "Utopia Inari-yu",
        "rating": 4.2,
        "address": "2 Chome-４-4 Hachikenmachi, Takayama, Gifu 506-0012, Japan",
        "latitude": 36.138244,
        "longitude": 137.2567067
    },
    {
        "category": "swimming pools",
        "title": "Kokufu B & G Kaiyo Center Pool",
        "rating": 3.7,
        "address": "458 Kokufucho Mikkamachi, Takayama, Gifu 509-4115, Japan",
        "latitude": 36.214940899999995,
        "longitude": 137.2132848
    },
    {
        "category": "swimming pools",
        "title": "ヒーロースイミングスクール",
        "rating": 4,
        "address": "Japan, 〒506-0009 Gifu, Takayama, Hanaokamachi, 2 Chome−６０番地, ひだホテルプラザ東館 B1F",
        "latitude": 36.1450952,
        "longitude": 137.2520133
    },
    {
        "category": "resorts",
        "title": "Hotel Associa Takayama Resort",
        "rating": 4.3,
        "address": "ホテルアソシア高山リゾート, 1134 Echigomachi, Takayama, Gifu 506-0033, Japan",
        "latitude": 36.1225485,
        "longitude": 137.243585
    },
    {
        "category": "resorts",
        "title": "Takayama Ouan Hotel",
        "rating": 4.3,
        "address": "4 Chome-313 Hanasatomachi, Takayama, Gifu 506-0026, Japan",
        "latitude": 36.1386977,
        "longitude": 137.2519786
    },
    {
        "category": "resorts",
        "title": "Ryu Resort & Spa",
        "rating": 4.3,
        "address": "892-11 Shokawacho Arabuchi, Takayama, Gifu 501-5413, Japan",
        "latitude": 36.0052313,
        "longitude": 136.961758
    },
    {
        "category": "resorts",
        "title": "Takayama Green Hotel",
        "rating": 4.2,
        "address": "2 Chome-180 Nishinoisshikimachi, Takayama, Gifu 506-0031, Japan",
        "latitude": 36.137366899999996,
        "longitude": 137.2480352
    },
    {
        "category": "resorts",
        "title": "Sanctuary Court Takayama Art Gallery Resort",
        "rating": 4.6,
        "address": "サンクチュアリコート高山 アートギャラリーリゾート 内, 1 Chome-124-1 Kamiokamotomachi, Takayama, Gifu 506-0055, Japan",
        "latitude": 36.1366279,
        "longitude": 137.2409008
    },
    {
        "category": "resorts",
        "title": "Spa Hotel Alpina Hida Takayama",
        "rating": 4.2,
        "address": "5 Chome-４１ Nadamachi, Takayama, Gifu 506-0021, Japan",
        "latitude": 36.1403312,
        "longitude": 137.25434869999998
    },
    {
        "category": "resorts",
        "title": "WAT RESORT 焚き火とサウナ BBQ&リゾート ヴィラ 高山（いぬとサウナ BBQ&ドッグラン ヴィラ 高山）",
        "rating": 4.8,
        "address": "Japan, 〒506-0817 Gifu, Takayama, Yamaguchimachi, 861-5",
        "latitude": 36.1409753,
        "longitude": 137.2894957
    },
    {
        "category": "resorts",
        "title": "TABINO HOTEL Hida Takayama",
        "rating": 4.1,
        "address": "13-1 Matsunokimachi, Takayama, Gifu 506-0802, Japan",
        "latitude": 36.151002,
        "longitude": 137.2825311
    },
    {
        "category": "resorts",
        "title": "Auberge Hida no Mori",
        "rating": 4.8,
        "address": "3349-1 Shingumachi, Takayama, Gifu 506-0035, Japan",
        "latitude": 36.133131299999995,
        "longitude": 137.2171205
    },
    {
        "category": "resorts",
        "title": "Wat Hotel & Spa Hida Takayama",
        "rating": 4.4,
        "address": "3 Chome-39-1 Hanasatomachi, Takayama, Gifu 506-0026, Japan",
        "latitude": 36.1371183,
        "longitude": 137.2529859
    },
    {
        "category": "resorts",
        "title": "Fairfield by Marriott Gifu Takayama Shirakawa Go",
        "rating": 4.6,
        "address": "Shokawa-Cho, Takayama 46-1 Sarumaru, Takayama, Gifu 501-5414, Japan",
        "latitude": 36.020392099999995,
        "longitude": 136.96679269999998
    },
    {
        "category": "resorts",
        "title": "Hotel and Spa Gift Takayama",
        "rating": 4.6,
        "address": "6 Chome-22 Tenmanmachi, Takayama, Gifu 506-0025, Japan",
        "latitude": 36.142123,
        "longitude": 137.2534112
    },
    {
        "category": "resorts",
        "title": "Relax Hostel Bettei Fuji",
        "rating": 4.4,
        "address": "38-2 Shimoichinomachi, Takayama, Gifu 506-0843, Japan",
        "latitude": 36.1455774,
        "longitude": 137.2593485
    },
    {
        "category": "resorts",
        "title": "Miyama Ouan",
        "rating": 4.2,
        "address": "229 Okuhida Onsengo Hirayu, Takayama, Gifu 506-1433, Japan",
        "latitude": 36.1943501,
        "longitude": 137.5529417
    },
    {
        "category": "resorts",
        "title": "Hida Hotel Plaza",
        "rating": 4.2,
        "address": "2 Chome-60 Hanaokamachi, Takayama, Gifu 506-0009, Japan",
        "latitude": 36.145007,
        "longitude": 137.2521678
    },
    {
        "category": "resorts",
        "title": "Relax Hotel Takayama Station, Takayama",
        "rating": 4.5,
        "address": "Japan, 〒506-0026 Gifu, Takayama, 花里町５丁目１４番地２ 駅前新ト一ビル２階",
        "latitude": 36.1412818,
        "longitude": 137.2525379
    },
    {
        "category": "resorts",
        "title": "TOKYU STAY Hida-Takayama Musubi no Yu",
        "rating": 4.4,
        "address": "4 Chome-301 花⾥町, Takayama, Gifu 506-0026, Japan",
        "latitude": 36.140294,
        "longitude": 137.2517615
    },
    {
        "category": "resorts",
        "title": "THE MACHIYA HOTEL TAKAYAMA",
        "rating": 4.7,
        "address": "3 Chome-50 Hachikenmachi, Takayama, Gifu 506-0012, Japan",
        "latitude": 36.138336599999995,
        "longitude": 137.2554185
    },
    {
        "category": "resorts",
        "title": "Chisun Grand Takayama",
        "rating": 4.4,
        "address": "6 Chome-６ Hanasatomachi, Takayama, Gifu 506-0026, Japan",
        "latitude": 36.1417243,
        "longitude": 137.2528063
    },
    {
        "category": "resorts",
        "title": "Honjin Hiranoya Kachoan",
        "rating": 4.6,
        "address": "1 Chome-34 Honmachi, Takayama, Gifu 506-0011, Japan",
        "latitude": 36.140543099999995,
        "longitude": 137.25834559999998
    },
    {
        "category": "camping sites",
        "title": "Hidatakayama Camping Ground",
        "rating": 4.5,
        "address": "914 Iwaimachi, Takayama, Gifu 506-0815, Japan",
        "latitude": 36.1405817,
        "longitude": 137.4273852
    },
    {
        "category": "camping sites",
        "title": "Seseragi Camping Ground",
        "rating": 4.7,
        "address": "1596ｰ30 Kiyomicho Fukuyori, Takayama, Gifu 506-0104, Japan",
        "latitude": 36.0982872,
        "longitude": 137.15815369999999
    },
    {
        "category": "camping sites",
        "title": "Hirayu Campground",
        "rating": 4.4,
        "address": "768-36 Okuhida Onsengo Hirayu, Takayama, Gifu 506-1433, Japan",
        "latitude": 36.1834558,
        "longitude": 137.5512269
    },
    {
        "category": "camping sites",
        "title": "Okuhidaonsengo Auto Camping Ground",
        "rating": 4.4,
        "address": "11-1 Okuhida Onsengo Tagoroke, Takayama, Gifu 506-1427, Japan",
        "latitude": 36.2486311,
        "longitude": 137.49875699999998
    },
    {
        "category": "camping sites",
        "title": "Hidashokawa Isshikinomori Camping Ground",
        "rating": 4.4,
        "address": "カラ谷-928 Shokawacho Isshiki, Takayama, Gifu 501-5415, Japan",
        "latitude": 35.9838109,
        "longitude": 136.9810309
    },
    {
        "category": "camping sites",
        "title": "Kakurehakogen Camping Ground",
        "rating": 4.3,
        "address": "青屋 Asahimachi, Takayama, Gifu 509-3301, Japan",
        "latitude": 36.112414,
        "longitude": 137.415737
    },
    {
        "category": "camping sites",
        "title": "Hiruganokogen Camping Ground",
        "rating": 4.5,
        "address": "4714-2 Takasucho Hirugano, Gujo, Gifu 501-5301, Japan",
        "latitude": 36.010385899999996,
        "longitude": 136.901582
    },
    {
        "category": "camping sites",
        "title": "Bijokogen Camping Ground",
        "rating": 4,
        "address": "Asahicho Miza, Takayama, Gifu 509-3306, Japan",
        "latitude": 36.100957799999996,
        "longitude": 137.3178279
    },
    {
        "category": "camping sites",
        "title": "N . A . O . Takayamasuzurankogen Camping Ground",
        "rating": 4.5,
        "address": "N.A.O.高山すずらん高原キャンプ場, 1628-1 Asahicho Nishibora, Takayama, Gifu 509-3314, Japan",
        "latitude": 35.9951091,
        "longitude": 137.34923369999998
    },
    {
        "category": "camping sites",
        "title": "Utsue Shijuhachitaki Camping Ground",
        "rating": 3.9,
        "address": "Kokufucho Utsue, Takayama, Gifu 509-4121, Japan",
        "latitude": 36.1978132,
        "longitude": 137.1595429
    },
    {
        "category": "camping sites",
        "title": "嵓 KURA Nagomi Hida Takayama",
        "rating": 4.8,
        "address": "Japan, 〒506-0032 Gifu, Takayama, Chishimamachi, 1305-10",
        "latitude": 36.1150312,
        "longitude": 137.238827
    },
    {
        "category": "camping sites",
        "title": "Yarigatake Lodge Campground",
        "rating": 4.3,
        "address": "Okuhida Onsengo Kansaka, Takayama, Gifu 506-1421, Japan",
        "latitude": 36.340030899999995,
        "longitude": 137.64569609999998
    },
    {
        "category": "camping sites",
        "title": "こもれびの森キャンプ荘川",
        "rating": 4.4,
        "address": "Japan, 〒501-5423 Gifu, Takayama, Shokawacho Iwaze, 606-25",
        "latitude": 36.062301999999995,
        "longitude": 136.95041129999998
    },
    {
        "category": "camping sites",
        "title": "飛騨高山 彦谷の里",
        "rating": 4.2,
        "address": "Japan, 〒506-0205 Gifu, Takayama, Kiyomicho Natsumaya, 夏廐687-3",
        "latitude": 36.149283,
        "longitude": 137.0988242
    },
    {
        "category": "camping sites",
        "title": "Pascal Kiyomi Auto Camping Ground",
        "rating": 4.2,
        "address": "979-38 Kiyomicho Oppara, Takayama, Gifu 509-2702, Japan",
        "latitude": 35.9376228,
        "longitude": 137.0845507
    },
    {
        "category": "camping sites",
        "title": "くるみ温泉&キャンプ場",
        "rating": 4.5,
        "address": "Japan, 〒509-3313 Gifu, Takayama, Asahicho Kurumijima, ８",
        "latitude": 35.999280999999996,
        "longitude": 137.3910824
    },
    {
        "category": "camping sites",
        "title": "新くるみランド",
        "rating": 4.5,
        "address": "Japan, 〒509-3313 Gifu, Takayama, Asahicho Kurumijima, 122-1",
        "latitude": 35.995751999999996,
        "longitude": 137.3929406
    },
    {
        "category": "camping sites",
        "title": "Sugoroku Pond Campground",
        "rating": 4.5,
        "address": "Kamitakaracho Kanakido, Takayama, Gifu 506-1308, Japan",
        "latitude": 36.3685927,
        "longitude": 137.6013945
    },
    {
        "category": "camping sites",
        "title": "Araragi Park Camping Ground",
        "rating": null,
        "address": "2501-1 Kugunocho Musugo, Takayama, Gifu 509-3214, Japan",
        "latitude": 36.0253987,
        "longitude": 137.21499169999998
    },
    {
        "category": "camping sites",
        "title": "平湯キャンプ場サイト",
        "rating": 4.5,
        "address": "Japan, 〒506-1433 Gifu, Takayama, Okuhida Onsengo Hirayu, 付近",
        "latitude": 36.1842483,
        "longitude": 137.5483688
    },
    {
        "category": "hiking trails",
        "title": "Ōkura falls trailhead",
        "rating": 4.3,
        "address": "Nameraza no Taki, 981 Kiyomicho Sakashita, Takayama, Gifu 506-0106, Japan",
        "latitude": 36.1042789,
        "longitude": 137.1177059
    },
    {
        "category": "hiking trails",
        "title": "Higashiyama Teramachi/Higashiyama Promenade",
        "rating": 4.5,
        "address": "ほか Tenshojimachi, Takayama, Gifu 506-0832, Japan",
        "latitude": 36.1449631,
        "longitude": 137.26328519999998
    },
    {
        "category": "hiking trails",
        "title": "Utsue Forty-Eight Waterfalls",
        "rating": 4.3,
        "address": "Kokufucho Utsue, Takayama, Gifu 509-4121, Japan",
        "latitude": 36.1968556,
        "longitude": 137.15712779999998
    },
    {
        "category": "hiking trails",
        "title": "Mt. Anbou Trailhead",
        "rating": 4.5,
        "address": "66V4+G3, Hida, Gifu, Japan",
        "latitude": 36.2437991,
        "longitude": 137.20513689999999
    },
    {
        "category": "hiking trails",
        "title": "Gendarme",
        "rating": 4.9,
        "address": "Japan, 〒506-1421 Gifu, Takayama, Okuhida Onsengo Kansaka, 上高地",
        "latitude": 36.2874019,
        "longitude": 137.6430478
    },
    {
        "category": "hiking trails",
        "title": "東山遊歩道",
        "rating": 4.7,
        "address": "Japan, 〒506-0843 Gifu, Takayama, Shimoichinomachi, 152",
        "latitude": 36.1462316,
        "longitude": 137.2602114
    },
    {
        "category": "hiking trails",
        "title": "Sanmachi Suji",
        "rating": 4.4,
        "address": "20 Kamisannomachi, Takayama, Gifu 506-0846, Japan",
        "latitude": 36.1413161,
        "longitude": 137.2596227
    },
    {
        "category": "hiking trails",
        "title": "Utsue Forty-Eight Waterfalls Prefectural Park",
        "rating": 4,
        "address": "Kokufucho Utsue, Takayama, Gifu 509-4121, Japan",
        "latitude": 36.197337999999995,
        "longitude": 137.16053159999998
    },
    {
        "category": "hiking trails",
        "title": "Takayama Jinya",
        "rating": 4.2,
        "address": "1 Chome-5 Hachikenmachi, Takayama, Gifu 506-0012, Japan",
        "latitude": 36.1396312,
        "longitude": 137.25760449999999
    },
    {
        "category": "hiking trails",
        "title": "平湯自然散策路",
        "rating": 4,
        "address": "Japan, 〒506-1433 Gifu, Takayama, Okuhida Onsengo Hirayu",
        "latitude": 36.1896681,
        "longitude": 137.5504521
    },
    {
        "category": "hiking trails",
        "title": "Yakedake",
        "rating": 4.7,
        "address": "上高地 Azumi, Matsumoto, Nagano 390-1516, Japan",
        "latitude": 36.2286668,
        "longitude": 137.5896651
    },
    {
        "category": "hiking trails",
        "title": "Kitayama Park ,Ayuzaki Castle Ruins",
        "rating": 3.7,
        "address": "Oshinmachi, Takayama, Gifu 506-0851, Japan",
        "latitude": 36.1519926,
        "longitude": 137.2588212
    },
    {
        "category": "hiking trails",
        "title": "Landmark on a peak",
        "rating": null,
        "address": "47XR+HM, Hida, Gifu, Japan",
        "latitude": 36.1489213,
        "longitude": 137.2917354
    },
    {
        "category": "hiking trails",
        "title": "Shiroyama Park",
        "rating": 4,
        "address": "Shiroyama, Takayama, Gifu 506-0822, Japan",
        "latitude": 36.1400419,
        "longitude": 137.263259
    },
    {
        "category": "hiking trails",
        "title": "Mt. Norikura Goshikigahara Forest",
        "rating": 4.2,
        "address": "471-3 Nyukawacho Kute, Takayama, Gifu 506-2252, Japan",
        "latitude": 36.1739963,
        "longitude": 137.5058395
    },
    {
        "category": "hiking trails",
        "title": "Mt. Choshigamine",
        "rating": 4.4,
        "address": "Takayama, Gifu 501-5426, Japan",
        "latitude": 36.0619637,
        "longitude": 136.7654594
    },
    {
        "category": "hiking trails",
        "title": "Takayama Walking Tour",
        "rating": null,
        "address": "110 Kamiichinomachi, Takayama, Gifu 506-0844, Japan",
        "latitude": 36.13997,
        "longitude": 137.26051999999999
    },
    {
        "category": "hiking trails",
        "title": "洗心の森",
        "rating": 4,
        "address": "Japan, 〒509-4107 Gifu, Takayama, Kokufucho Nishimonzen",
        "latitude": 36.2270505,
        "longitude": 137.2439335
    },
    {
        "category": "hiking trails",
        "title": "Mt. Ambo",
        "rating": 4.4,
        "address": "Furukawacho Kamikita, Hida, Gifu 509-4212, Japan",
        "latitude": 36.250010599999996,
        "longitude": 137.2126927
    },
    {
        "category": "hiking trails",
        "title": "Mt. Kasagatake Trailhead",
        "rating": 3.5,
        "address": "Okuhida Onsengo Kansaka, Takayama, Gifu 506-1421, Japan",
        "latitude": 36.306506399999996,
        "longitude": 137.5890369
    },
    {
        "category": "ecotourism areas",
        "title": "Takayama Jinya",
        "rating": 4.2,
        "address": "1 Chome-5 Hachikenmachi, Takayama, Gifu 506-0012, Japan",
        "latitude": 36.1396312,
        "longitude": 137.25760449999999
    },
    {
        "category": "ecotourism areas",
        "title": "Hida no Sato Folk Village Museum",
        "rating": 4.4,
        "address": "1 Chome-590 Kamiokamotomachi, Takayama, Gifu 506-0055, Japan",
        "latitude": 36.1324902,
        "longitude": 137.2350898
    },
    {
        "category": "ecotourism areas",
        "title": "Miyagawa Morning Markets",
        "rating": 4.1,
        "address": "Shimosannomachi, Takayama, Gifu 506-0841, Japan",
        "latitude": 36.144704,
        "longitude": 137.2579466
    },
    {
        "category": "ecotourism areas",
        "title": "Squirrel Forest Hidayama Wild Grass Nature Garden",
        "rating": 4.2,
        "address": "2351-7 Matsukuramachi, Takayama, Gifu 506-0034, Japan",
        "latitude": 36.116528699999996,
        "longitude": 137.22156139999998
    },
    {
        "category": "ecotourism areas",
        "title": "Takayama Sky Park",
        "rating": 4.3,
        "address": "7 Chome-417-1 Kamiokamotomachi, Takayama, Gifu 506-0055, Japan",
        "latitude": 36.146239699999995,
        "longitude": 137.2396645
    },
    {
        "category": "ecotourism areas",
        "title": "Hida Great Limestone Cave",
        "rating": 4.1,
        "address": "1147 Nyukawacho Hiyomo, Takayama, Gifu 506-2256, Japan",
        "latitude": 36.1838158,
        "longitude": 137.4248082
    },
    {
        "category": "ecotourism areas",
        "title": "Shinhotaka Ropeway",
        "rating": 4.5,
        "address": "710-7 Okuhida Onsengo Kansaka, Takayama, Gifu 506-1421, Japan",
        "latitude": 36.2857919,
        "longitude": 137.5752622
    },
    {
        "category": "ecotourism areas",
        "title": "Sanmachi Suji",
        "rating": 4.4,
        "address": "20 Kamisannomachi, Takayama, Gifu 506-0846, Japan",
        "latitude": 36.1413161,
        "longitude": 137.2596227
    },
    {
        "category": "ecotourism areas",
        "title": "Takayama Shōwa-kan Museum",
        "rating": 4.4,
        "address": "6番地, Shimoichinomachi, Takayama, Gifu 506-0843, Japan",
        "latitude": 36.143974799999995,
        "longitude": 137.2599215
    },
    {
        "category": "ecotourism areas",
        "title": "Mt. Norikura Goshikigahara Forest",
        "rating": 4.2,
        "address": "471-3 Nyukawacho Kute, Takayama, Gifu 506-2252, Japan",
        "latitude": 36.1739963,
        "longitude": 137.5058395
    },
    {
        "category": "ecotourism areas",
        "title": "Hidatakayama Town Museum",
        "rating": 4.1,
        "address": "75 Kamiichinomachi, Takayama, Gifu 506-0844, Japan",
        "latitude": 36.1422968,
        "longitude": 137.2611723
    },
    {
        "category": "ecotourism areas",
        "title": "Hida Takayama Retro Museum",
        "rating": 4.3,
        "address": "4 Chome-7 Shinmeimachi, Takayama, Gifu 506-0821, Japan",
        "latitude": 36.1391025,
        "longitude": 137.2598451
    },
    {
        "category": "ecotourism areas",
        "title": "Utsue Forty-Eight Waterfalls",
        "rating": 4.3,
        "address": "Kokufucho Utsue, Takayama, Gifu 509-4121, Japan",
        "latitude": 36.1968556,
        "longitude": 137.15712779999998
    },
    {
        "category": "ecotourism areas",
        "title": "Takayama Castle Ruins",
        "rating": 3.8,
        "address": "Shiroyama, Takayama, Gifu 506-0822, Japan",
        "latitude": 36.138093,
        "longitude": 137.2632319
    },
    {
        "category": "ecotourism areas",
        "title": "Takayama Matsuri Yatai Kaikan",
        "rating": 4,
        "address": "178 Sakuramachi, Takayama, Gifu 506-0858, Japan",
        "latitude": 36.148341699999996,
        "longitude": 137.2601188
    },
    {
        "category": "ecotourism areas",
        "title": "Norikura Tatamidaira",
        "rating": 4.6,
        "address": "Nyukawacho Iwaidani, Takayama, Gifu 506-2254, Japan",
        "latitude": 36.1247548,
        "longitude": 137.55376619999998
    },
    {
        "category": "ecotourism areas",
        "title": "Shiroyama Park",
        "rating": 4,
        "address": "Shiroyama, Takayama, Gifu 506-0822, Japan",
        "latitude": 36.1400419,
        "longitude": 137.263259
    },
    {
        "category": "ecotourism areas",
        "title": "Takayama Information Center",
        "rating": 4,
        "address": "5 Chome-51 Hanasatomachi, Takayama, Gifu 506-0026, Japan",
        "latitude": 36.141427199999995,
        "longitude": 137.25166389999998
    },
    {
        "category": "ecotourism areas",
        "title": "Sakurayama Hachimangu Shrine",
        "rating": 4.4,
        "address": "178 Sakuramachi, Takayama, Gifu 506-0858, Japan",
        "latitude": 36.148444999999995,
        "longitude": 137.2608132
    },
    {
        "category": "ecotourism areas",
        "title": "Nakabashi Park",
        "rating": 4.3,
        "address": "５０番地4ほか Kawaharamachi, Takayama, Gifu 506-0023, Japan",
        "latitude": 36.1397812,
        "longitude": 137.2588666
    },
    {
        "category": "temples",
        "title": "Hida Kokubun-ji Temple",
        "rating": 4.2,
        "address": "1 Chome-83 Sowamachi, Takayama, Gifu 506-0007, Japan",
        "latitude": 36.1434743,
        "longitude": 137.253864
    },
    {
        "category": "temples",
        "title": "Takayama Betsuin Shoren-ji Temple",
        "rating": 4,
        "address": "6 Teppomachi, Takayama, Gifu 506-0857, Japan",
        "latitude": 36.1456243,
        "longitude": 137.26094759999998
    },
    {
        "category": "temples",
        "title": "Sakurayama Hachimangu Shrine",
        "rating": 4.4,
        "address": "178 Sakuramachi, Takayama, Gifu 506-0858, Japan",
        "latitude": 36.148444999999995,
        "longitude": 137.2608132
    },
    {
        "category": "temples",
        "title": "Senko-ji Temple",
        "rating": 4.3,
        "address": "1553 Nyukawacho Shimobo, Takayama, Gifu 506-2135, Japan",
        "latitude": 36.1899752,
        "longitude": 137.288125
    },
    {
        "category": "temples",
        "title": "Takayamazenko Temple",
        "rating": 4.7,
        "address": "4 Chome-3 Tenmanmachi, Takayama, Gifu 506-0025, Japan",
        "latitude": 36.1386702,
        "longitude": 137.2544231
    },
    {
        "category": "temples",
        "title": "Daiohji Temple",
        "rating": 4.4,
        "address": "67 Atagomachi, Takayama, Gifu 506-0855, Japan",
        "latitude": 36.1447183,
        "longitude": 137.2642147
    },
    {
        "category": "temples",
        "title": "Hie Shrine",
        "rating": 4.5,
        "address": "156 Shiroyama, Takayama, Gifu 506-0822, Japan",
        "latitude": 36.133178799999996,
        "longitude": 137.2613871
    },
    {
        "category": "temples",
        "title": "Hida Tenmangu Shrine",
        "rating": 4.2,
        "address": "2 Chome-30 Tenmanmachi, Takayama, Gifu 506-0025, Japan",
        "latitude": 36.134596699999996,
        "longitude": 137.2550068
    },
    {
        "category": "temples",
        "title": "Hokke-ji",
        "rating": 4,
        "address": "62 Tenshojimachi, Takayama, Gifu 506-0832, Japan",
        "latitude": 36.142702,
        "longitude": 137.26585799999998
    },
    {
        "category": "temples",
        "title": "Sogen-ji",
        "rating": 4.2,
        "address": "39 Tenshojimachi, Takayama, Gifu 506-0832, Japan",
        "latitude": 36.143679999999996,
        "longitude": 137.265422
    },
    {
        "category": "temples",
        "title": "Zenn'o-ji",
        "rating": 4.4,
        "address": "177 Soyujimachi, Takayama, Gifu 506-0834, Japan",
        "latitude": 36.142235,
        "longitude": 137.266455
    },
    {
        "category": "temples",
        "title": "Unryu-ji",
        "rating": 4.2,
        "address": "1 Chome-86 Wakatatsumachi, Takayama, Gifu 506-0854, Japan",
        "latitude": 36.145323999999995,
        "longitude": 137.264166
    },
    {
        "category": "temples",
        "title": "宿坊 高山善光寺｜TEMPLE HOTEL TAKAYAMA ZENKO-JI",
        "rating": 4.7,
        "address": "4 Chome-3 Tenmanmachi, Takayama, Gifu 506-0025, Japan",
        "latitude": 36.1387085,
        "longitude": 137.2544836
    },
    {
        "category": "temples",
        "title": "Soyu Hondo Temple",
        "rating": 4.4,
        "address": "218 Soyujimachi, Takayama, Gifu 506-0834, Japan",
        "latitude": 36.141166,
        "longitude": 137.266774
    },
    {
        "category": "temples",
        "title": "Shoren-ji Temple",
        "rating": 3.8,
        "address": "8 Horibatamachi, Takayama, Gifu 506-0837, Japan",
        "latitude": 36.1393,
        "longitude": 137.262353
    },
    {
        "category": "temples",
        "title": "Tensho-ji",
        "rating": 4.2,
        "address": "83 Tenshojimachi, Takayama, Gifu 506-0832, Japan",
        "latitude": 36.1433135,
        "longitude": 137.2657309
    },
    {
        "category": "temples",
        "title": "Yamazakura Shrine",
        "rating": 4.1,
        "address": "2 Chome-65 Honmachi, Takayama, Gifu 506-0011, Japan",
        "latitude": 36.142115499999996,
        "longitude": 137.2578121
    },
    {
        "category": "temples",
        "title": "Ankokuji",
        "rating": 4,
        "address": "474 Kokufucho Nishimonzen, Takayama, Gifu 509-4107, Japan",
        "latitude": 36.2245657,
        "longitude": 137.2448447
    },
    {
        "category": "temples",
        "title": "Takayama Tōshōgū",
        "rating": 4.2,
        "address": "3 Chome-1004 Nishinoisshikimachi, Takayama, Gifu 506-0031, Japan",
        "latitude": 36.134274999999995,
        "longitude": 137.24355699999998
    },
    {
        "category": "temples",
        "title": "Seiden-ji Temple",
        "rating": 4,
        "address": "561-1 Enakomachi, Takayama, Gifu 506-0818, Japan",
        "latitude": 36.139001199999996,
        "longitude": 137.2672594
    },
    {
        "category": "museums",
        "title": "Takayama Shōwa-kan Museum",
        "rating": 4.4,
        "address": "6番地, Shimoichinomachi, Takayama, Gifu 506-0843, Japan",
        "latitude": 36.143974799999995,
        "longitude": 137.2599215
    },
    {
        "category": "museums",
        "title": "Hidatakayama Town Museum",
        "rating": 4.1,
        "address": "75 Kamiichinomachi, Takayama, Gifu 506-0844, Japan",
        "latitude": 36.1422968,
        "longitude": 137.2611723
    },
    {
        "category": "museums",
        "title": "Hida no Sato Folk Village Museum",
        "rating": 4.4,
        "address": "1 Chome-590 Kamiokamotomachi, Takayama, Gifu 506-0055, Japan",
        "latitude": 36.1324902,
        "longitude": 137.2350898
    },
    {
        "category": "museums",
        "title": "Hida Takayama Teddy Bear Eco Village",
        "rating": 4.1,
        "address": "3 Chome-829-4 Nishinoisshikimachi, Takayama, Gifu 506-0031, Japan",
        "latitude": 36.134776099999996,
        "longitude": 137.2387813
    },
    {
        "category": "museums",
        "title": "Hida Takayama Museum of Art",
        "rating": 4.2,
        "address": "サンクチュアリコート高山 アートギャラリーリゾート 内, 1 Chome-124-1 Kamiokamotomachi, Takayama, Gifu 506-0055, Japan",
        "latitude": 36.1366279,
        "longitude": 137.2409008
    },
    {
        "category": "museums",
        "title": "Takayama Matsuri Yatai Kaikan",
        "rating": 4,
        "address": "178 Sakuramachi, Takayama, Gifu 506-0858, Japan",
        "latitude": 36.148341699999996,
        "longitude": 137.2601188
    },
    {
        "category": "museums",
        "title": "Sakurayama Nikkokan",
        "rating": 4.3,
        "address": "178 Sakuramachi, Takayama, Gifu 506-0858, Japan",
        "latitude": 36.1478284,
        "longitude": 137.2600933
    },
    {
        "category": "museums",
        "title": "Hida Takayama Retro Museum",
        "rating": 4.3,
        "address": "4 Chome-7 Shinmeimachi, Takayama, Gifu 506-0821, Japan",
        "latitude": 36.1391025,
        "longitude": 137.2598451
    },
    {
        "category": "museums",
        "title": "Hikaru Museum",
        "rating": 4.3,
        "address": "175 Nakayamamachi, Takayama, Gifu 506-0051, Japan",
        "latitude": 36.1561725,
        "longitude": 137.2344541
    },
    {
        "category": "museums",
        "title": "Takayama Municipal Government Memorial Hall",
        "rating": 3.9,
        "address": "4 Chome-15 Shinmeimachi, Takayama, Gifu 506-0821, Japan",
        "latitude": 36.1398499,
        "longitude": 137.2600031
    },
    {
        "category": "museums",
        "title": "Hirayu Folk Museum",
        "rating": 4.3,
        "address": "Okuhida Onsengo Hirayu, Takayama, Gifu 506-1433, Japan",
        "latitude": 36.191838499999996,
        "longitude": 137.55460449999998
    },
    {
        "category": "museums",
        "title": "Finn Juhl Art Museum Club",
        "rating": 4.4,
        "address": "Matsukuramachi, Takayama, Gifu 506-0034, Japan",
        "latitude": 36.1204564,
        "longitude": 137.2322946
    },
    {
        "category": "museums",
        "title": "Hida Great Limestone Cave",
        "rating": 4.1,
        "address": "1147 Nyukawacho Hiyomo, Takayama, Gifu 506-2256, Japan",
        "latitude": 36.1838158,
        "longitude": 137.4248082
    },
    {
        "category": "museums",
        "title": "Kusakabe Traditional House",
        "rating": 4.1,
        "address": "日下部民藝館 2階 奥, 1 Chome-５２-52 Oshinmachi, Takayama, Gifu 506-0851, Japan",
        "latitude": 36.146416699999996,
        "longitude": 137.2584306
    },
    {
        "category": "museums",
        "title": "Museum Hida",
        "rating": 3.9,
        "address": "900-1 Chishimamachi, Takayama, Gifu 506-0032, Japan",
        "latitude": 36.120607,
        "longitude": 137.25425719999998
    },
    {
        "category": "museums",
        "title": "Matsuri no Mori Museum",
        "rating": 4.1,
        "address": "1111-1 Chishimamachi, Takayama, Gifu 506-0032, Japan",
        "latitude": 36.1193677,
        "longitude": 137.2488364
    },
    {
        "category": "museums",
        "title": "Takumi no Yakata Forest Aquarium",
        "rating": 4.5,
        "address": "532 Nyukawacho Gonbo, Takayama, Gifu 506-2117, Japan",
        "latitude": 36.177093899999996,
        "longitude": 137.37534689999998
    },
    {
        "category": "museums",
        "title": "Hida Takumi Carpentry Museum (Hida no Takumi Bunkakan)",
        "rating": 4.1,
        "address": "10-1 Furukawacho Ichinomachi, Hida, Gifu 509-4234, Japan",
        "latitude": 36.236124,
        "longitude": 137.1856984
    },
    {
        "category": "museums",
        "title": "Chanoyu Museum",
        "rating": 4.1,
        "address": "1070 Chishimamachi, Takayama, Gifu 506-0032, Japan",
        "latitude": 36.120958,
        "longitude": 137.249754
    },
    {
        "category": "museums",
        "title": "World War 2 Museum",
        "rating": 4.7,
        "address": "21 Shimoichinomachi, Takayama, Gifu 506-0843, Japan",
        "latitude": 36.1446964,
        "longitude": 137.259808
    },
    {
        "category": "night markets",
        "title": "Miyagawa Morning Markets",
        "rating": 4.1,
        "address": "Shimosannomachi, Takayama, Gifu 506-0841, Japan",
        "latitude": 36.144704,
        "longitude": 137.2579466
    },
    {
        "category": "night markets",
        "title": "Jinya-mae Morning Markets",
        "rating": 3.9,
        "address": "1 Chome-5 Hachikenmachi, Takayama, Gifu 506-0012, Japan",
        "latitude": 36.1396447,
        "longitude": 137.2582195
    },
    {
        "category": "night markets",
        "title": "Takayama Jinya",
        "rating": 4.2,
        "address": "1 Chome-5 Hachikenmachi, Takayama, Gifu 506-0012, Japan",
        "latitude": 36.1396312,
        "longitude": 137.25760449999999
    },
    {
        "category": "night markets",
        "title": "Takayama Matsuri Yatai Kaikan",
        "rating": 4,
        "address": "178 Sakuramachi, Takayama, Gifu 506-0858, Japan",
        "latitude": 36.148341699999996,
        "longitude": 137.2601188
    },
    {
        "category": "night markets",
        "title": "Sanmachi-dori",
        "rating": 4.5,
        "address": "さんまち通り, Takayama, Gifu 506-0846, Japan",
        "latitude": 36.141572499999995,
        "longitude": 137.2595503
    },
    {
        "category": "night markets",
        "title": "Takayama Shōwa-kan Museum",
        "rating": 4.4,
        "address": "6番地, Shimoichinomachi, Takayama, Gifu 506-0843, Japan",
        "latitude": 36.143974799999995,
        "longitude": 137.2599215
    },
    {
        "category": "night markets",
        "title": "Sanmachi Suji",
        "rating": 4.4,
        "address": "20 Kamisannomachi, Takayama, Gifu 506-0846, Japan",
        "latitude": 36.1413161,
        "longitude": 137.2596227
    },
    {
        "category": "night markets",
        "title": "Takayama Sky Park",
        "rating": 4.3,
        "address": "7 Chome-417-1 Kamiokamotomachi, Takayama, Gifu 506-0055, Japan",
        "latitude": 36.146239699999995,
        "longitude": 137.2396645
    },
    {
        "category": "night markets",
        "title": "Hida no Sato Folk Village Museum",
        "rating": 4.4,
        "address": "1 Chome-590 Kamiokamotomachi, Takayama, Gifu 506-0055, Japan",
        "latitude": 36.1324902,
        "longitude": 137.2350898
    },
    {
        "category": "night markets",
        "title": "The old townscape of Hidatakayama Sanmachi Historic District",
        "rating": 4.4,
        "address": "Kamiichinomachi, Takayama, Gifu 506-0000, Japan",
        "latitude": 36.1418055,
        "longitude": 137.2594747
    },
    {
        "category": "night markets",
        "title": "Takayama Old Town",
        "rating": 4.6,
        "address": "43番地, 43 Kamininomachi, Takayama, Gifu 506-0845, Japan",
        "latitude": 36.1429901,
        "longitude": 137.2594717
    },
    {
        "category": "night markets",
        "title": "Heianraku",
        "rating": 4.9,
        "address": "6 Chome-７の2 Tenmanmachi, Takayama, Gifu 506-0025, Japan",
        "latitude": 36.1426357,
        "longitude": 137.2539223
    },
    {
        "category": "night markets",
        "title": "Hida Takayama Gyoza Sohonzan",
        "rating": 4.7,
        "address": "24-8 Asahimachi, Takayama, Gifu 506-0017, Japan",
        "latitude": 36.143784,
        "longitude": 137.2566336
    },
    {
        "category": "night markets",
        "title": "Sakurayama Hachimangu Shrine",
        "rating": 4.4,
        "address": "178 Sakuramachi, Takayama, Gifu 506-0858, Japan",
        "latitude": 36.148444999999995,
        "longitude": 137.2608132
    },
    {
        "category": "viewpoints",
        "title": "The old townscape of Hidatakayama Sanmachi Historic District",
        "rating": 4.4,
        "address": "Kamiichinomachi, Takayama, Gifu 506-0000, Japan",
        "latitude": 36.1418055,
        "longitude": 137.2594747
    },
    {
        "category": "viewpoints",
        "title": "Takayama Jinya",
        "rating": 4.2,
        "address": "1 Chome-5 Hachikenmachi, Takayama, Gifu 506-0012, Japan",
        "latitude": 36.1396312,
        "longitude": 137.25760449999999
    },
    {
        "category": "viewpoints",
        "title": "Takayama Sky Park",
        "rating": 4.3,
        "address": "7 Chome-417-1 Kamiokamotomachi, Takayama, Gifu 506-0055, Japan",
        "latitude": 36.146239699999995,
        "longitude": 137.2396645
    },
    {
        "category": "viewpoints",
        "title": "Sanmachi-dori",
        "rating": 4.5,
        "address": "さんまち通り, Takayama, Gifu 506-0846, Japan",
        "latitude": 36.141572499999995,
        "longitude": 137.2595503
    },
    {
        "category": "viewpoints",
        "title": "Sanmachi Suji",
        "rating": 4.4,
        "address": "20 Kamisannomachi, Takayama, Gifu 506-0846, Japan",
        "latitude": 36.1413161,
        "longitude": 137.2596227
    },
    {
        "category": "viewpoints",
        "title": "Shinhotaka Ropeway",
        "rating": 4.5,
        "address": "710-7 Okuhida Onsengo Kansaka, Takayama, Gifu 506-1421, Japan",
        "latitude": 36.2857919,
        "longitude": 137.5752622
    },
    {
        "category": "viewpoints",
        "title": "Takayama Castle Ruins",
        "rating": 3.8,
        "address": "Shiroyama, Takayama, Gifu 506-0822, Japan",
        "latitude": 36.138093,
        "longitude": 137.2632319
    },
    {
        "category": "viewpoints",
        "title": "Higashiyama Teramachi/Higashiyama Promenade",
        "rating": 4.5,
        "address": "ほか Tenshojimachi, Takayama, Gifu 506-0832, Japan",
        "latitude": 36.1449631,
        "longitude": 137.26328519999998
    },
    {
        "category": "viewpoints",
        "title": "Utsue Forty-Eight Waterfalls Lookout",
        "rating": 4.5,
        "address": "Kokufucho Utsue, Takayama, Gifu 509-4121, Japan",
        "latitude": 36.1965673,
        "longitude": 137.1518656
    },
    {
        "category": "viewpoints",
        "title": "東山遊歩道",
        "rating": 4.7,
        "address": "Japan, 〒506-0843 Gifu, Takayama, Shimoichinomachi, 152",
        "latitude": 36.1462316,
        "longitude": 137.2602114
    },
    {
        "category": "viewpoints",
        "title": "Shiroyama Park",
        "rating": 4,
        "address": "Shiroyama, Takayama, Gifu 506-0822, Japan",
        "latitude": 36.1400419,
        "longitude": 137.263259
    },
    {
        "category": "viewpoints",
        "title": "viewpoint",
        "rating": null,
        "address": "4 Chome-38 Shinmeimachi, Takayama, Gifu 506-0821, Japan",
        "latitude": 36.1391802,
        "longitude": 137.26127449999998
    },
    {
        "category": "viewpoints",
        "title": "Nishihotakaguchi Station Observation Deck",
        "rating": 4.5,
        "address": "字栗尾-445 Okuhida Onsengo Nakao, Takayama, Gifu 506-1421, Japan",
        "latitude": 36.2681039,
        "longitude": 137.60168009999998
    },
    {
        "category": "viewpoints",
        "title": "Miyagawa Morning Markets",
        "rating": 4.1,
        "address": "Shimosannomachi, Takayama, Gifu 506-0841, Japan",
        "latitude": 36.144704,
        "longitude": 137.2579466
    },
    {
        "category": "viewpoints",
        "title": "Hida no Sato Folk Village Museum",
        "rating": 4.4,
        "address": "1 Chome-590 Kamiokamotomachi, Takayama, Gifu 506-0055, Japan",
        "latitude": 36.1324902,
        "longitude": 137.2350898
    },
    {
        "category": "viewpoints",
        "title": "Utsue Forty-Eight Waterfalls",
        "rating": 4.3,
        "address": "Kokufucho Utsue, Takayama, Gifu 509-4121, Japan",
        "latitude": 36.1968556,
        "longitude": 137.15712779999998
    },
    {
        "category": "viewpoints",
        "title": "鈴蘭高原展望台",
        "rating": 4.3,
        "address": "Japan, 〒509-3314 Gifu, Takayama, Asahicho Nishibora",
        "latitude": 35.9921112,
        "longitude": 137.35084849999998
    },
    {
        "category": "viewpoints",
        "title": "見学の丘",
        "rating": 4.1,
        "address": "Japan, 〒506-2134 Gifu, Takayama, Nyukawacho Kiriyama, 2640-2",
        "latitude": 36.179957,
        "longitude": 137.3149746
    },
    {
        "category": "viewpoints",
        "title": "Kitayama Park ,Ayuzaki Castle Ruins",
        "rating": 3.7,
        "address": "Oshinmachi, Takayama, Gifu 506-0851, Japan",
        "latitude": 36.1519926,
        "longitude": 137.2588212
    },
    {
        "category": "viewpoints",
        "title": "Takayama Shōwa-kan Museum",
        "rating": 4.4,
        "address": "6番地, Shimoichinomachi, Takayama, Gifu 506-0843, Japan",
        "latitude": 36.143974799999995,
        "longitude": 137.2599215
    },
    {
        "category": "gardens",
        "title": "Squirrel Forest Hidayama Wild Grass Nature Garden",
        "rating": 4.2,
        "address": "2351-7 Matsukuramachi, Takayama, Gifu 506-0034, Japan",
        "latitude": 36.116528699999996,
        "longitude": 137.22156139999998
    },
    {
        "category": "gardens",
        "title": "Takayama Jinya",
        "rating": 4.2,
        "address": "1 Chome-5 Hachikenmachi, Takayama, Gifu 506-0012, Japan",
        "latitude": 36.1396312,
        "longitude": 137.25760449999999
    },
    {
        "category": "gardens",
        "title": "Sanmachi Suji",
        "rating": 4.4,
        "address": "20 Kamisannomachi, Takayama, Gifu 506-0846, Japan",
        "latitude": 36.1413161,
        "longitude": 137.2596227
    },
    {
        "category": "gardens",
        "title": "Takayama Sky Park",
        "rating": 4.3,
        "address": "7 Chome-417-1 Kamiokamotomachi, Takayama, Gifu 506-0055, Japan",
        "latitude": 36.146239699999995,
        "longitude": 137.2396645
    },
    {
        "category": "gardens",
        "title": "Miyagawa Morning Markets",
        "rating": 4.1,
        "address": "Shimosannomachi, Takayama, Gifu 506-0841, Japan",
        "latitude": 36.144704,
        "longitude": 137.2579466
    },
    {
        "category": "gardens",
        "title": "Shiroyama Park",
        "rating": 4,
        "address": "Shiroyama, Takayama, Gifu 506-0822, Japan",
        "latitude": 36.1400419,
        "longitude": 137.263259
    },
    {
        "category": "gardens",
        "title": "Hidatakayama Town Museum",
        "rating": 4.1,
        "address": "75 Kamiichinomachi, Takayama, Gifu 506-0844, Japan",
        "latitude": 36.1422968,
        "longitude": 137.2611723
    },
    {
        "category": "gardens",
        "title": "Miyagawa Ryokuchi Park",
        "rating": 4.1,
        "address": "1 Chome Kiriumachi, Takayama, Gifu 506-0004, Japan",
        "latitude": 36.1526966,
        "longitude": 137.25554019999998
    },
    {
        "category": "gardens",
        "title": "Hida no Sato Folk Village Museum",
        "rating": 4.4,
        "address": "1 Chome-590 Kamiokamotomachi, Takayama, Gifu 506-0055, Japan",
        "latitude": 36.1324902,
        "longitude": 137.2350898
    },
    {
        "category": "gardens",
        "title": "Nakabashi Park",
        "rating": 4.3,
        "address": "５０番地4ほか Kawaharamachi, Takayama, Gifu 506-0023, Japan",
        "latitude": 36.1397812,
        "longitude": 137.2588666
    },
    {
        "category": "gardens",
        "title": "飛騨高山まつりの森",
        "rating": 4.2,
        "address": "Japan, 〒506-0032 Gifu, Takayama, Chishimamachi, 1111",
        "latitude": 36.1192589,
        "longitude": 137.24886569999998
    },
    {
        "category": "gardens",
        "title": "Hida Great Limestone Cave",
        "rating": 4.1,
        "address": "1147 Nyukawacho Hiyomo, Takayama, Gifu 506-2256, Japan",
        "latitude": 36.1838158,
        "longitude": 137.4248082
    },
    {
        "category": "gardens",
        "title": "Sakurayama Hachimangu Shrine",
        "rating": 4.4,
        "address": "178 Sakuramachi, Takayama, Gifu 506-0858, Japan",
        "latitude": 36.148444999999995,
        "longitude": 137.2608132
    },
    {
        "category": "gardens",
        "title": "Higashiyama Teramachi/Higashiyama Promenade",
        "rating": 4.5,
        "address": "ほか Tenshojimachi, Takayama, Gifu 506-0832, Japan",
        "latitude": 36.1449631,
        "longitude": 137.26328519999998
    },
    {
        "category": "gardens",
        "title": "Takayama Castle Ruins",
        "rating": 3.8,
        "address": "Shiroyama, Takayama, Gifu 506-0822, Japan",
        "latitude": 36.138093,
        "longitude": 137.2632319
    },
    {
        "category": "gardens",
        "title": "宿坊 高山善光寺｜TEMPLE HOTEL TAKAYAMA ZENKO-JI",
        "rating": 4.7,
        "address": "4 Chome-3 Tenmanmachi, Takayama, Gifu 506-0025, Japan",
        "latitude": 36.1387085,
        "longitude": 137.2544836
    },
    {
        "category": "gardens",
        "title": "Flower forest (Utsue 48 waterfall park)",
        "rating": 4,
        "address": "3232-1 Kokufucho Utsue, Takayama, Gifu 509-4121, Japan",
        "latitude": 36.1966399,
        "longitude": 137.1617585
    },
    {
        "category": "gardens",
        "title": "Mt. Norikura Goshikigahara Forest",
        "rating": 4.2,
        "address": "471-3 Nyukawacho Kute, Takayama, Gifu 506-2252, Japan",
        "latitude": 36.1739963,
        "longitude": 137.5058395
    },
    {
        "category": "gardens",
        "title": "Hida Takayama Museum of Art",
        "rating": 4.2,
        "address": "サンクチュアリコート高山 アートギャラリーリゾート 内, 1 Chome-124-1 Kamiokamotomachi, Takayama, Gifu 506-0055, Japan",
        "latitude": 36.1366279,
        "longitude": 137.2409008
    },
    {
        "category": "gardens",
        "title": "[Sugi Bee Garden] Hidatakayama Store",
        "rating": 4.4,
        "address": "25 Kamisannomachi, Takayama, Gifu 506-0846, Japan",
        "latitude": 36.1414986,
        "longitude": 137.25953909999998
    },
    {
        "category": "zoo",
        "title": "Okuhida Bear's Ranch",
        "rating": 3.9,
        "address": "2535-309 Okuhida Onsengo Hitoegane, Takayama, Gifu 506-1432, Japan",
        "latitude": 36.2195827,
        "longitude": 137.54329239999998
    },
    {
        "category": "zoo",
        "title": "Squirrel Forest Hidayama Wild Grass Nature Garden",
        "rating": 4.2,
        "address": "2351-7 Matsukuramachi, Takayama, Gifu 506-0034, Japan",
        "latitude": 36.116528699999996,
        "longitude": 137.22156139999998
    },
    {
        "category": "zoo",
        "title": "Bokkanosato",
        "rating": 4.2,
        "address": "2756-2 Takasucho Washimi, Gujo, Gifu 501-5302, Japan",
        "latitude": 35.9829541,
        "longitude": 136.9242255
    },
    {
        "category": "zoo",
        "title": "Takumi no Yakata Forest Aquarium",
        "rating": 4.5,
        "address": "532 Nyukawacho Gonbo, Takayama, Gifu 506-2117, Japan",
        "latitude": 36.177093899999996,
        "longitude": 137.37534689999998
    },
    {
        "category": "zoo",
        "title": "Ishikawa Zoo",
        "rating": 4.3,
        "address": "600 Tokusanmachi, Nomi, Ishikawa 923-1222, Japan",
        "latitude": 36.4331479,
        "longitude": 136.5459045
    },
    {
        "category": "zoo",
        "title": "Takayama Sky Park",
        "rating": 4.3,
        "address": "7 Chome-417-1 Kamiokamotomachi, Takayama, Gifu 506-0055, Japan",
        "latitude": 36.146239699999995,
        "longitude": 137.2396645
    },
    {
        "category": "zoo",
        "title": "Hida no Sato Folk Village Museum",
        "rating": 4.4,
        "address": "1 Chome-590 Kamiokamotomachi, Takayama, Gifu 506-0055, Japan",
        "latitude": 36.1324902,
        "longitude": 137.2350898
    },
    {
        "category": "zoo",
        "title": "Shinhotaka Ropeway",
        "rating": 4.5,
        "address": "710-7 Okuhida Onsengo Kansaka, Takayama, Gifu 506-1421, Japan",
        "latitude": 36.2857919,
        "longitude": 137.5752622
    },
    {
        "category": "zoo",
        "title": "Hida Takayama Teddy Bear Eco Village",
        "rating": 4.1,
        "address": "3 Chome-829-4 Nishinoisshikimachi, Takayama, Gifu 506-0031, Japan",
        "latitude": 36.134776099999996,
        "longitude": 137.2387813
    },
    {
        "category": "zoo",
        "title": "Utsue Forty-Eight Waterfalls",
        "rating": 4.3,
        "address": "Kokufucho Utsue, Takayama, Gifu 509-4121, Japan",
        "latitude": 36.1968556,
        "longitude": 137.15712779999998
    },
    {
        "category": "zoo",
        "title": "Shiroyama Park",
        "rating": 4,
        "address": "Shiroyama, Takayama, Gifu 506-0822, Japan",
        "latitude": 36.1400419,
        "longitude": 137.263259
    },
    {
        "category": "zoo",
        "title": "Hida Takayama Museum of Art",
        "rating": 4.2,
        "address": "サンクチュアリコート高山 アートギャラリーリゾート 内, 1 Chome-124-1 Kamiokamotomachi, Takayama, Gifu 506-0055, Japan",
        "latitude": 36.1366279,
        "longitude": 137.2409008
    },
    {
        "category": "zoo",
        "title": "親水公園 (たるまの滝)",
        "rating": 3.9,
        "address": "Japan, 〒506-1432 Gifu, Takayama, Okuhida Onsengo Hitoegane, 1041",
        "latitude": 36.237587999999995,
        "longitude": 137.5248042
    },
    {
        "category": "adventure parks",
        "title": "Bokkanosato",
        "rating": 4.2,
        "address": "2756-2 Takasucho Washimi, Gujo, Gifu 501-5302, Japan",
        "latitude": 35.9829541,
        "longitude": 136.9242255
    },
    {
        "category": "adventure parks",
        "title": "Squirrel Forest Hidayama Wild Grass Nature Garden",
        "rating": 4.2,
        "address": "2351-7 Matsukuramachi, Takayama, Gifu 506-0034, Japan",
        "latitude": 36.116528699999996,
        "longitude": 137.22156139999998
    },
    {
        "category": "adventure parks",
        "title": "Okuhida Bear's Ranch",
        "rating": 3.9,
        "address": "2535-309 Okuhida Onsengo Hitoegane, Takayama, Gifu 506-1432, Japan",
        "latitude": 36.2195827,
        "longitude": 137.54329239999998
    },
    {
        "category": "adventure parks",
        "title": "Hida Takayama Retro Museum",
        "rating": 4.3,
        "address": "4 Chome-7 Shinmeimachi, Takayama, Gifu 506-0821, Japan",
        "latitude": 36.1391025,
        "longitude": 137.2598451
    },
    {
        "category": "adventure parks",
        "title": "それいけ！あく魔の森",
        "rating": 5,
        "address": "Japan, 〒501-5302 Gifu, Gujo, Takasucho Washimi, 字上野5175",
        "latitude": 35.9803467,
        "longitude": 136.91148139999999
    },
    {
        "category": "adventure parks",
        "title": "Mt. Norikura Goshikigahara Forest",
        "rating": 4.2,
        "address": "471-3 Nyukawacho Kute, Takayama, Gifu 506-2252, Japan",
        "latitude": 36.1739963,
        "longitude": 137.5058395
    },
    {
        "category": "adventure parks",
        "title": "山頂バギー（ORK ADVENTURE)",
        "rating": 3.5,
        "address": "Japan, 〒501-5301 Gifu, Gujo, Takasucho Hirugano, 4670-75",
        "latitude": 36.0052764,
        "longitude": 136.9080123
    },
    {
        "category": "adventure parks",
        "title": "Takayama Sky Park",
        "rating": 4.3,
        "address": "7 Chome-417-1 Kamiokamotomachi, Takayama, Gifu 506-0055, Japan",
        "latitude": 36.146239699999995,
        "longitude": 137.2396645
    },
    {
        "category": "adventure parks",
        "title": "Mont Deus Hida-kuraiyama Snow Park",
        "rating": 4,
        "address": "7846-1 Ichinomiyamachi, Takayama, Gifu 509-3505, Japan",
        "latitude": 36.0615516,
        "longitude": 137.2262541
    },
    {
        "category": "adventure parks",
        "title": "Shiroyama Park",
        "rating": 4,
        "address": "Shiroyama, Takayama, Gifu 506-0822, Japan",
        "latitude": 36.1400419,
        "longitude": 137.263259
    },
    {
        "category": "adventure parks",
        "title": "藤の木平遊園地",
        "rating": 4.3,
        "address": "Shiroyama, Takayama, Gifu 506-0822, Japan",
        "latitude": 36.134563,
        "longitude": 137.264153
    },
    {
        "category": "adventure parks",
        "title": "Takayama Jinya",
        "rating": 4.2,
        "address": "1 Chome-5 Hachikenmachi, Takayama, Gifu 506-0012, Japan",
        "latitude": 36.1396312,
        "longitude": 137.25760449999999
    },
    {
        "category": "adventure parks",
        "title": "Enakyo Wonderland",
        "rating": 3.8,
        "address": "5735-209 Hirukawa, Nakatsugawa, Gifu 509-8301, Japan",
        "latitude": 35.488121,
        "longitude": 137.40597499999998
    },
    {
        "category": "adventure parks",
        "title": "Hida Great Limestone Cave",
        "rating": 4.1,
        "address": "1147 Nyukawacho Hiyomo, Takayama, Gifu 506-2256, Japan",
        "latitude": 36.1838158,
        "longitude": 137.4248082
    },
    {
        "category": "adventure parks",
        "title": "Ninomaru Children's park",
        "rating": 5,
        "address": "67, Horibatamachi, Takayama, Gifu 506-0822, Japan",
        "latitude": 36.1399195,
        "longitude": 137.2633596
    },
    {
        "category": "adventure parks",
        "title": "Utsue Forty-Eight Waterfalls",
        "rating": 4.3,
        "address": "Kokufucho Utsue, Takayama, Gifu 509-4121, Japan",
        "latitude": 36.1968556,
        "longitude": 137.15712779999998
    },
    {
        "category": "adventure parks",
        "title": "Sanmachi-dori",
        "rating": 4.5,
        "address": "さんまち通り, Takayama, Gifu 506-0846, Japan",
        "latitude": 36.141572499999995,
        "longitude": 137.2595503
    },
    {
        "category": "adventure parks",
        "title": "Gero Onsen Gassho-mura",
        "rating": 3.9,
        "address": "2369 Mori, Gero, Gifu 509-2202, Japan",
        "latitude": 35.8083288,
        "longitude": 137.24969489999998
    },
    {
        "category": "adventure parks",
        "title": "Takayama Castle Ruins",
        "rating": 3.8,
        "address": "Shiroyama, Takayama, Gifu 506-0822, Japan",
        "latitude": 36.138093,
        "longitude": 137.2632319
    },
    {
        "category": "adventure parks",
        "title": "Shirakawa-go",
        "rating": 4.5,
        "address": "Ogimachi, Shirakawa, Ono District, Gifu 501-5627, Japan",
        "latitude": 36.2577967,
        "longitude": 136.9061975
    },
    {
        "category": "hot springs",
        "title": "Hirayu no Mori (hotel & hot spring)",
        "rating": 4.4,
        "address": "763-1 Okuhida Onsengo Hirayu, Takayama, Gifu 506-1433, Japan",
        "latitude": 36.1889556,
        "longitude": 137.5511401
    },
    {
        "category": "hot springs",
        "title": "Shinhotaka Outdoor Public Onsen",
        "rating": 4,
        "address": "神坂 奥飛騨温泉郷, Takayama, Gifu 506-1421, Japan",
        "latitude": 36.265217299999996,
        "longitude": 137.56247249999998
    },
    {
        "category": "hot springs",
        "title": "Shinhotaka Onsen Yarimikan",
        "rating": 4.5,
        "address": "Yarimikan Hot Spring, 587 Okuhida Onsengo Kansaka, Takayama, Gifu 506-1421, Japan",
        "latitude": 36.2666931,
        "longitude": 137.5644226
    },
    {
        "category": "hot springs",
        "title": "Spa Hotel Alpina Hida Takayama",
        "rating": 4.2,
        "address": "5 Chome-４１ Nadamachi, Takayama, Gifu 506-0021, Japan",
        "latitude": 36.1403312,
        "longitude": 137.25434869999998
    },
    {
        "category": "hot springs",
        "title": "Okuhida Onsen Shin-Hotaka Onsen Town",
        "rating": 4.4,
        "address": "400-1 Okuhida Onsengo Kansaka, Takayama, Gifu 506-1421, Japan",
        "latitude": 36.2688128,
        "longitude": 137.5671992
    },
    {
        "category": "hot springs",
        "title": "Tenryo-no-yu",
        "rating": 4.4,
        "address": "高山グリーンホテル, 2 Chome-180 Nishinoisshikimachi, Takayama, Gifu 506-0031, Japan",
        "latitude": 36.137659299999996,
        "longitude": 137.2470368
    },
    {
        "category": "hot springs",
        "title": "Hirayu-no-Yu",
        "rating": 4.4,
        "address": "24 Okuhida Onsengo Hirayu, Takayama, Gifu 506-1433, Japan",
        "latitude": 36.191714399999995,
        "longitude": 137.55451309999998
    },
    {
        "category": "hot springs",
        "title": "Utopia Inari-yu",
        "rating": 4.2,
        "address": "2 Chome-４-4 Hachikenmachi, Takayama, Gifu 506-0012, Japan",
        "latitude": 36.138244,
        "longitude": 137.2567067
    },
    {
        "category": "hot springs",
        "title": "荒城温泉 恵比須之湯",
        "rating": 4.5,
        "address": "Japan, 〒506-2103 Gifu, Takayama, Nyukawacho Oshikiji, 井之口415-1",
        "latitude": 36.214309,
        "longitude": 137.364937
    },
    {
        "category": "hot springs",
        "title": "Wanosato",
        "rating": 4.7,
        "address": "1682 Ichinomiyamachi, Takayama, Gifu 509-3505, Japan",
        "latitude": 36.0731892,
        "longitude": 137.2104369
    },
    {
        "category": "hot springs",
        "title": "Akigami Onsen Inn",
        "rating": 4.4,
        "address": "355 Asahicho Kurumijima, Takayama, Gifu 509-3313, Japan",
        "latitude": 35.98603,
        "longitude": 137.401249
    },
    {
        "category": "hot springs",
        "title": "Oyado Koto No Yume",
        "rating": 4.7,
        "address": "6 Chome-11 Hanasatomachi, Takayama, Gifu 506-0026, Japan",
        "latitude": 36.1422545,
        "longitude": 137.25290529999998
    },
    {
        "category": "hot springs",
        "title": "Hidamari no Yu",
        "rating": 3.1,
        "address": "417 Fuyutomachi, Takayama, Gifu 506-0001, Japan",
        "latitude": 36.1687401,
        "longitude": 137.24119059999998
    },
    {
        "category": "hot springs",
        "title": "TOKYU STAY Hida-Takayama Musubi no Yu",
        "rating": 4.4,
        "address": "4 Chome-301 花⾥町, Takayama, Gifu 506-0026, Japan",
        "latitude": 36.140294,
        "longitude": 137.2517615
    },
    {
        "category": "hot springs",
        "title": "Hotel Associa Takayama Resort",
        "rating": 4.3,
        "address": "ホテルアソシア高山リゾート, 1134 Echigomachi, Takayama, Gifu 506-0033, Japan",
        "latitude": 36.1225485,
        "longitude": 137.243585
    },