[
    {
        "category": "tourist attractions",
        "title": "Tokyo Tower",
        "rating": 4.5,
        "address": "4 Chome-2-8 Shibakoen, Minato City, Tokyo 105-0011, Japan",
        "latitude": 35.6585805,
        "longitude": 139.7454329
    },
    {
        "category": "tourist attractions",
        "title": "Tokyo Skytree",
        "rating": 4.4,
        "address": "1 Chome-1-2 Oshiage, Sumida City, Tokyo 131-0045, Japan",
        "latitude": 35.7100627,
        "longitude": 139.8107004
    },
    {
        "category": "tourist attractions",
        "title": "Sensō-ji",
        "rating": 4.5,
        "address": "2 Chome-3-1 Asakusa, Taito City, Tokyo 111-0032, Japan",
        "latitude": 35.7147651,
        "longitude": 139.7966553
    },
    {
        "category": "tourist attractions",
        "title": "Omoide Yokocho Memory Lane",
        "rating": 4.2,
        "address": "1 Chome-2 Nishishinjuku, Shinjuku City, Tokyo 160-0023, Japan",
        "latitude": 35.6929614,
        "longitude": 139.6995724
    },
    {
        "category": "tourist attractions",
        "title": "Momiji Waterfall",
        "rating": 4.1,
        "address": "4 Chome-3-25 Shibakoen, Minato City, Tokyo 105-0011, Japan",
        "latitude": 35.6580922,
        "longitude": 139.7461092
    },
    {
        "category": "tourist attractions",
        "title": "Remains of Tokyo Prefectural Office",
        "rating": 3.8,
        "address": "3 Chome-5-1 Marunouchi, Chiyoda City, Tokyo 100-0005, Japan",
        "latitude": 35.6775109,
        "longitude": 139.764943
    },
    {
        "category": "tourist attractions",
        "title": "Godzilla Statue",
        "rating": 3.8,
        "address": "1 Chome-3-2 Yurakucho, Chiyoda City, Tokyo 100-0006, Japan",
        "latitude": 35.6736998,
        "longitude": 139.7602977
    },
    {
        "category": "tourist attractions",
        "title": "Yoyogi Park Clock Tower",
        "rating": 4.1,
        "address": "2-1 Yoyogikamizonocho, Shibuya, Tokyo 151-0052, Japan",
        "latitude": 35.6690816,
        "longitude": 139.7007898
    },
    {
        "category": "tourist attractions",
        "title": "Godzilla Head",
        "rating": 4.4,
        "address": "1 Chome-19-1 Kabukicho, Shinjuku City, Tokyo 160-0021, Japan",
        "latitude": 35.6950521,
        "longitude": 139.70191169999998
    },
    {
        "category": "tourist attractions",
        "title": "Shinjuku Golden-Gai",
        "rating": 4.3,
        "address": "Kabukicho, Shinjuku City, Tokyo 160-0021, Japan",
        "latitude": 35.6941118,
        "longitude": 139.70476109999998
    },
    {
        "category": "tourist attractions",
        "title": "Meiji Jingu",
        "rating": 4.6,
        "address": "1-1 Yoyogikamizonocho, Shibuya, Tokyo 151-8557, Japan",
        "latitude": 35.6763976,
        "longitude": 139.6993259
    },
    {
        "category": "tourist attractions",
        "title": "Tokyo Tower",
        "rating": 4.1,
        "address": "4 Chome-2-8 Shibakoen, Minato City, Tokyo 105-0011, Japan",
        "latitude": 35.6586022,
        "longitude": 139.74544799999998
    },
    {
        "category": "tourist attractions",
        "title": "Shibuya Scramble Crossing",
        "rating": 4.5,
        "address": "Shibuya, Tokyo, Japan",
        "latitude": 35.659482,
        "longitude": 139.7005596
    },
    {
        "category": "tourist attractions",
        "title": "Yoyogi Park",
        "rating": 4.3,
        "address": "2-1 Yoyogikamizonocho, Shibuya, Tokyo 151-0052, Japan",
        "latitude": 35.6700649,
        "longitude": 139.6949656
    },
    {
        "category": "tourist attractions",
        "title": "Shibuya Sky",
        "rating": 4.6,
        "address": "Japan, 〒150-6145 Tokyo, Shibuya, 2 Chome−24−12 スクランブルスクエア 14階・45階, 46階・屋上",
        "latitude": 35.6586719,
        "longitude": 139.7019848
    },
    {
        "category": "tourist attractions",
        "title": "Tokyo Night & Light",
        "rating": 4.6,
        "address": "2 Chome-8-1 Nishishinjuku, Shinjuku City, Tokyo 163-8001, Japan",
        "latitude": 35.6896633,
        "longitude": 139.6928239
    },
    {
        "category": "tourist attractions",
        "title": "Tokyo Metropolitan Government Building",
        "rating": 4.5,
        "address": "2 Chome-8-1 Nishishinjuku, Shinjuku City, Tokyo 163-8001, Japan",
        "latitude": 35.6894807,
        "longitude": 139.6916863
    },
    {
        "category": "tourist attractions",
        "title": "Hamarikyu Gardens",
        "rating": 4.4,
        "address": "1-1 Hamarikyuteien, Chuo City, Tokyo 104-0046, Japan",
        "latitude": 35.6596559,
        "longitude": 139.7634091
    },
    {
        "category": "tourist attractions",
        "title": "Jingū Bashi (Shrine Bridge)",
        "rating": 4.2,
        "address": "6 Chome Jingumae, Shibuya, Tokyo 150-0001, Japan",
        "latitude": 35.669671099999995,
        "longitude": 139.7024667
    },
    {
        "category": "tourist attractions",
        "title": "Lookout",
        "rating": 4.4,
        "address": "2 Chome-6 Aomi, Koto City, Tokyo 135-0064, Japan",
        "latitude": 35.6150131,
        "longitude": 139.7763813
    },
    {
        "category": "parks",
        "title": "Yoyogi Park",
        "rating": 4.3,
        "address": "2-1 Yoyogikamizonocho, Shibuya, Tokyo 151-0052, Japan",
        "latitude": 35.6700649,
        "longitude": 139.6949656
    },
    {
        "category": "parks",
        "title": "Shiba Park",
        "rating": 4.2,
        "address": "4 Chome Shibakoen, Minato City, Tokyo 105-0011, Japan",
        "latitude": 35.6561695,
        "longitude": 139.7483555
    },
    {
        "category": "parks",
        "title": "Ueno Park",
        "rating": 4.3,
        "address": "Uenokoen, Taito City, Tokyo 110-0007, Japan",
        "latitude": 35.7147557,
        "longitude": 139.7734312
    },
    {
        "category": "parks",
        "title": "Shinjuku Gyoen National Garden",
        "rating": 4.6,
        "address": "11 Naitomachi, Shinjuku City, Tokyo 160-0014, Japan",
        "latitude": 35.685176299999995,
        "longitude": 139.71005169999998
    },
    {
        "category": "parks",
        "title": "Hamarikyu Gardens",
        "rating": 4.4,
        "address": "1-1 Hamarikyuteien, Chuo City, Tokyo 104-0046, Japan",
        "latitude": 35.6596559,
        "longitude": 139.7634091
    },
    {
        "category": "parks",
        "title": "Hibiya Park",
        "rating": 4.2,
        "address": "1-6 Hibiyakoen, Chiyoda City, Tokyo 100-0012, Japan",
        "latitude": 35.6736115,
        "longitude": 139.7558769
    },
    {
        "category": "parks",
        "title": "Odaiba Marine Park",
        "rating": 4.3,
        "address": "1 Chome-4 Daiba, Minato City, Tokyo 135-0091, Japan",
        "latitude": 35.6300488,
        "longitude": 139.77569119999998
    },
    {
        "category": "parks",
        "title": "Hinokicho Park",
        "rating": 4.3,
        "address": "9 Chome-7-9 Akasaka, Minato City, Tokyo 107-0052, Japan",
        "latitude": 35.6669098,
        "longitude": 139.732213
    },
    {
        "category": "parks",
        "title": "Kita-no-maru Park",
        "rating": 4.2,
        "address": "1-1 Kitanomarukoen, Chiyoda City, Tokyo 102-0091, Japan",
        "latitude": 35.6922018,
        "longitude": 139.750564
    },
    {
        "category": "parks",
        "title": "Kasai Rinkai Park",
        "rating": 4.3,
        "address": "6 Chome-2 Rinkaicho, Edogawa City, Tokyo 134-0086, Japan",
        "latitude": 35.6419847,
        "longitude": 139.8603206
    },
    {
        "category": "parks",
        "title": "Inokashira Park",
        "rating": 4.4,
        "address": "1 Chome-18-31 Gotenyama, Musashino, Tokyo 180-0005, Japan",
        "latitude": 35.699747599999995,
        "longitude": 139.57370179999998
    },
    {
        "category": "parks",
        "title": "Meiji Jingu Gaien",
        "rating": 4.3,
        "address": "1-1 Kasumigaokamachi, Shinjuku City, Tokyo 160-0013, Japan",
        "latitude": 35.6754399,
        "longitude": 139.71826679999998
    },
    {
        "category": "parks",
        "title": "Kiyosumi Park",
        "rating": 4.2,
        "address": "2 Chome-2 Kiyosumi, Koto City, Tokyo 135-0024, Japan",
        "latitude": 35.6803011,
        "longitude": 139.7956774
    },
    {
        "category": "parks",
        "title": "Kyu-Shiba-rikyū Gardens",
        "rating": 4.3,
        "address": "1 Chome-4-1 Kaigan, Minato City, Tokyo 105-0022, Japan",
        "latitude": 35.6549505,
        "longitude": 139.7587206
    },
    {
        "category": "parks",
        "title": "Shinjuku Chuo Park",
        "rating": 4.1,
        "address": "2 Chome-11 Nishishinjuku, Shinjuku City, Tokyo 160-0023, Japan",
        "latitude": 35.6893011,
        "longitude": 139.68989779999998
    },
    {
        "category": "parks",
        "title": "Senzokuike Park",
        "rating": 4.3,
        "address": "2 Chome-14-5 Minamisenzoku, Ota City, Tokyo 145-0063, Japan",
        "latitude": 35.6029043,
        "longitude": 139.690383
    },
    {
        "category": "parks",
        "title": "Showa Kinen Park",
        "rating": 4.4,
        "address": "3173 Midoricho, Tachikawa, Tokyo 190-0014, Japan",
        "latitude": 35.711786499999995,
        "longitude": 139.393631
    },
    {
        "category": "parks",
        "title": "Nogawa Park",
        "rating": 4.3,
        "address": "6 Chome-４-1 Osawa, Mitaka-shi, Tokyo 181-0015, Japan",
        "latitude": 35.6831034,
        "longitude": 139.5252762
    },
    {
        "category": "parks",
        "title": "Shinjuku City Shinjuku Park",
        "rating": 3.6,
        "address": "2 Chome-9-9 Shinjuku, Shinjuku City, Tokyo 160-0022, Japan",
        "latitude": 35.690219,
        "longitude": 139.7093926
    },
    {
        "category": "parks",
        "title": "Chidorigafuchi Park",
        "rating": 4.4,
        "address": "1 Chome-２ Kojimachi, Chiyoda City, Tokyo 100-0001, Japan",
        "latitude": 35.6861597,
        "longitude": 139.7449906
    },
    {
        "category": "restaurants",
        "title": "NOBU Tokyo",
        "rating": 4.3,
        "address": "１Ｆ, 4 Chome-1-28 Toranomon, Minato City, Tokyo 105-0001, Japan",
        "latitude": 35.6663129,
        "longitude": 139.7437919
    },
    {
        "category": "restaurants",
        "title": "Ninja Experience Cafe Asakusa In Tokyo",
        "rating": 4.9,
        "address": "3 Chome-27-14 Nishiasakusa, Taito City, Tokyo 111-0035, Japan",
        "latitude": 35.717014899999995,
        "longitude": 139.7918297
    },
    {
        "category": "restaurants",
        "title": "Momo Paradise Shinjuku Higashi-guchi",
        "rating": 4.9,
        "address": "ヒューマックスパビリオン新宿東口 3F・4F, 3 Chome-28-10 Shinjuku, Shinjuku City, Tokyo 160-0022, Japan",
        "latitude": 35.6910075,
        "longitude": 139.7026367
    },
    {
        "category": "restaurants",
        "title": "Tokyo Place",
        "rating": 4,
        "address": "1537 Hillman St, Tulare, CA 93274",
        "latitude": 36.2274521,
        "longitude": -119.3326226
    },
    {
        "category": "restaurants",
        "title": "Tokyo Garden | Japanese Restaurant",
        "rating": 4.4,
        "address": "3320 S Fairway St, Visalia, CA 93277",
        "latitude": 36.301309599999996,
        "longitude": -119.31046029999999
    },
    {
        "category": "restaurants",
        "title": "CENSU TOKYO",
        "rating": 4.7,
        "address": "2 Chome-12-9 Jingumae, Shibuya, Tokyo 150-0001, Japan",
        "latitude": 35.6743246,
        "longitude": 139.71239789999998
    },
    {
        "category": "restaurants",
        "title": "Ode",
        "rating": 4.5,
        "address": "ST広尾 ２F, 5 Chome-1-32 Hiroo, Shibuya, Tokyo 150-0012, Japan",
        "latitude": 35.6491154,
        "longitude": 139.71902409999998
    },
    {
        "category": "restaurants",
        "title": "Kobe Beef Kaiseki 511",
        "rating": 4.5,
        "address": "ディアプラザ赤坂 B1F, 4 Chome-3-28 Akasaka, Minato City, Tokyo 107-0052, Japan",
        "latitude": 35.6746401,
        "longitude": 139.73538499999998
    },
    {
        "category": "restaurants",
        "title": "Roppongi FUKUZUSHI",
        "rating": 4.4,
        "address": "compex665 1階, 6 Chome-5-24 Roppongi, Minato City, Tokyo 106-0032, Japan",
        "latitude": 35.6616037,
        "longitude": 139.73108109999998
    },
    {
        "category": "restaurants",
        "title": "CEDROS",
        "rating": 4.5,
        "address": "Ｔｒａｄｇａｒｄ代官山 Ｄ, 1 Chome-32-3 Ebisunishi, Shibuya, Tokyo 150-0021, Japan",
        "latitude": 35.6475767,
        "longitude": 139.7046396
    },
    {
        "category": "restaurants",
        "title": "TOSA DINING OKYAKU",
        "rating": 4.1,
        "address": "1 Chome-3-13 Ginza, Chuo City, Tokyo 104-0061, Japan",
        "latitude": 35.6752781,
        "longitude": 139.766209
    },
    {
        "category": "restaurants",
        "title": "Premium Sake Pub Gashue",
        "rating": 4.9,
        "address": "2 Chome-13-5 Higashiueno, Taito City, Tokyo 110-0015, Japan",
        "latitude": 35.7094576,
        "longitude": 139.7778578
    },
    {
        "category": "restaurants",
        "title": "Kaitenzushi Nemuro Hanamaru Ginza",
        "rating": 4.1,
        "address": "東急プラザ銀座 10階, 5 Chome-2-1 Ginza, Chuo City, Tokyo 104-0061, Japan",
        "latitude": 35.6722448,
        "longitude": 139.7624127
    },
    {
        "category": "restaurants",
        "title": "Sushi Hichou",
        "rating": 4.6,
        "address": "Japan, 〒150-0031 Tokyo, Shibuya, 桜ヶ丘3−4, 渋谷サクラステージ SAKURAサイド1F",
        "latitude": 35.6559854,
        "longitude": 139.7025954
    },
    {
        "category": "restaurants",
        "title": "Akasaka Sushi Koshikawa",
        "rating": 4.8,
        "address": "コシハラトレード赤坂ビル ２階, 5 Chome-4-14 Akasaka, Minato City, Tokyo 107-0052, Japan",
        "latitude": 35.671309199999996,
        "longitude": 139.735229
    },
    {
        "category": "restaurants",
        "title": "Menya NOBUNAGA【Ramen Restaurant】",
        "rating": 4.7,
        "address": "2 Chome-5-2 Kyobashi, Chuo City, Tokyo 104-0031, Japan",
        "latitude": 35.6764708,
        "longitude": 139.7704784
    },
    {
        "category": "restaurants",
        "title": "Sushi Yuu Tsubasa",
        "rating": 4.5,
        "address": "GINZA K2 5階, 1 Chome-4-17 Ebisuminami, Shibuya, Tokyo 150-0022, Japan",
        "latitude": 35.646546199999996,
        "longitude": 139.709059
    },
    {
        "category": "restaurants",
        "title": "Kozue",
        "rating": 4.2,
        "address": "Shinjuku Park Tower, 40階, 3 Chome-7-1-2 Nishishinjuku, Shinjuku City, Tokyo 160-0023, Japan",
        "latitude": 35.685476699999995,
        "longitude": 139.6907108
    },
    {
        "category": "cafes",
        "title": "Turret Coffee Tsukiji",
        "rating": 4.6,
        "address": "2 Chome-12-6 Tsukiji, Chuo City, Tokyo 104-0045, Japan",
        "latitude": 35.668039199999996,
        "longitude": 139.7719961
    },
    {
        "category": "cafes",
        "title": "ANAKUMA CAFE Harajuku",
        "rating": 4.8,
        "address": "1 Chome-23-28 Jingumae, Shibuya, Tokyo 150-0001, Japan",
        "latitude": 35.6729409,
        "longitude": 139.7043716
    },
    {
        "category": "cafes",
        "title": "THE ROASTERY BY NOZY COFFEE",
        "rating": 4.3,
        "address": "Reveur Jingumae, 5 Chome-17-13 Jingumae, Shibuya, Tokyo 150-0001, Japan",
        "latitude": 35.665572399999995,
        "longitude": 139.7047658
    },
    {
        "category": "cafes",
        "title": "GLITCH COFFEE & ROASTERS",
        "rating": 4.4,
        "address": "香村ビル １階, 3 Chome-16 Kanda Nishikicho, Chiyoda City, Tokyo 101-0054, Japan",
        "latitude": 35.693742799999995,
        "longitude": 139.76130469999998
    },
    {
        "category": "cafes",
        "title": "Kopikalyan",
        "rating": 4.5,
        "address": "1階 Garden Square Harajuku, １F, 6 Chome-15-14 Jingumae, Shibuya, Tokyo 150-0001, Japan",
        "latitude": 35.6660746,
        "longitude": 139.7047227
    },
    {
        "category": "cafes",
        "title": "Blue Bottle Coffee - Shibuya Cafe",
        "rating": 4.6,
        "address": "1 Chome-7-3 Jinnan, Shibuya, Tokyo 150-0041, Japan",
        "latitude": 35.664094399999996,
        "longitude": 139.69951749999998
    },
    {
        "category": "cafes",
        "title": "BONGEN COFFEE Tokyo Ginza",
        "rating": 4.4,
        "address": "2 Chome-16-3 Ginza, Chuo City, Tokyo 104-0061, Japan",
        "latitude": 35.6710713,
        "longitude": 139.77080379999998
    },
    {
        "category": "cafes",
        "title": "Pokemon Cafe Tokyo Nihombashi",
        "rating": 4.2,
        "address": "髙島屋S.C.東館 ５階, 2 Chome-11-2 Nihonbashi, Chuo City, Tokyo 103-0027, Japan",
        "latitude": 35.6806385,
        "longitude": 139.7744332
    },
    {
        "category": "cafes",
        "title": "Coffee PUNKTO",
        "rating": 4.9,
        "address": "１階, 2 Chome-12-3 Yoyogi, Shibuya, Tokyo 151-0053, Japan",
        "latitude": 35.6867622,
        "longitude": 139.6974995
    },
    {
        "category": "cafes",
        "title": "Little Nap Coffee Stand",
        "rating": 4.5,
        "address": "5 Chome-65-4 Yoyogi, Shibuya, Tokyo 151-0053, Japan",
        "latitude": 35.6720937,
        "longitude": 139.6905932
    },
    {
        "category": "cafes",
        "title": "Maidreamin Shibuya Store",
        "rating": 4.9,
        "address": "蓬莱屋ビル B1, 30-1 Udagawacho, Shibuya, Tokyo 150-0042, Japan",
        "latitude": 35.6607914,
        "longitude": 139.69825799999998
    },
    {
        "category": "cafes",
        "title": "CAFE REISSUE",
        "rating": 4.7,
        "address": "3 Chome-25-7 Jingumae, Shibuya, Tokyo 150-0001, Japan",
        "latitude": 35.6711763,
        "longitude": 139.7079583
    },
    {
        "category": "cafes",
        "title": "Whitely",
        "rating": 4.6,
        "address": "ジョルディビル 1F, 1 Chome-6-14 Jinnan, Shibuya, Tokyo 150-0041, Japan",
        "latitude": 35.6645894,
        "longitude": 139.6997538
    },
    {
        "category": "cafes",
        "title": "Fuglen Tokyo",
        "rating": 4.3,
        "address": "1 Chome-16-11 Tomigaya, Shibuya, Tokyo 151-0063, Japan",
        "latitude": 35.6666181,
        "longitude": 139.6923999
    },
    {
        "category": "cafes",
        "title": "Tokyo Little House",
        "rating": 4.7,
        "address": "3 Chome-6-12 Akasaka, Minato City, Tokyo 107-0052, Japan",
        "latitude": 35.673404399999995,
        "longitude": 139.7383229
    },
    {
        "category": "cafes",
        "title": "Tokyo Snake Center ~Cafe & Snake~",
        "rating": 4.4,
        "address": "Sanpo Co.,Bld., 8F, 6 Chome-5-6 Jingumae, Shibuya, Tokyo 150-0001, Japan",
        "latitude": 35.667898,
        "longitude": 139.7051764
    },
    {
        "category": "cafes",
        "title": "FabCafe Tokyo",
        "rating": 4.1,
        "address": "道玄坂ピア 1F, 1 Chome-22-7 Dogenzaka, Shibuya, Tokyo 150-0043, Japan",
        "latitude": 35.6560546,
        "longitude": 139.6954829
    },
    {
        "category": "cafes",
        "title": "Allpress Espresso Tokyo Roastery & Cafe",
        "rating": 4.2,
        "address": "3 Chome-7-2 Hirano, Koto City, Tokyo 135-0023, Japan",
        "latitude": 35.6777551,
        "longitude": 139.80517369999998
    },
    {
        "category": "cafes",
        "title": "Ninja Experience Cafe Asakusa In Tokyo",
        "rating": 4.9,
        "address": "3 Chome-27-14 Nishiasakusa, Taito City, Tokyo 111-0035, Japan",
        "latitude": 35.717014899999995,
        "longitude": 139.7918297
    },
    {
        "category": "cafes",
        "title": "Shark Coffee",
        "rating": 4.5,
        "address": "渋谷ホームズ 1F, 2-1 Udagawacho, Shibuya, Tokyo 150-0042, Japan",
        "latitude": 35.663663,
        "longitude": 139.6987557
    },
    {
        "category": "mountains",
        "title": "Mount Mitake",
        "rating": 4.5,
        "address": "Mitakesan, Ome, Tokyo 198-0175, Japan",
        "latitude": 35.7829416,
        "longitude": 139.1495027
    },
    {
        "category": "mountains",
        "title": "Mount Kumotori",
        "rating": 4.5,
        "address": "Otaki, Chichibu, Saitama 369-1901, Japan",
        "latitude": 35.855495399999995,
        "longitude": 138.94395799999998
    },
    {
        "category": "mountains",
        "title": "Shiroyama",
        "rating": 4.5,
        "address": "3 Chome Moto-Hachiōjimachi, Hachioji, Tokyo 193-0826, Japan",
        "latitude": 35.653639,
        "longitude": 139.253278
    },
    {
        "category": "mountains",
        "title": "Mt. Nokogiri",
        "rating": 3.5,
        "address": "Unazawa, Okutama, Nishitama District, Tokyo, Tokyo 198-0213, Japan",
        "latitude": 35.7792125,
        "longitude": 139.1059511
    },
    {
        "category": "mountains",
        "title": "Okutama",
        "rating": 4.5,
        "address": "Hinohara, Nishitama District, Tokyo, Tokyo 190-0200, Japan",
        "latitude": 35.7385494,
        "longitude": 139.0143186
    },
    {
        "category": "mountains",
        "title": "Sogakusan",
        "rating": 3.5,
        "address": "3 Chome Sawai, Ome, Tokyo 198-0172, Japan",
        "latitude": 35.819765,
        "longitude": 139.1773436
    },
    {
        "category": "mountains",
        "title": "Takamizuyama",
        "rating": 3.7,
        "address": "7 Chome Nariki, Ome, Tokyo 198-0001, Japan",
        "latitude": 35.828705299999996,
        "longitude": 139.1891954
    },
    {
        "category": "mountains",
        "title": "Sengenrei",
        "rating": 4.3,
        "address": "Hinohara, Nishitama District, Tokyo, Tokyo 190-0200, Japan",
        "latitude": 35.7204067,
        "longitude": 139.1022928
    },
    {
        "category": "mountains",
        "title": "Mt. Tenjo",
        "rating": 4.4,
        "address": "Tenjosan, Kozushima Village, Tokyo 100-0601, Japan",
        "latitude": 34.2163898,
        "longitude": 139.1566722
    },
    {
        "category": "mountains",
        "title": "Mt. Asama",
        "rating": 4.1,
        "address": "5 Chome Wakamatsucho, Fuchu, Tokyo 183-0005, Japan",
        "latitude": 35.681163999999995,
        "longitude": 139.502369
    },
    {
        "category": "mountains",
        "title": "Hinodesan",
        "rating": 4.3,
        "address": "Oguno, Hinode, Nishitama District, Tokyo, Tokyo 190-0181, Japan",
        "latitude": 35.7811625,
        "longitude": 139.16746999999998
    },
    {
        "category": "mountains",
        "title": "Takaosan",
        "rating": 4.1,
        "address": "Nagatsutacho, Midori Ward, Yokohama, Kanagawa 226-0026, Japan",
        "latitude": 35.511768499999995,
        "longitude": 139.4835613
    },
    {
        "category": "mountains",
        "title": "Mt. Odake",
        "rating": 4.4,
        "address": "Unazawa, Okutama, Nishitama District, Tokyo, Tokyo 198-0213, Japan",
        "latitude": 35.765149,
        "longitude": 139.1304623
    },
    {
        "category": "mountains",
        "title": "Daichozan",
        "rating": 3.6,
        "address": "Kusabana, Akiruno, Tokyo 197-0802, Japan",
        "latitude": 35.743624499999996,
        "longitude": 139.3112751
    },
    {
        "category": "mountains",
        "title": "Mt. Kawanori",
        "rating": 4.5,
        "address": "Hikawa, Okutama, Nishitama District, Tokyo, Tokyo 198-0212, Japan",
        "latitude": 35.850833,
        "longitude": 139.106944
    },
    {
        "category": "mountains",
        "title": "Mt. Raiden",
        "rating": 3.8,
        "address": "8 Chome Nariki, Ome, Tokyo 198-0001, Japan",
        "latitude": 35.8155345,
        "longitude": 139.2153653
    },
    {
        "category": "mountains",
        "title": "Mount Mihara",
        "rating": 4.6,
        "address": "Nomashi, Oshima, Tokyo 100-0104, Japan",
        "latitude": 34.7310356,
        "longitude": 139.3922369
    },
    {
        "category": "mountains",
        "title": "Mount Fuji",
        "rating": 4.6,
        "address": "Kitayama, Fujinomiya, Shizuoka 418-0112, Japan",
        "latitude": 35.3606255,
        "longitude": 138.7273634
    },
    {
        "category": "mountains",
        "title": "Honnitayama",
        "rating": 3.9,
        "address": "Tanazawa, Okutama, Nishitama District, Tokyo, Tokyo 198-0106, Japan",
        "latitude": 35.8302046,
        "longitude": 139.10165469999998
    },
    {
        "category": "mountains",
        "title": "Mt. Takanosu",
        "rating": 4.4,
        "address": "Nippara, Okutama, Nishitama District, Tokyo, Tokyo 198-0211, Japan",
        "latitude": 35.8299788,
        "longitude": 139.0125079
    },
    {
        "category": "waterfalls",
        "title": "Hossawa Falls",
        "rating": 4.4,
        "address": "本宿, Hinohara, Nishitama District, Tokyo, Tokyo 190-0214, Japan",
        "latitude": 35.727554,
        "longitude": 139.1391256
    },
    {
        "category": "waterfalls",
        "title": "Osonoi Waterfall",
        "rating": 3.9,
        "address": "3 Chome-18-1 Zenpukuji, Suginami City, Tokyo 167-0041, Japan",
        "latitude": 35.716232,
        "longitude": 139.58775169999998
    },
    {
        "category": "waterfalls",
        "title": "Hijiri Falls",
        "rating": 4.2,
        "address": "Hikawa, Okutama, Nishitama District, Tokyo, Tokyo 198-0212, Japan",
        "latitude": 35.8393578,
        "longitude": 139.0884731
    },
    {
        "category": "waterfalls",
        "title": "Kongo Falls",
        "rating": 4.4,
        "address": "Kamikawa, Hachioji, Tokyo 192-0151, Japan",
        "latitude": 35.7152926,
        "longitude": 139.2159773
    },
    {
        "category": "waterfalls",
        "title": "Nanushinotaki Park",
        "rating": 3.9,
        "address": "1 Chome-15-25 Kishimachi, Kita City, Tokyo 114-0021, Japan",
        "latitude": 35.7573181,
        "longitude": 139.7324044
    },
    {
        "category": "waterfalls",
        "title": "Momiji Waterfall",
        "rating": 4.1,
        "address": "4 Chome-3-25 Shibakoen, Minato City, Tokyo 105-0011, Japan",
        "latitude": 35.6580922,
        "longitude": 139.7461092
    },
    {
        "category": "waterfalls",
        "title": "Hossawano Falls",
        "rating": 4.4,
        "address": "Hinohara, Nishitama District, Tokyo, Tokyo 190-0200, Japan",
        "latitude": 35.7274381,
        "longitude": 139.1388609
    },
    {
        "category": "waterfalls",
        "title": "Kongo Falls",
        "rating": 4.8,
        "address": "Kamikawa, Hachioji, Tokyo 192-0151, Japan",
        "latitude": 35.7146227,
        "longitude": 139.2141789
    },
    {
        "category": "waterfalls",
        "title": "Mitsugama falls (three-pool falls)",
        "rating": 4.1,
        "address": "Unazawa, Okutama, Nishitama District, Tokyo, Tokyo 198-0213, Japan",
        "latitude": 35.782468,
        "longitude": 139.1299579
    },
    {
        "category": "waterfalls",
        "title": "Kichijoji Falls",
        "rating": 3,
        "address": "Hinohara, Nishitama District, Tokyo, Tokyo 190-0200, Japan",
        "latitude": 35.7244354,
        "longitude": 139.1461502
    },
    {
        "category": "waterfalls",
        "title": "Aya Falls",
        "rating": 4.1,
        "address": "Hinohara, Nishitama District, Tokyo, Tokyo 190-0200, Japan",
        "latitude": 35.750143699999995,
        "longitude": 139.14696419999999
    },
    {
        "category": "waterfalls",
        "title": "Hyakuhirono Falls",
        "rating": 4.9,
        "address": "Hikawa, Okutama, Nishitama District, Tokyo, Tokyo 198-0212, Japan",
        "latitude": 35.854372,
        "longitude": 139.0944791
    },
    {
        "category": "waterfalls",
        "title": "Hebi Falls",
        "rating": 3.4,
        "address": "Takaomachi, Hachioji, Tokyo 193-0844, Japan",
        "latitude": 35.6319213,
        "longitude": 139.2542346
    },
    {
        "category": "waterfalls",
        "title": "Ryujin Falls",
        "rating": 4.3,
        "address": "街道 檜原, Hinohara, Nishitama District, Tokyo, Tokyo 190-0200, Japan",
        "latitude": 35.7244665,
        "longitude": 139.05681819999998
    },
    {
        "category": "waterfalls",
        "title": "Goshudenno Falls",
        "rating": 4.6,
        "address": "3 Chome Moto-Hachiōjimachi, Hachioji, Tokyo 193-0826, Japan",
        "latitude": 35.6521894,
        "longitude": 139.2568959
    },
    {
        "category": "waterfalls",
        "title": "Gojo Waterfall",
        "rating": 4.7,
        "address": "2 Chome-10 Sekiguchi, Bunkyo City, Tokyo 112-0014, Japan",
        "latitude": 35.7129549,
        "longitude": 139.7251028
    },
    {
        "category": "waterfalls",
        "title": "Nejireno Falls",
        "rating": null,
        "address": "Unazawa, Okutama, Nishitama District, Tokyo, Tokyo 198-0213, Japan",
        "latitude": 35.7809653,
        "longitude": 139.1291705
    },
    {
        "category": "waterfalls",
        "title": "Mitsugamano Falls",
        "rating": 4.1,
        "address": "Unazawa, Okutama, Nishitama District, Tokyo, Tokyo 198-0213, Japan",
        "latitude": 35.7822254,
        "longitude": 139.12967759999998
    },
    {
        "category": "waterfalls",
        "title": "Shiraiwa Falls",
        "rating": 4.2,
        "address": "4531-17 Oguno, Hinode, Nishitama District, Tokyo, Tokyo 190-0181, Japan",
        "latitude": 35.7681318,
        "longitude": 139.1929356
    },
    {
        "category": "waterfalls",
        "title": "O Falls",
        "rating": 4.4,
        "address": "Unazawa, Okutama, Nishitama District, Tokyo, Tokyo 198-0213, Japan",
        "latitude": 35.780078599999996,
        "longitude": 139.1295337
    },
    {
        "category": "lakes",
        "title": "Tama Lake",
        "rating": 4.4,
        "address": "Tamako, Higashiyamato, Tokyo 207-0001, Japan",
        "latitude": 35.7645699,
        "longitude": 139.41165909999998
    },
    {
        "category": "lakes",
        "title": "Lake Oku-tama",
        "rating": 4.5,
        "address": "Tozura, Okutama, Nishitama District, Tokyo, Tokyo 198-0221, Japan",
        "latitude": 35.7769074,
        "longitude": 138.9893662
    },
    {
        "category": "lakes",
        "title": "Lake Kawaguchi",
        "rating": 4.6,
        "address": "Fujikawaguchiko, Minamitsuru District, Yamanashi, Japan",
        "latitude": 35.5170946,
        "longitude": 138.7517787
    },
    {
        "category": "lakes",
        "title": "Shakujii Pond",
        "rating": 4.3,
        "address": "5-chōme-21 Shakujiimachi, Nerima City, Tokyo 177-0041, Japan",
        "latitude": 35.7397747,
        "longitude": 139.6029804
    },
    {
        "category": "beaches",
        "title": "Odaiba Beach",
        "rating": 4.3,
        "address": "1 Chome-4 Daiba, Minato City, Tokyo 135-0091, Japan",
        "latitude": 35.631755999999996,
        "longitude": 139.77741749999998
    },
    {
        "category": "beaches",
        "title": "Toushiki Beach",
        "rating": 4.5,
        "address": "Shimobara Sashikiji, Oshima, Tokyo 100-0211, Japan",
        "latitude": 34.6787941,
        "longitude": 139.4305738
    },
    {
        "category": "beaches",
        "title": "Tsubasa Beach",
        "rating": 4.3,
        "address": "4 Chome-2-2 Jonanjima, Ota City, Tokyo 143-0002, Japan",
        "latitude": 35.5790059,
        "longitude": 139.7856443
    },
    {
        "category": "beaches",
        "title": "Makuhari Beach",
        "rating": 4,
        "address": "100-1 Mihama, Mihama Ward, Chiba, 261-0022, Japan",
        "latitude": 35.639144699999996,
        "longitude": 140.0351413
    },
    {
        "category": "beaches",
        "title": "Zushi Beach",
        "rating": 4.2,
        "address": "2-chōme-3 Shinjuku, Zushi, Kanagawa 249-0007, Japan",
        "latitude": 35.2918619,
        "longitude": 139.57264469999998
    },
    {
        "category": "beaches",
        "title": "Kasai Marine Park West Beach",
        "rating": 4.4,
        "address": "Kasai Rinkai Park, 6 Chome-2 Rinkaicho, Edogawa City, Tokyo 134-0086, Japan",
        "latitude": 35.6377637,
        "longitude": 139.8566262
    },
    {
        "category": "beaches",
        "title": "Kobohama Beach",
        "rating": 3.8,
        "address": "2 Chome-2 Motomachi, Oshima, Tokyo 100-0101, Japan",
        "latitude": 34.745705099999995,
        "longitude": 139.353897
    },
    {
        "category": "beaches",
        "title": "Beach of Kawasaki",
        "rating": 4.1,
        "address": "58-1 Higashiogishima, Kawasaki Ward, Kawasaki, Kanagawa 210-0869, Japan",
        "latitude": 35.5043163,
        "longitude": 139.775472
    },
    {
        "category": "beaches",
        "title": "Sakaiura Beach",
        "rating": 4.6,
        "address": "Sakaiura Chichijima, Ogasawara, Tokyo 100-2101, Japan",
        "latitude": 27.0857766,
        "longitude": 142.207486
    },
    {
        "category": "beaches",
        "title": "Onjuku Chuo Beach",
        "rating": 4.3,
        "address": "31 Suka, Onjuku, Isumi District, Chiba 299-5106, Japan",
        "latitude": 35.183524999999996,
        "longitude": 140.35447689999998
    },
    {
        "category": "beaches",
        "title": "Nishi nagisa",
        "rating": 4.2,
        "address": "6 Chome-2 Rinkaicho, Edogawa City, Tokyo 134-0086, Japan",
        "latitude": 35.6382816,
        "longitude": 139.85461619999998
    },
    {
        "category": "beaches",
        "title": "Kominato Beach",
        "rating": 4.5,
        "address": "Kitafukurozawa Chichijima, Ogasawara, Tokyo 100-2101, Japan",
        "latitude": 27.0603207,
        "longitude": 142.19513
    },
    {
        "category": "beaches",
        "title": "Sunset Beach",
        "rating": 3.8,
        "address": "4 Chome-2 Yashio, Shinagawa City, Tokyo 140-0003, Japan",
        "latitude": 35.5894329,
        "longitude": 139.7501456
    },
    {
        "category": "beaches",
        "title": "Sokodo Beach",
        "rating": 4.4,
        "address": "Japan, 〒100-1511 Tokyo, Hachijo Town, Mitsune, 八丈島八丈町三根",
        "latitude": 33.1235102,
        "longitude": 139.8164923
    },
    {
        "category": "beaches",
        "title": "Oarai Sun beach",
        "rating": 4.1,
        "address": "地先 Minatochuo, Oarai, Higashiibaraki District, Ibaraki 311-1305, Japan",
        "latitude": 36.302667299999996,
        "longitude": 140.56778309999999
    },
    {
        "category": "beaches",
        "title": "Kasai Marine Park",
        "rating": 4.4,
        "address": "6 Chome-地先 Rinkaicho, Edogawa City, Tokyo 134-0086, Japan",
        "latitude": 35.6382566,
        "longitude": 139.8555293
    },
    {
        "category": "beaches",
        "title": "Honson-maehama Coast",
        "rating": 4.3,
        "address": "2 Chome-4-8 Honson, Niijima, Tokyo 100-0402, Japan",
        "latitude": 34.380775,
        "longitude": 139.254198
    },
    {
        "category": "beaches",
        "title": "Beach Area",
        "rating": 4.2,
        "address": "1 Furusatonohamabekoen, Ota City, Tokyo 143-0007, Japan",
        "latitude": 35.5737892,
        "longitude": 139.7417012
    },
    {
        "category": "swimming pools",
        "title": "Aqua Field Shiba Park",
        "rating": 4,
        "address": "2 Chome-7-2 Shibakoen, Minato City, Tokyo 105-0011, Japan",
        "latitude": 35.6545324,
        "longitude": 139.75064659999998
    },
    {
        "category": "swimming pools",
        "title": "Metropolitan Gymnasium Indoor Pool",
        "rating": 4.2,
        "address": "1 Chome-17-1 Sendagaya, Shibuya, Tokyo 151-0051, Japan",
        "latitude": 35.6790995,
        "longitude": 139.71123839999998
    },
    {
        "category": "swimming pools",
        "title": "Garden Pool",
        "rating": 3.9,
        "address": "ホテルニューオータニ ガーデンプール, 4-1 Kioicho, Chiyoda City, Tokyo 102-8578, Japan",
        "latitude": 35.680510999999996,
        "longitude": 139.7334849
    },
    {
        "category": "swimming pools",
        "title": "Swimming Pool",
        "rating": 3.8,
        "address": "1 Chome-1-10 Imado, Taito City, Tokyo 111-0024, Japan",
        "latitude": 35.7172177,
        "longitude": 139.8048311
    },
    {
        "category": "swimming pools",
        "title": "Musashino City Swimming Pool",
        "rating": 4,
        "address": "5 Chome-11-33 Kichijoji Kitamachi, Musashino, Tokyo 180-0001, Japan",
        "latitude": 35.7189378,
        "longitude": 139.56783819999998
    },
    {
        "category": "swimming pools",
        "title": "Garden Swimming Pool",
        "rating": 3,
        "address": "3 Chome-3 Shibakoen, Minato City, Tokyo 105-0011, Japan",
        "latitude": 35.658327899999996,
        "longitude": 139.7489406
    },
    {
        "category": "swimming pools",
        "title": "Haginaka park pool",
        "rating": 4,
        "address": "3 Chome-26-46 Haginaka, Ota City, Tokyo 144-0047, Japan",
        "latitude": 35.5499392,
        "longitude": 139.7368227
    },
    {
        "category": "swimming pools",
        "title": "Yoyogi National Stadium Indoor Swimming Pools",
        "rating": 3.9,
        "address": "2 Chome-1-1 Jinnan, Shibuya, Tokyo 150-0041, Japan",
        "latitude": 35.6667359,
        "longitude": 139.7002173
    },
    {
        "category": "swimming pools",
        "title": "Ryogoku Indoor Swimming Pool",
        "rating": 4,
        "address": "1 Chome-8-1 Yokoami, Sumida City, Tokyo 130-0015, Japan",
        "latitude": 35.6978292,
        "longitude": 139.7963215
    },
    {
        "category": "swimming pools",
        "title": "Garden Pool, ANA InterContinental",
        "rating": 3.3,
        "address": "ANAインターコンチネンタル ホテル東京, 4F, 1 Chome-12-33 Akasaka, Minato City, Tokyo 107-0052, Japan",
        "latitude": 35.6682896,
        "longitude": 139.7408307
    },
    {
        "category": "swimming pools",
        "title": "Minatoku Sports Center",
        "rating": 4.2,
        "address": "Japan, 〒105-0023 Tokyo, Minato City, Shibaura, 1 Chome−16−1 Minato Park Shibaura, 3階, みなとパーク芝浦 3～8 階",
        "latitude": 35.646626,
        "longitude": 139.7517968
    },
    {
        "category": "swimming pools",
        "title": "Shibuya Ward Sports Center Indoor Swimming Pool",
        "rating": 3.7,
        "address": "1 Chome-40-18 Nishihara, Shibuya, Tokyo 151-0066, Japan",
        "latitude": 35.6760285,
        "longitude": 139.6806416
    },
    {
        "category": "swimming pools",
        "title": "Tokyo Aquatics Centre",
        "rating": 4.2,
        "address": "2 Chome-2-1 Tatsumi, Koto City, Tokyo 135-0053, Japan",
        "latitude": 35.6514093,
        "longitude": 139.8150646
    },
    {
        "category": "swimming pools",
        "title": "Tokyo Metropolitan Gymnasium",
        "rating": 4.1,
        "address": "1 Chome-17-1 Sendagaya, Shibuya, Tokyo 151-0051, Japan",
        "latitude": 35.679736399999996,
        "longitude": 139.71240509999998
    },
    {
        "category": "swimming pools",
        "title": "Higashin Arena",
        "rating": 3.9,
        "address": "4 Chome-15-1 Kinshi, Sumida City, Tokyo 130-0013, Japan",
        "latitude": 35.6996233,
        "longitude": 139.8173084
    },
    {
        "category": "swimming pools",
        "title": "Resident Center Outdoor Swimming Pool",
        "rating": 4,
        "address": "2 Chome-4-36 Meguro, Meguro City, Tokyo 153-0063, Japan",
        "latitude": 35.6351557,
        "longitude": 139.7087711
    },
    {
        "category": "swimming pools",
        "title": "Meguro Residents' Center Indoor Swimming Pool",
        "rating": 4,
        "address": "2 Chome-4-36 Meguro, Meguro City, Tokyo 153-0063, Japan",
        "latitude": 35.6354036,
        "longitude": 139.7084717
    },
    {
        "category": "swimming pools",
        "title": "Pool WAI (Water Amusement Island)",
        "rating": 4.1,
        "address": "4015-1 Yanokuchi, Inagi, Tokyo 206-8566, Japan",
        "latitude": 35.6234508,
        "longitude": 139.52016179999998
    },
    {
        "category": "swimming pools",
        "title": "Setagaya Indoor Heated Swimming Pool",
        "rating": 4.3,
        "address": "4 Chome-6-1 Okura, Setagaya City, Tokyo 157-0074, Japan",
        "latitude": 35.631436099999995,
        "longitude": 139.6125942
    },
    {
        "category": "swimming pools",
        "title": "Heiwajima Park Pool",
        "rating": 3.7,
        "address": "4 Chome-2-2 Heiwajima, Ota City, Tokyo 143-0006, Japan",
        "latitude": 35.581747799999995,
        "longitude": 139.74210979999998
    },
    {
        "category": "resorts",
        "title": "OMO5 Tokyo Otsuka by Hoshino Resorts",
        "rating": 4.4,
        "address": "2 Chome-26-1 Kitaotsuka, Toshima City, Tokyo 170-0004, Japan",
        "latitude": 35.7329647,
        "longitude": 139.7292201
    },
    {
        "category": "resorts",
        "title": "Grand Hyatt Tokyo",
        "rating": 4.4,
        "address": "6 Chome-10-3 Roppongi, Minato City, Tokyo 106-0032, Japan",
        "latitude": 35.660077699999995,
        "longitude": 139.7283208
    },
    {
        "category": "resorts",
        "title": "OMO3 Tokyo Akasaka by Hoshino Resorts",
        "rating": 4.2,
        "address": "4 Chome-3-2 Akasaka, Minato City, Tokyo 107-0052, Japan",
        "latitude": 35.675022,
        "longitude": 139.7359607
    },
    {
        "category": "resorts",
        "title": "OMO3 Asakusa by Hoshino Resorts",
        "rating": 4.2,
        "address": "1 Chome-15-5 Hanakawado, Taito City, Tokyo 111-0033, Japan",
        "latitude": 35.713826399999995,
        "longitude": 139.7983176
    },
    {
        "category": "resorts",
        "title": "OMO5 Tokyo Gotanda by Hoshino Resorts",
        "rating": 4.4,
        "address": "8 Chome-4-13 Nishigotanda, Shinagawa City, Tokyo 141-0031, Japan",
        "latitude": 35.6224876,
        "longitude": 139.7215785
    },
    {
        "category": "resorts",
        "title": "Aman Tokyo",
        "rating": 4.4,
        "address": "The Otemachi Tower, 1 Chome-5-6 Ōtemachi, Chiyoda City, Tokyo 100-0004, Japan",
        "latitude": 35.6854775,
        "longitude": 139.7656705
    },
    {
        "category": "resorts",
        "title": "The Ritz-Carlton, Tokyo",
        "rating": 4.5,
        "address": "Tokyo Midtown, 9 Chome-7-1 Akasaka, Minato City, Tokyo 107-6245, Japan",
        "latitude": 35.6662932,
        "longitude": 139.7312789
    },
    {
        "category": "resorts",
        "title": "Conrad Tokyo",
        "rating": 4.5,
        "address": "1 Chome-9-1 Higashishinbashi, Minato City, Tokyo 105-7337, Japan",
        "latitude": 35.6628932,
        "longitude": 139.76128989999998
    },
    {
        "category": "resorts",
        "title": "APA Hotel & Resort Ryogoku Eki Tower",
        "rating": 4.2,
        "address": "1 Chome-11-10 Yokoami, Sumida City, Tokyo 130-0015, Japan",
        "latitude": 35.697591599999996,
        "longitude": 139.7943962
    },
    {
        "category": "resorts",
        "title": "Mandarin Oriental, Tokyo",
        "rating": 4.5,
        "address": "2 Chome-1-1 Nihonbashimuromachi, Chuo City, Tokyo 103-8328, Japan",
        "latitude": 35.6870475,
        "longitude": 139.77306339999998
    },
    {
        "category": "resorts",
        "title": "Park Hotel Tokyo",
        "rating": 4.4,
        "address": "汐留メディアタワー フロント 25F, 1 Chome-7-1 Higashishinbashi, Minato City, Tokyo 105-7227, Japan",
        "latitude": 35.6630543,
        "longitude": 139.75945149999998
    },
    {
        "category": "resorts",
        "title": "Tokyo Disney Resort",
        "rating": 4.6,
        "address": "1-1 Maihama, Urayasu, Chiba 279-0031, Japan",
        "latitude": 35.630657899999996,
        "longitude": 139.8828695
    },
    {
        "category": "resorts",
        "title": "1955 Tokyo Bay by Hoshino Resorts",
        "rating": 4.3,
        "address": "星野リゾート １９５５, 7 Chome-2-3 Hinode, Urayasu, Chiba 279-0013, Japan",
        "latitude": 35.6375813,
        "longitude": 139.93168409999998
    },
    {
        "category": "resorts",
        "title": "Hotel East 21 Tokyo",
        "rating": 4,
        "address": "6 Chome-3-3 Toyo, Koto City, Tokyo 135-0016, Japan",
        "latitude": 35.674483699999996,
        "longitude": 139.8147033
    },
    {
        "category": "resorts",
        "title": "HOSHINOYA Tokyo",
        "rating": 4.5,
        "address": "1 Chome-9-1 Ōtemachi, 千代田区 Chiyoda City, Tokyo 100-0004, Japan",
        "latitude": 35.6878409,
        "longitude": 139.7651065
    },
    {
        "category": "resorts",
        "title": "InterContinental Tokyo Bay",
        "rating": 4.3,
        "address": "1 Chome-16-2 Kaigan, Minato City, Tokyo 105-8576, Japan",
        "latitude": 35.653006,
        "longitude": 139.7623749
    },
    {
        "category": "resorts",
        "title": "Hilton Tokyo",
        "rating": 4.3,
        "address": "6 Chome-6-2 Nishishinjuku, Shinjuku City, Tokyo 160-0023, Japan",
        "latitude": 35.6925835,
        "longitude": 139.6911889
    },
    {
        "category": "resorts",
        "title": "Hilton Tokyo Bay",
        "rating": 4.3,
        "address": "1-8 Maihama, Urayasu, Chiba 279-0031, Japan",
        "latitude": 35.6270749,
        "longitude": 139.8739812
    },
    {
        "category": "resorts",
        "title": "Four Seasons Hotel Tokyo At Marunouchi",
        "rating": 4.3,
        "address": "Pacific Century Place Marunouchi, 1 Chome-11-1 Marunouchi, Chiyoda City, Tokyo 100-6277, Japan",
        "latitude": 35.6781486,
        "longitude": 139.76699069999998
    },
    {
        "category": "resorts",
        "title": "Andaz Tokyo Toranomon Hills",
        "rating": 4.5,
        "address": "Toranomon Hills Mori Tower 51st Floor, 1 Chome-23-4 Toranomon, Minato City, Tokyo 105-0001, Japan",
        "latitude": 35.6668835,
        "longitude": 139.7493926
    },
    {
        "category": "camping sites",
        "title": "Heiwajima Park Camping Ground",
        "rating": 3.7,
        "address": "4 Chome-2-2 Heiwajima, Ota City, Tokyo 143-0006, Japan",
        "latitude": 35.5820647,
        "longitude": 139.74335639999998
    },
    {
        "category": "camping sites",
        "title": "Kanotoen Camping Ground",
        "rating": 4.6,
        "address": "8018 神戸, Hinohara, Nishitama District, Tokyo, Tokyo 190-0200, Japan",
        "latitude": 35.7504437,
        "longitude": 139.1157849
    },
    {
        "category": "camping sites",
        "title": "Kaniyama Camping Ground",
        "rating": 3.9,
        "address": "2 Chome-１６-1 Jindaiji Minamimachi, Chofu, Tokyo 182-0013, Japan",
        "latitude": 35.6628523,
        "longitude": 139.557345
    },
    {
        "category": "camping sites",
        "title": "Jonanjima Seaside Park Camping Ground",
        "rating": 4.1,
        "address": "4 Chome-2-2 Jonanjima, Ota City, Tokyo 143-0002, Japan",
        "latitude": 35.5781239,
        "longitude": 139.78404899999998
    },
    {
        "category": "camping sites",
        "title": "Jonanjima Seaside Park the 2nd Camping Site",
        "rating": 4.2,
        "address": "4 Chome-2-2 Jonanjima, Ota City, Tokyo 143-0002, Japan",
        "latitude": 35.582385099999996,
        "longitude": 139.7838828
    },
    {
        "category": "camping sites",
        "title": "Shimizuen Camping Ground",
        "rating": 4.2,
        "address": "27 下元郷, Hinohara, Nishitama District, Tokyo, Tokyo 190-0200, Japan",
        "latitude": 35.7253894,
        "longitude": 139.15864299999998
    },
    {
        "category": "camping sites",
        "title": "Ochiai Camping Ground",
        "rating": 4.6,
        "address": "278 Otsu, Akiruno, Tokyo 190-0174, Japan",
        "latitude": 35.728390399999995,
        "longitude": 139.1877824
    },
    {
        "category": "camping sites",
        "title": "Tsukijigawa Park Day Camping Ground",
        "rating": 3.9,
        "address": "3 Chome-6-3 Tsukiji, Chuo City, Tokyo 104-0045, Japan",
        "latitude": 35.668341999999996,
        "longitude": 139.7748977
    },
    {
        "category": "camping sites",
        "title": "Tama hills camp",
        "rating": 4.3,
        "address": "Omaru, Inagi, Tokyo 206-0801, Japan",
        "latitude": 35.637768799999996,
        "longitude": 139.47469909999998
    },
    {
        "category": "camping sites",
        "title": "Jonanjima Seaside Park",
        "rating": 4.3,
        "address": "4 Chome-2-2 Jonanjima, Ota City, Tokyo 143-0002, Japan",
        "latitude": 35.580399,
        "longitude": 139.7854262
    },
    {
        "category": "camping sites",
        "title": "Tenkoo Camping Ground",
        "rating": 4.7,
        "address": "2205 Takatsukimachi, Hachioji, Tokyo 192-0002, Japan",
        "latitude": 35.7077585,
        "longitude": 139.3188328
    },
    {
        "category": "camping sites",
        "title": "Hikawa Camp site",
        "rating": 4,
        "address": "キャンプ場管理事務所 702番地, 702 Hikawa, Okutama, Nishitama District, Tokyo, Tokyo 198-0212, Japan",
        "latitude": 35.8070869,
        "longitude": 139.0992978
    },
    {
        "category": "camping sites",
        "title": "Nakachaya Camping Ground",
        "rating": 4.2,
        "address": "478 Otaba, Okutama, Nishitama District, Tokyo, Tokyo 198-0101, Japan",
        "latitude": 35.845883,
        "longitude": 139.152821
    },
    {
        "category": "camping sites",
        "title": "Kawai Camping Ground",
        "rating": 3.8,
        "address": "187 Umezawa, Okutama, Nishitama District, Tokyo, Tokyo 198-0103, Japan",
        "latitude": 35.8115696,
        "longitude": 139.1649289
    },
    {
        "category": "camping sites",
        "title": "Hikagezawa Camping Ground",
        "rating": 3.8,
        "address": "2181-1 Takaomachi, Hachioji, Tokyo 193-0844, Japan",
        "latitude": 35.634876,
        "longitude": 139.241493
    },
    {
        "category": "camping sites",
        "title": "Yama no Furusato-mura Camping Ground",
        "rating": 4,
        "address": "Q26F+C6, 1740 Kawano, Okutama, Nishitama District, Tokyo, Tokyo 198-0225, Japan",
        "latitude": 35.7614522,
        "longitude": 139.0260963
    },
    {
        "category": "camping sites",
        "title": "Tokura Camping Ground",
        "rating": 3.9,
        "address": "694 Tokura, Akiruno, Tokyo 190-0173, Japan",
        "latitude": 35.7316626,
        "longitude": 139.2014255
    },
    {
        "category": "camping sites",
        "title": "Okutama River Terrace",
        "rating": 4.2,
        "address": "16-1 Tanazawa, Okutama, Nishitama District, Tokyo, Tokyo 198-0106, Japan",
        "latitude": 35.8154976,
        "longitude": 139.1405301
    },
    {
        "category": "camping sites",
        "title": "Hatonosu Garden Campsite",
        "rating": 3.3,
        "address": "869 Tanazawa, Okutama, Nishitama District, Tokyo, Tokyo 198-0106, Japan",
        "latitude": 35.807769,
        "longitude": 139.134937
    },
    {
        "category": "camping sites",
        "title": "Camp Site",
        "rating": 4,
        "address": "2 Chome-先 Rinkaicho, Edogawa City, Tokyo 134-0086, Japan",
        "latitude": 35.6536727,
        "longitude": 139.8608004
    },
    {
        "category": "hiking trails",
        "title": "Ome Hills Hiking Course",
        "rating": 4.4,
        "address": "Ome, Tokyo 198-0041, Japan",
        "latitude": 35.7932761,
        "longitude": 139.2600109
    },
    {
        "category": "hiking trails",
        "title": "Todoroki Ravine Park",
        "rating": 4.2,
        "address": "1 Chome-22-26 Todoroki, Setagaya City, Tokyo 158-0082, Japan",
        "latitude": 35.603897599999996,
        "longitude": 139.6462372
    },
    {
        "category": "hiking trails",
        "title": "Tamagawa-ohashi Ryokuchi Park",
        "rating": 4,
        "address": "3 Chome-23-9 Yaguchi, Ota City, Tokyo 146-0093, Japan",
        "latitude": 35.557433599999996,
        "longitude": 139.6921344
    },
    {
        "category": "hiking trails",
        "title": "Hatonosu Canyon",
        "rating": 4.3,
        "address": "Tanazawa, Okutama, Nishitama District, Tokyo, Tokyo 198-0106, Japan",
        "latitude": 35.813471899999996,
        "longitude": 139.1287523
    },
    {
        "category": "hiking trails",
        "title": "Mount Mitake",
        "rating": 4.4,
        "address": "94 Mitakesan, Ome, Tokyo 198-0175, Japan",
        "latitude": 35.7828667,
        "longitude": 139.14976389999998
    },
    {
        "category": "hiking trails",
        "title": "Mt. Nagabuchi Trail",
        "rating": 3.4,
        "address": "2 Chome-373-5 Komakicho, Ome, Tokyo 198-0053, Japan",
        "latitude": 35.7782262,
        "longitude": 139.2528399
    },
    {
        "category": "hiking trails",
        "title": "Okutama Mukashi Michi Trailhead",
        "rating": 4.3,
        "address": "1462 Hikawa, Okutama, Nishitama District, Tokyo, Tokyo 198-0212, Japan",
        "latitude": 35.806467999999995,
        "longitude": 139.094706
    },
    {
        "category": "hiking trails",
        "title": "Okutama Mukashi Michi Walking Trail",
        "rating": 4.5,
        "address": "奥多摩むかし道, Sakai, Okutama, Nishitama District, Tokyo, Tokyo 198-0222, Japan",
        "latitude": 35.7964784,
        "longitude": 139.07686089999999
    },
    {
        "category": "hiking trails",
        "title": "Kasumi Hill Hiking Trail",
        "rating": 3.3,
        "address": "Tomioka, Ome, Tokyo 198-0003, Japan",
        "latitude": 35.8238959,
        "longitude": 139.29797829999998
    },
    {
        "category": "hiking trails",
        "title": "Mt. Takao Trail 6 (Biwa Falls Course)",
        "rating": 4.5,
        "address": "2186 Takaomachi, Hachioji, Tokyo 193-0844, Japan",
        "latitude": 35.6305864,
        "longitude": 139.2622802
    },
    {
        "category": "hiking trails",
        "title": "Kongo Falls",
        "rating": 4.4,
        "address": "Kamikawa, Hachioji, Tokyo 192-0151, Japan",
        "latitude": 35.7152926,
        "longitude": 139.2159773
    },
    {
        "category": "hiking trails",
        "title": "Mt. Daichozan",
        "rating": 3.7,
        "address": "1848-2 Kusabana, Akiruno, Tokyo 197-0802, Japan",
        "latitude": 35.743461599999996,
        "longitude": 139.3110822
    },
    {
        "category": "hiking trails",
        "title": "Rock Garden",
        "rating": 4.6,
        "address": "Mitakesan, Ome, Tokyo 190-0175, Japan",
        "latitude": 35.7754244,
        "longitude": 139.14631749999998
    },
    {
        "category": "hiking trails",
        "title": "Senkawa walking path",
        "rating": 4.5,
        "address": "4 Chome-15-13 Shinkawa, Mitaka, Tokyo 181-0004, Japan",
        "latitude": 35.6733008,
        "longitude": 139.5749215
    },
    {
        "category": "hiking trails",
        "title": "Forest path",
        "rating": 4.3,
        "address": "5 Chome-21-5 Shirokanedai, Minato City, Tokyo 108-0071, Japan",
        "latitude": 35.6399517,
        "longitude": 139.7189216
    },
    {
        "category": "hiking trails",
        "title": "サス沢山登山口",
        "rating": 4.3,
        "address": "3 Hara, Okutama, Nishitama District, Tokyo, Tokyo 198-0223, Japan",
        "latitude": 35.787619,
        "longitude": 139.0513158
    },
    {
        "category": "hiking trails",
        "title": "Otomeyama Park",
        "rating": 4.2,
        "address": "2 Chome-10 Shimoochiai, Shinjuku City, Tokyo 161-0033, Japan",
        "latitude": 35.7181808,
        "longitude": 139.7019067
    },
    {
        "category": "hiking trails",
        "title": "Meiji no Mori Takao Quasi-National Park",
        "rating": 4.7,
        "address": "Takaomachi, Hachioji, Tokyo 193-0844, Japan",
        "latitude": 35.627639699999996,
        "longitude": 139.2407012
    },
    {
        "category": "hiking trails",
        "title": "Mt. Kawanori Trailhead",
        "rating": 3.9,
        "address": "Hikawa, Okutama, Nishitama District, Tokyo, Tokyo 198-0212, Japan",
        "latitude": 35.8318213,
        "longitude": 139.0762863
    },
    {
        "category": "hiking trails",
        "title": "Mt. Akabokko",
        "rating": 4.4,
        "address": "1 Chome Wadamachi, Ome, Tokyo 198-0062, Japan",
        "latitude": 35.769169999999995,
        "longitude": 139.23826169999998
    },
    {
        "category": "ecotourism areas",
        "title": "Hamarikyu Gardens",
        "rating": 4.4,
        "address": "1-1 Hamarikyuteien, Chuo City, Tokyo 104-0046, Japan",
        "latitude": 35.6596559,
        "longitude": 139.7634091
    },
    {
        "category": "ecotourism areas",
        "title": "Ueno Park",
        "rating": 4.3,
        "address": "Uenokoen, Taito City, Tokyo 110-0007, Japan",
        "latitude": 35.7147557,
        "longitude": 139.7734312
    },
    {
        "category": "ecotourism areas",
        "title": "Akigawa Valley",
        "rating": 4.3,
        "address": "1420 Tokura, Akiruno, Tokyo 190-0173, Japan",
        "latitude": 35.7265758,
        "longitude": 139.1897668
    },
    {
        "category": "ecotourism areas",
        "title": "Hossawa Falls",
        "rating": 4.4,
        "address": "本宿, Hinohara, Nishitama District, Tokyo, Tokyo 190-0214, Japan",
        "latitude": 35.727554,
        "longitude": 139.1391256
    },
    {
        "category": "ecotourism areas",
        "title": "Hotel New Otani Japanese Garden",
        "rating": 4.5,
        "address": "4-1 Kioicho, Chiyoda City, Tokyo 102-8578, Japan",
        "latitude": 35.680195499999996,
        "longitude": 139.7342741
    },
    {
        "category": "temples",
        "title": "Sensō-ji",
        "rating": 4.5,
        "address": "2 Chome-3-1 Asakusa, Taito City, Tokyo 111-0032, Japan",
        "latitude": 35.7147651,
        "longitude": 139.7966553
    },
    {
        "category": "temples",
        "title": "Kotoku-in",
        "rating": 4.4,
        "address": "4 Chome-2-28 Hase, Kamakura, Kanagawa 248-0016, Japan",
        "latitude": 35.3168145,
        "longitude": 139.53574419999998
    },
    {
        "category": "temples",
        "title": "Kanei-ji Temple",
        "rating": 4.2,
        "address": "1 Chome-14-11 Uenosakuragi, Taito City, Tokyo 110-0002, Japan",
        "latitude": 35.721753,
        "longitude": 139.7746162
    },
    {
        "category": "museums",
        "title": "Tokyo National Museum",
        "rating": 4.5,
        "address": "13-9 Uenokoen, Taito City, Tokyo 110-8712, Japan",
        "latitude": 35.7188351,
        "longitude": 139.7765215
    },
    {
        "category": "museums",
        "title": "Mori Art Museum",
        "rating": 4.3,
        "address": "Roppongi Hills Mori Tower, 53階, 6 Chome-10-1 Roppongi, Minato City, Tokyo 106-6150, Japan",
        "latitude": 35.6604621,
        "longitude": 139.7292785
    },
    {
        "category": "museums",
        "title": "Nezu Museum",
        "rating": 4.5,
        "address": "6 Chome-5-1 Minamiaoyama, Minato City, Tokyo 107-0062, Japan",
        "latitude": 35.6622568,
        "longitude": 139.7170937
    },
    {
        "category": "museums",
        "title": "The Sumida Hokusai Museum",
        "rating": 4.1,
        "address": "2 Chome-7-2 Kamezawa, Sumida City, Tokyo 130-0014, Japan",
        "latitude": 35.6963313,
        "longitude": 139.800414
    },
    {
        "category": "museums",
        "title": "Fire Museum",
        "rating": 4.4,
        "address": "3 Chome-１０-10 Yotsuya, Shinjuku City, Tokyo 160-0004, Japan",
        "latitude": 35.6882599,
        "longitude": 139.7199694
    },
    {
        "category": "museums",
        "title": "The National Art Center, Tokyo",
        "rating": 4.4,
        "address": "7 Chome-22-2 Roppongi, Minato City, Tokyo 106-8558, Japan",
        "latitude": 35.665289,
        "longitude": 139.726374
    },
    {
        "category": "museums",
        "title": "21_21 Design Sight",
        "rating": 4.4,
        "address": "東京ミッドタウン ミッドタウン・ガーデン, 9 Chome-7-6 Akasaka, Minato City, Tokyo 107-0052, Japan",
        "latitude": 35.667524799999995,
        "longitude": 139.7305214
    },
    {
        "category": "museums",
        "title": "The National Museum of Western Art",
        "rating": 4.5,
        "address": "7-7 Uenokoen, Taito City, Tokyo 110-0007, Japan",
        "latitude": 35.7153869,
        "longitude": 139.77581379999998
    },
    {
        "category": "museums",
        "title": "Tokyo Metropolitan Art Museum",
        "rating": 4.2,
        "address": "8-36 Uenokoen, Taito City, Tokyo 110-0007, Japan",
        "latitude": 35.717211299999995,
        "longitude": 139.7729387
    },
    {
        "category": "museums",
        "title": "The National Museum of Modern Art, Tokyo",
        "rating": 4.3,
        "address": "3-1 Kitanomarukoen, Chiyoda City, Tokyo 102-0091, Japan",
        "latitude": 35.6905432,
        "longitude": 139.7546932
    },
    {
        "category": "museums",
        "title": "The National Museum of Emerging Science and Innovation Japan (Miraikan)",
        "rating": 4.1,
        "address": "2 Chome-3-6 Aomi, Koto City, Tokyo 135-0064, Japan",
        "latitude": 35.619335899999996,
        "longitude": 139.7763995
    },
    {
        "category": "museums",
        "title": "Tokyo Metropolitan Teien Art Museum",
        "rating": 4.4,
        "address": "5 Chome-21-9 Shirokanedai, Minato City, Tokyo 108-0071, Japan",
        "latitude": 35.6369465,
        "longitude": 139.7190408
    },
    {
        "category": "museums",
        "title": "Ghibli Museum",
        "rating": 4.5,
        "address": "1 Chome-1-83 Shimorenjaku, Mitaka, Tokyo 181-0013, Japan",
        "latitude": 35.696238,
        "longitude": 139.5704317
    },
    {
        "category": "museums",
        "title": "National Museum of Nature and Science",
        "rating": 4.5,
        "address": "7-20 Uenokoen, Taito City, Tokyo 110-8718, Japan",
        "latitude": 35.7164273,
        "longitude": 139.7763336
    },
    {
        "category": "museums",
        "title": "Museum of Contemporary Art Tokyo (MOT)",
        "rating": 4.4,
        "address": "4 Chome-1-1 Miyoshi, Koto City, Tokyo 135-0022, Japan",
        "latitude": 35.679746699999995,
        "longitude": 139.80819209999999
    },
    {
        "category": "museums",
        "title": "Fukagawa Edo Museum",
        "rating": 4.3,
        "address": "1 Chome-3-28 Shirakawa, Koto City, Tokyo 135-0021, Japan",
        "latitude": 35.681185899999996,
        "longitude": 139.8005921
    },
    {
        "category": "museums",
        "title": "Mitsubishi Ichigokan Museum",
        "rating": 4.4,
        "address": "2 Chome-6-2 Marunouchi, Chiyoda City, Tokyo 100-0005, Japan",
        "latitude": 35.6785286,
        "longitude": 139.7633347
    },
    {
        "category": "museums",
        "title": "Ōta Memorial Museum of Art",
        "rating": 4.3,
        "address": "1 Chome-10-10 Jingumae, Shibuya, Tokyo 150-0001, Japan",
        "latitude": 35.6693959,
        "longitude": 139.7049808
    },
    {
        "category": "museums",
        "title": "teamLab Planets TOKYO DMM",
        "rating": 4.5,
        "address": "6 Chome-1-16 Toyosu, Koto City, Tokyo 135-0061, Japan",
        "latitude": 35.6491207,
        "longitude": 139.7897739
    },
    {
        "category": "museums",
        "title": "Tokyo Photographic Art Museum",
        "rating": 4.3,
        "address": "Japan, 〒153-0062 Tokyo, Meguro City, Mita, 1 Chome−13−3, 恵比寿ガーデンプレイス内",
        "latitude": 35.6416411,
        "longitude": 139.71328929999999
    },
    {
        "category": "night markets",
        "title": "Nakamise Shopping Street",
        "rating": 4.3,
        "address": "1 Chome-36-3 Asakusa, Taito City, Tokyo 111-0032, Japan",
        "latitude": 35.711841299999996,
        "longitude": 139.7964542
    },
    {
        "category": "night markets",
        "title": "Ueno Ameyoko Shopping Street",
        "rating": 4.3,
        "address": "4 Chome-10 Ueno, Taito City, Tokyo 110-0005, Japan",
        "latitude": 35.7100581,
        "longitude": 139.7745474
    },
    {
        "category": "night markets",
        "title": "Night Market",
        "rating": 4.5,
        "address": "Japan, 〒150-0002 Tokyo, Shibuya, 2 Chome−6−6 COERU SHIBUYA EAST, 1階",
        "latitude": 35.6597526,
        "longitude": 139.70799069999998
    },
    {
        "category": "night markets",
        "title": "Tsukiji Outer Market",
        "rating": 4.2,
        "address": "および６丁目一部, 4 Chome Tsukiji, Chuo City, Tokyo 104-0045, Japan",
        "latitude": 35.6647703,
        "longitude": 139.7702515
    },
    {
        "category": "night markets",
        "title": "Taipei Night Market Shinjuku Dai-ichi Seimei Building",
        "rating": 3.1,
        "address": "Shinjuku Daiichi Seimei Building, 1F, 2 Chome-7-1 Nishishinjuku, Shinjuku City, Tokyo 160-0023, Japan",
        "latitude": 35.691658,
        "longitude": 139.6911469
    },
    {
        "category": "night markets",
        "title": "Aoyama Farmers Market",
        "rating": 4.4,
        "address": "5 Chome-53-70 Jingumae, Shibuya, Tokyo 150-0001, Japan",
        "latitude": 35.6620878,
        "longitude": 139.70848469999999
    },
    {
        "category": "night markets",
        "title": "Joyful Minowa",
        "rating": 4,
        "address": "1 Chome-12 Minamisenju, Arakawa City, Tokyo 116-0003, Japan",
        "latitude": 35.732501299999996,
        "longitude": 139.7920507
    },
    {
        "category": "night markets",
        "title": "Tokyo Skytree Town",
        "rating": 4.5,
        "address": "1 Chome-1 Oshiage, Sumida City, Tokyo 131-0045, Japan",
        "latitude": 35.709937,
        "longitude": 139.8116637
    },
    {
        "category": "night markets",
        "title": "Marunouchi Naka-dori St.",
        "rating": 4.4,
        "address": "2 Chome Marunouchi, Chiyoda City, Tokyo 100-0005, Japan",
        "latitude": 35.680490899999995,
        "longitude": 139.7630081
    },
    {
        "category": "night markets",
        "title": "Oi Racecourse",
        "rating": 4.2,
        "address": "2 Chome-1-2 Katsushima, Shinagawa City, Tokyo 140-0012, Japan",
        "latitude": 35.5922219,
        "longitude": 139.740825
    },
    {
        "category": "night markets",
        "title": "Sugamo Jizodori Shopping Street",
        "rating": 4.1,
        "address": "4 Chome-22-8 Sugamo, Toshima City, Tokyo 170-0002, Japan",
        "latitude": 35.734864699999996,
        "longitude": 139.73645249999998
    },
    {
        "category": "night markets",
        "title": "Takeshita Street Square",
        "rating": 4.3,
        "address": "1 Chome-16-4 Jingumae, 渋谷区 Shibuya, Tokyo 150-0001, Japan",
        "latitude": 35.6711984,
        "longitude": 139.7043696
    },
    {
        "category": "night markets",
        "title": "Sunshine 60 Street",
        "rating": 3.9,
        "address": "1 Chome-22 Higashiikebukuro, Toshima City, Tokyo 170-0013, Japan",
        "latitude": 35.7298057,
        "longitude": 139.71510519999998
    },
    {
        "category": "night markets",
        "title": "Harajuku St",
        "rating": 4.3,
        "address": "3 Chome Jingumae, Shibuya, Tokyo 150-0001, Japan",
        "latitude": 35.6700776,
        "longitude": 139.7068651
    },
    {
        "category": "night markets",
        "title": "Tokyo City Flea Market",
        "rating": 4.2,
        "address": "2 Chome-1 Katsushima, Shinagawa City, Tokyo 140-0012, Japan",
        "latitude": 35.5949798,
        "longitude": 139.74304139999998
    },
    {
        "category": "night markets",
        "title": "Marche of the Sun",
        "rating": 4.1,
        "address": "1 Chome-8-1 Kachidoki, 中央区 Chuo City, Tokyo 104-0054, Japan",
        "latitude": 35.6589966,
        "longitude": 139.7766399
    },
    {
        "category": "night markets",
        "title": "Tsukiji Uogashi",
        "rating": 4,
        "address": "6 Chome-27-1 Tsukiji, Chuo City, Tokyo 104-0045, Japan",
        "latitude": 35.664270699999996,
        "longitude": 139.7704177
    },
    {
        "category": "night markets",
        "title": "Shibuya Chuogai",
        "rating": 4,
        "address": "1 Chome-12-6 Dogenzaka, Shibuya, Tokyo 150-0043, Japan",
        "latitude": 35.6579658,
        "longitude": 139.7000912
    },
    {
        "category": "night markets",
        "title": "Ebisu Yokocho",
        "rating": 3.9,
        "address": "1 Chome-7-4 Ebisu, Shibuya, Tokyo 150-0013, Japan",
        "latitude": 35.6482178,
        "longitude": 139.7106409
    },
    {
        "category": "night markets",
        "title": "Togoshi Ginza Shopping Street",
        "rating": 4,
        "address": "1 Chome-15-16 Togoshi, Shinagawa City, Tokyo 142-0041, Japan",
        "latitude": 35.615271799999995,
        "longitude": 139.7168419
    },
    {
        "category": "viewpoints",
        "title": "Tokyo City View",
        "rating": 4.4,
        "address": "Roppongi Hills Mori Tower, 52階, 6 Chome-10-1 Roppongi, Minato City, Tokyo 106-0032, Japan",
        "latitude": 35.6600712,
        "longitude": 139.7292907
    },
    {
        "category": "viewpoints",
        "title": "Tokyo Tower",
        "rating": 4.5,
        "address": "4 Chome-2-8 Shibakoen, Minato City, Tokyo 105-0011, Japan",
        "latitude": 35.6585805,
        "longitude": 139.7454329
    },
    {
        "category": "viewpoints",
        "title": "Tokyo Skytree",
        "rating": 4.4,
        "address": "1 Chome-1-2 Oshiage, Sumida City, Tokyo 131-0045, Japan",
        "latitude": 35.7100627,
        "longitude": 139.8107004
    },
    {
        "category": "viewpoints",
        "title": "Tokyo Metropolitan Government Building North Observation Deck",
        "rating": 4.5,
        "address": "Tokyo Metropolitan Government No.1 Building, 45F, 2 Chome-8-1 Nishishinjuku, Shinjuku City, Tokyo 163-8001, Japan",
        "latitude": 35.689733,
        "longitude": 139.6916563
    },
    {
        "category": "viewpoints",
        "title": "Tokyo Skytree Observation Deck",
        "rating": 4.5,
        "address": "1 Chome-1-2 Oshiage, Sumida City, Tokyo 131-0045, Japan",
        "latitude": 35.7102266,
        "longitude": 139.81069399999998
    },
    {
        "category": "viewpoints",
        "title": "Caretta Shiodome Sky View",
        "rating": 4.4,
        "address": "無料展望スペース Catetta Shiodome, 46F, 1 Chome-8-1 Higashishinbashi, Minato City, Tokyo 105-0021, Japan",
        "latitude": 35.6644594,
        "longitude": 139.7625223
    },
    {
        "category": "viewpoints",
        "title": "Tokyo Tower",
        "rating": 4.1,
        "address": "4 Chome-2-8 Shibakoen, Minato City, Tokyo 105-0011, Japan",
        "latitude": 35.6586022,
        "longitude": 139.74544799999998
    },
    {
        "category": "viewpoints",
        "title": "Shibuya Sky",
        "rating": 4.6,
        "address": "Japan, 〒150-6145 Tokyo, Shibuya, 2 Chome−24−12 スクランブルスクエア 14階・45階, 46階・屋上",
        "latitude": 35.6586719,
        "longitude": 139.7019848
    },
    {
        "category": "viewpoints",
        "title": "Tokyo Tower view point",
        "rating": null,
        "address": "5 Chome-11 Toranomon, Minato City, Tokyo 105-0001, Japan",
        "latitude": 35.6610507,
        "longitude": 139.7438929
    },
    {
        "category": "viewpoints",
        "title": "Tokyo Metropolitan Government Building South Observatory",
        "rating": 4.6,
        "address": "Tokyo Metropolitan Government No.1 Building, 45階, 2 Chome-8-1 Nishishinjuku, Shinjuku City, Tokyo 160-8001, Japan",
        "latitude": 35.689324899999995,
        "longitude": 139.6918129
    },
    {
        "category": "viewpoints",
        "title": "Observation Deck - First Floor",
        "rating": 4.5,
        "address": "東京タワーフットタウン 2F, 4 Chome-2-8 Shibakoen, Minato City, Tokyo 105-0011, Japan",
        "latitude": 35.6586662,
        "longitude": 139.7453582
    },
    {
        "category": "viewpoints",
        "title": "Roppongi Hills",
        "rating": 4.2,
        "address": "6 Chome-10-1 Roppongi, Minato City, Tokyo 106-6108, Japan",
        "latitude": 35.6607397,
        "longitude": 139.7292319
    },
    {
        "category": "viewpoints",
        "title": "Tokyo Tower Top Deck",
        "rating": 4.4,
        "address": "4 Chome-2-8 Shibakoen, Minato City, Tokyo 105-0011, Japan",
        "latitude": 35.6585696,
        "longitude": 139.745484
    },
    {
        "category": "viewpoints",
        "title": "Lookout",
        "rating": 4.4,
        "address": "2 Chome-6 Aomi, Koto City, Tokyo 135-0064, Japan",
        "latitude": 35.6150131,
        "longitude": 139.7763813
    },
    {
        "category": "viewpoints",
        "title": "Tokyo Sky Tree Tembo Galleria",
        "rating": 4.4,
        "address": "1 Chome-1-2 Oshiage, Sumida City, Tokyo 131-0045, Japan",
        "latitude": 35.7101105,
        "longitude": 139.8106991
    },
    {
        "category": "viewpoints",
        "title": "Sky Lobby",
        "rating": 3.9,
        "address": "Hills Tower Plaza 4F, 1 Chome-3-1 Azabudai, Minato City, Tokyo 106-0041, Japan",
        "latitude": 35.661213,
        "longitude": 139.7405899
    },
    {
        "category": "viewpoints",
        "title": "SkyTree View Point",
        "rating": 4.6,
        "address": "Japan, 〒131-0045 Tokyo, Sumida City, Oshiage, 1 Chome−1−2, 東京 スカイ ツリータウン ソラマチ 30階11番地",
        "latitude": 35.710498099999995,
        "longitude": 139.8124959
    },
    {
        "category": "viewpoints",
        "title": "SUNSHINE 60 OBSERVATORY TENBOU-PARK",
        "rating": 4.2,
        "address": "サンシャインシティ サンシャイン６０ビル ６０Ｆ, 3 Chome-1 Higashiikebukuro, Toshima City, Tokyo 170-8630, Japan",
        "latitude": 35.7292725,
        "longitude": 139.7183077
    },
    {
        "category": "viewpoints",
        "title": "Tokyo Night & Light",
        "rating": 4.6,
        "address": "2 Chome-8-1 Nishishinjuku, Shinjuku City, Tokyo 163-8001, Japan",
        "latitude": 35.6896633,
        "longitude": 139.6928239
    },
    {
        "category": "viewpoints",
        "title": "Sky Lounge",
        "rating": 4.6,
        "address": "ガーデンプレイスタワ 38階, 4 Chome-20-3 Ebisu, Shibuya, Tokyo 150-0013, Japan",
        "latitude": 35.6421603,
        "longitude": 139.7134704
    },
    {
        "category": "gardens",
        "title": "Koishikawa Korakuen Garden",
        "rating": 4.4,
        "address": "1 Chome-6-6 Koraku, Bunkyo City, Tokyo 112-0004, Japan",
        "latitude": 35.7056913,
        "longitude": 139.7492718
    },
    {
        "category": "gardens",
        "title": "Rikugien Gardens",
        "rating": 4.4,
        "address": "6 Chome-16-3 Honkomagome, Bunkyo City, Tokyo 113-0021, Japan",
        "latitude": 35.7331005,
        "longitude": 139.7457335
    },
    {
        "category": "gardens",
        "title": "Hamarikyu Gardens",
        "rating": 4.4,
        "address": "1-1 Hamarikyuteien, Chuo City, Tokyo 104-0046, Japan",
        "latitude": 35.6596559,
        "longitude": 139.7634091
    },
    {
        "category": "gardens",
        "title": "Kiyosumi Gardens",
        "rating": 4.4,
        "address": "3 Chome-3-9 Kiyosumi, Koto City, Tokyo 135-0024, Japan",
        "latitude": 35.6809021,
        "longitude": 139.7972649
    },
    {
        "category": "gardens",
        "title": "Mukojima-Hyakkaen Gardens",
        "rating": 4,
        "address": "3 Chome-18-3 Higashimukojima, Sumida City, Tokyo 131-0032, Japan",
        "latitude": 35.724214499999995,
        "longitude": 139.81560059999998
    },
    {
        "category": "gardens",
        "title": "Kyu-Furukawa Gardens",
        "rating": 4.2,
        "address": "1 Chome-27-39 Nishigahara, Kita City, Tokyo 114-0024, Japan",
        "latitude": 35.7430327,
        "longitude": 139.7467687
    },
    {
        "category": "gardens",
        "title": "Imperial Palace East National Gardens",
        "rating": 4.4,
        "address": "1-1 Chiyoda, Chiyoda City, Tokyo 100-8111, Japan",
        "latitude": 35.6867824,
        "longitude": 139.75714449999998
    },
    {
        "category": "gardens",
        "title": "Kyu-Shiba-rikyū Gardens",
        "rating": 4.3,
        "address": "1 Chome-4-1 Kaigan, Minato City, Tokyo 105-0022, Japan",
        "latitude": 35.6549505,
        "longitude": 139.7587206
    },
    {
        "category": "gardens",
        "title": "Mejiro Garden",
        "rating": 4.4,
        "address": "3 Chome-20-18 Mejiro, Toshima City, Tokyo 171-0031, Japan",
        "latitude": 35.7244731,
        "longitude": 139.70553289999998
    },
    {
        "category": "gardens",
        "title": "Shinjuku Gyoen National Garden",
        "rating": 4.6,
        "address": "11 Naitomachi, Shinjuku City, Tokyo 160-0014, Japan",
        "latitude": 35.685176299999995,
        "longitude": 139.71005169999998
    },
    {
        "category": "gardens",
        "title": "Former Yasuda Garden",
        "rating": 4.2,
        "address": "1 Chome-12-1 Yokoami, Sumida City, Tokyo 130-0015, Japan",
        "latitude": 35.6983511,
        "longitude": 139.7937567
    },
    {
        "category": "gardens",
        "title": "Mōri Garden",
        "rating": 4.1,
        "address": "6 Chome-10-1 Roppongi, Minato City, Tokyo 106-6108, Japan",
        "latitude": 35.6603225,
        "longitude": 139.7304934
    },
    {
        "category": "gardens",
        "title": "Tonogayato Garden",
        "rating": 4.2,
        "address": "2 Chome-16 Minamicho, Kokubunji, Tokyo 185-0021, Japan",
        "latitude": 35.6985591,
        "longitude": 139.4820138
    },
    {
        "category": "gardens",
        "title": "Kokyo Gaien National Garden",
        "rating": 4.4,
        "address": "1-1 Kokyogaien, Chiyoda City, Tokyo 100-0002, Japan",
        "latitude": 35.680116999999996,
        "longitude": 139.7583125
    },
    {
        "category": "gardens",
        "title": "Meiji Jingu Gyoen",
        "rating": 4.5,
        "address": "1-1 Yoyogikamizonocho, Shibuya, Tokyo 151-8557, Japan",
        "latitude": 35.673961299999995,
        "longitude": 139.70048509999998
    },
    {
        "category": "gardens",
        "title": "Japanese Garden",
        "rating": 4.7,
        "address": "6 Chome-1-1 Sendagaya, Shibuya, Tokyo 151-0051, Japan",
        "latitude": 35.685243899999996,
        "longitude": 139.7076319
    },
    {
        "category": "gardens",
        "title": "Kyū-Iwasaki-tei Gardens",
        "rating": 4.2,
        "address": "1 Chome-3-45 Ikenohata, Taito City, Tokyo 110-0008, Japan",
        "latitude": 35.7099507,
        "longitude": 139.7675841
    },
    {
        "category": "gardens",
        "title": "Midtown Garden",
        "rating": 4.4,
        "address": "9 Chome-7-1 Akasaka, Minato City, Tokyo 107-0052, Japan",
        "latitude": 35.6672495,
        "longitude": 139.7304848
    },
    {
        "category": "gardens",
        "title": "Main Garden",
        "rating": 4.6,
        "address": "2 Chome-1-1 Motoakasaka, Minato City, Tokyo 107-0051, Japan",
        "latitude": 35.679427,
        "longitude": 139.72862379999998
    },
    {
        "category": "gardens",
        "title": "Ninomaru Garden",
        "rating": 4.6,
        "address": "1-1 Chiyoda, Chiyoda City, Tokyo 100-0001, Japan",
        "latitude": 35.6876106,
        "longitude": 139.7589623
    },
    {
        "category": "zoo",
        "title": "Ueno Zoo",
        "rating": 4.2,
        "address": "9-83 Uenokoen, Taito City, Tokyo 110-8711, Japan",
        "latitude": 35.716015299999995,
        "longitude": 139.77288199999998
    },
    {
        "category": "zoo",
        "title": "Tokyo Sea Life Park",
        "rating": 4.4,
        "address": "6 Chome-2-3 Rinkaicho, Edogawa City, Tokyo 134-8587, Japan",
        "latitude": 35.6398972,
        "longitude": 139.8621737
    },
    {
        "category": "zoo",
        "title": "Tama Zoological Park",
        "rating": 4.3,
        "address": "7 Chome-１-1 Hodokubo, Hino, Tokyo 191-0042, Japan",
        "latitude": 35.6496408,
        "longitude": 139.4032355
    },
    {
        "category": "zoo",
        "title": "Maxell Aqua Park Shinagawa",
        "rating": 4.3,
        "address": "品川プリンスホテル内, 4 Chome-10-30 Takanawa, Minato City, Tokyo 108-8611, Japan",
        "latitude": 35.6282839,
        "longitude": 139.7352393
    },
    {
        "category": "zoo",
        "title": "Sumida Aquarium",
        "rating": 4.2,
        "address": "東京スカイツリータウン・ソラマチ ５階～６階, 1 Chome-1-2 Oshiage, Sumida City, Tokyo 131-0045, Japan",
        "latitude": 35.7099301,
        "longitude": 139.8095855
    },
    {
        "category": "zoo",
        "title": "Inokashira Park Zoo",
        "rating": 4.2,
        "address": "1 Chome-17-6 Gotenyama, Musashino, Tokyo 180-0005, Japan",
        "latitude": 35.7007724,
        "longitude": 139.5727436
    },
    {
        "category": "zoo",
        "title": "Edogawa City Nature Zoo",
        "rating": 4.4,
        "address": "3 Chome-2-1 Kitakasai, Edogawa City, Tokyo 134-0081, Japan",
        "latitude": 35.6710488,
        "longitude": 139.8584021
    },
    {
        "category": "zoo",
        "title": "Sunshine Aquarium",
        "rating": 4.2,
        "address": "サンシャインシティワールドインポートマートビル 屋上, 3 Chome-1 Higashiikebukuro, Toshima City, Tokyo 170-8630, Japan",
        "latitude": 35.7289254,
        "longitude": 139.72015729999998
    },
    {
        "category": "adventure parks",
        "title": "Tokyo Dome City Attractions",
        "rating": 4.1,
        "address": "1 Chome-3-61 Koraku, Bunkyo City, Tokyo 112-8575, Japan",
        "latitude": 35.704369299999996,
        "longitude": 139.75425099999998
    },
    {
        "category": "adventure parks",
        "title": "Tokyo Joypolis",
        "rating": 4,
        "address": "Japan, 〒135-0091 Tokyo, Minato City, Daiba, 1 Chome−6−1 DECKS Tokyo Beach, 3F～5F",
        "latitude": 35.628659999999996,
        "longitude": 139.775364
    },
    {
        "category": "adventure parks",
        "title": "Tokyo Summerland",
        "rating": 4.1,
        "address": "600 Kamiyotsugi, Akiruno, Tokyo 197-0832, Japan",
        "latitude": 35.7179766,
        "longitude": 139.2742214
    },
    {
        "category": "adventure parks",
        "title": "Asakusa Hanayashiki",
        "rating": 4.1,
        "address": "2 Chome-28-1 Asakusa, Taito City, Tokyo 111-0032, Japan",
        "latitude": 35.7154609,
        "longitude": 139.7948774
    },
    {
        "category": "adventure parks",
        "title": "Yomiuri Land",
        "rating": 4.2,
        "address": "4015-1 Yanokuchi, Inagi, Tokyo 206-8566, Japan",
        "latitude": 35.6241203,
        "longitude": 139.5174006
    },
    {
        "category": "adventure parks",
        "title": "Arakawa Amusement Park",
        "rating": 4.2,
        "address": "6 Chome-35-11 Nishiogu, Arakawa City, Tokyo 116-0011, Japan",
        "latitude": 35.7533978,
        "longitude": 139.7580309
    },
    {
        "category": "adventure parks",
        "title": "Mini Amusement Park",
        "rating": 4.6,
        "address": "1 Chome-17-6 Gotenyama, Musashino, Tokyo 180-0005, Japan",
        "latitude": 35.7014838,
        "longitude": 139.5699129
    },
    {
        "category": "adventure parks",
        "title": "Tokyo Disneyland",
        "rating": 4.6,
        "address": "1-1 Maihama, Urayasu, Chiba 279-0031, Japan",
        "latitude": 35.6328964,
        "longitude": 139.8803943
    },
    {
        "category": "adventure parks",
        "title": "Little Planet Diver City Tokyo Plaza",
        "rating": 4.1,
        "address": "ダイバーシティ東京プラザ ５F, 1 Chome-1-10 Aomi, Koto City, Tokyo 135-0064, Japan",
        "latitude": 35.6247677,
        "longitude": 139.7758336
    },
    {
        "category": "adventure parks",
        "title": "LEGOLAND DISCOVERY CENTER Tokyo",
        "rating": 4.2,
        "address": "Japan, 〒135-0091 Tokyo, Minato City, Daiba, 1 Chome−6−1, デックス東京ビーチアイランドモール 3階",
        "latitude": 35.6288365,
        "longitude": 139.776083
    },
    {
        "category": "adventure parks",
        "title": "Tokyo Dome City",
        "rating": 4.2,
        "address": "1 Chome-3-61 Koraku, Bunkyo City, Tokyo 112-0004, Japan",
        "latitude": 35.7053406,
        "longitude": 139.7521112
    },
    {
        "category": "adventure parks",
        "title": "Tokyo Disney Resort",
        "rating": 4.6,
        "address": "1-1 Maihama, Urayasu, Chiba 279-0031, Japan",
        "latitude": 35.630657899999996,
        "longitude": 139.8828695
    },
    {
        "category": "adventure parks",
        "title": "Kidzania Tokyo",
        "rating": 4.2,
        "address": "Japan, 〒135-8614 Tokyo, Koto City, Toyosu, 2 Chome−4−9, アーバンドック ららぽーと豊洲１ ノースポート３階",
        "latitude": 35.656345,
        "longitude": 139.79135449999998
    },
    {
        "category": "adventure parks",
        "title": "Shinagawa Children's Adventure Park",
        "rating": 4.4,
        "address": "3 Chome-2 Katsushima, Shinagawa City, Tokyo 140-0012, Japan",
        "latitude": 35.5921021,
        "longitude": 139.7387435
    },
    {
        "category": "adventure parks",
        "title": "Tokyo DisneySea",
        "rating": 4.6,
        "address": "1-13 Maihama, Urayasu, Chiba 279-8511, Japan",
        "latitude": 35.6267108,
        "longitude": 139.8850779
    },
    {
        "category": "adventure parks",
        "title": "Sanrio Puroland",
        "rating": 4.2,
        "address": "1 Chome-31 Ochiai, Tama, Tokyo 206-8588, Japan",
        "latitude": 35.624511999999996,
        "longitude": 139.429293
    },
    {
        "category": "adventure parks",
        "title": "Water Symphony",
        "rating": 4.2,
        "address": "1 Chome-3-61 Koraku, Bunkyo City, Tokyo 112-0003, Japan",
        "latitude": 35.7064652,
        "longitude": 139.7536974
    },
    {
        "category": "adventure parks",
        "title": "Shinjuku Niagara Falls",
        "rating": 3.9,
        "address": "2 Chome-11 Nishishinjuku, Shinjuku City, Tokyo 160-0023, Japan",
        "latitude": 35.6900808,
        "longitude": 139.6896301
    },
    {
        "category": "adventure parks",
        "title": "TOKYO MEGA ILLUMINATION",
        "rating": 4.3,
        "address": "2 Chome-1 Katsushima, Shinagawa City, Tokyo 140-0012, Japan",
        "latitude": 35.5957441,
        "longitude": 139.7446623
    },
    {
        "category": "adventure parks",
        "title": "Tokyo Asobi Mare",
        "rating": 4,
        "address": "ビア長池 新館, 2 Chome-1-番 Bessho, Hachioji, Tokyo 192-0363, Japan",
        "latitude": 35.6239349,
        "longitude": 139.4001391
    },
    {
        "category": "hot springs",
        "title": "Maenohara Onsen Sayano Yudokoro",
        "rating": 4.2,
        "address": "3 Chome-41-1 Maenocho, Itabashi City, Tokyo 174-0063, Japan",
        "latitude": 35.7707719,
        "longitude": 139.692638
    },
    {
        "category": "hot springs",
        "title": "Toki-no-irodori Natural Hot Spring Inagi",
        "rating": 4,
        "address": "6 Chome-１３ Koyodai, Inagi, Tokyo 206-0803, Japan",
        "latitude": 35.6457337,
        "longitude": 139.4893801
    },
    {
        "category": "hot springs",
        "title": "Tokyo Somei Onsen SAKURA",
        "rating": 4,
        "address": "5 Chome-4-24 Komagome, Toshima City, Tokyo 170-0003, Japan",
        "latitude": 35.7378558,
        "longitude": 139.7391495
    },
    {
        "category": "hot springs",
        "title": "Natural hot spring Heiwajima",
        "rating": 3.8,
        "address": "Japan, 〒143-0006 Tokyo, Ota City, Heiwajima, 1 Chome−1−1, ビッグファン平和島２F",
        "latitude": 35.5847386,
        "longitude": 139.74080659999998
    },
    {
        "category": "hot springs",
        "title": "Thermae-Yu",
        "rating": 4.1,
        "address": "テルマー湯内 B1F, 1 Chome-1-2 Kabukicho, Shinjuku City, Tokyo 160-0021, Japan",
        "latitude": 35.694525999999996,
        "longitude": 139.7051388
    },
    {
        "category": "hot springs",
        "title": "Tokyo Tennen Onsen - Kodai Hot Spring",
        "rating": 3.6,
        "address": "4 Chome-2-1 Okudo, Katsushika City, Tokyo 124-0022, Japan",
        "latitude": 35.7289702,
        "longitude": 139.86281309999998
    },
    {
        "category": "hot springs",
        "title": "Spa LaQua",
        "rating": 4,
        "address": "ラクーアビル 6F, 1 Chome-1-1 Kasuga, Bunkyo City, Tokyo 112-0003, Japan",
        "latitude": 35.7071196,
        "longitude": 139.7531492
    },
    {
        "category": "hot springs",
        "title": "Manyo Club (Toyosu)",
        "rating": 4,
        "address": "6 Chome-5-1 Toyosu, Koto City, Tokyo 135-0061, Japan",
        "latitude": 35.6461872,
        "longitude": 139.7831588
    },
    {
        "category": "hot springs",
        "title": "Toshimaen Niwa-no-yu",
        "rating": 4.2,
        "address": "3 Chome-25-1 Koyama, Nerima City, Tokyo 176-8531, Japan",
        "latitude": 35.7438303,
        "longitude": 139.6481385
    },
    {
        "category": "hot springs",
        "title": "Azabu Kokubisui Hot Spring Takenoyu",
        "rating": 4.2,
        "address": "1 Chome-15-12 Minamiazabu, Minato City, Tokyo 106-0047, Japan",
        "latitude": 35.651451699999996,
        "longitude": 139.7342565
    },
    {
        "category": "hot springs",
        "title": "Nagomi no Yu",
        "rating": 3.8,
        "address": "1 Chome-10-10 Kamiogi, Suginami City, Tokyo 167-0043, Japan",
        "latitude": 35.7047941,
        "longitude": 139.6183582
    },
    {
        "category": "hot springs",
        "title": "Onsen Yumorinosato",
        "rating": 4,
        "address": "2 Chome-１２-2 Jindaiji Motomachi, Chofu, Tokyo 182-0017, Japan",
        "latitude": 35.664029,
        "longitude": 139.5485621
    },
    {
        "category": "hot springs",
        "title": "Prus Sauna",
        "rating": 4.8,
        "address": "東急歌舞伎町タワ 5F, 1 Chome-29-1 Kabukicho, Shinjuku City, Tokyo 160-0021, Japan",
        "latitude": 35.6959672,
        "longitude": 139.7005495
    },
    {
        "category": "hot springs",
        "title": "Sengawa Yukemuri-no-sato",
        "rating": 3.6,
        "address": "2 Chome-１１-2 Wakabacho, Chofu, Tokyo 182-0003, Japan",
        "latitude": 35.657496699999996,
        "longitude": 139.58754299999998
    },
    {
        "category": "hot springs",
        "title": "Onyado Nono Asakusa",
        "rating": 4.4,
        "address": "2 Chome-7-20 Asakusa, Taito City, Tokyo 111-0032, Japan",
        "latitude": 35.715213999999996,
        "longitude": 139.7942107
    },
    {
        "category": "hot springs",
        "title": "Tenjinyu",
        "rating": 3.7,
        "address": "ルネスアヴニール, 2 Chome-23-9 Kitashinagawa, Shinagawa City, Tokyo 140-0001, Japan",
        "latitude": 35.617914299999995,
        "longitude": 139.74334389999999
    },
    {
        "category": "hot springs",
        "title": "Musashi Koyama Onsen Shimizuyu",
        "rating": 3.9,
        "address": "3 Chome-9-1 Koyama, Shinagawa City, Tokyo 142-0062, Japan",
        "latitude": 35.6201922,
        "longitude": 139.7076755
    },
    {
        "category": "hot springs",
        "title": "Keio Takaosan Onsen Gokurakuyu",
        "rating": 4,
        "address": "2229番７ Takaomachi, Hachioji, Tokyo 193-0844, Japan",
        "latitude": 35.632230899999996,
        "longitude": 139.2694859
    },
    {
        "category": "hot springs",
        "title": "Hasunuma Onsen",
        "rating": 4.2,
        "address": "6 Chome-16-11 Nishikamata, Ota City, Tokyo 144-0051, Japan",
        "latitude": 35.565432,
        "longitude": 139.708612
    },
    {
        "category": "hot springs",
        "title": "Minami Aoyama Shimizu-yu",
        "rating": 4,
        "address": "3 Chome-12-3 Minamiaoyama, Minato City, Tokyo 107-0062, Japan",
        "latitude": 35.666042999999995,
        "longitude": 139.714009
    },
    {
        "category": "shopping malls",
        "title": "DiverCity Tokyo Plaza",
        "rating": 4.2,
        "address": "1 Chome-1-10 Aomi, Koto City, Tokyo 135-0064, Japan",
        "latitude": 35.625316999999995,
        "longitude": 139.7756377
    },
    {
        "category": "shopping malls",
        "title": "Tokyo Solamachi",
        "rating": 4.2,
        "address": "1 Chome-1-2 Oshiage, Sumida City, Tokyo 131-0045, Japan",
        "latitude": 35.7102333,
        "longitude": 139.8115747
    },
    {
        "category": "shopping malls",
        "title": "First Avenue Tokyo Station",
        "rating": 4,
        "address": "1 Chome-9-1 Marunouchi, Chiyoda City, Tokyo 100-0005, Japan",
        "latitude": 35.682288899999996,
        "longitude": 139.7684903
    },
    {
        "category": "shopping malls",
        "title": "Shibuya Scramble Square",
        "rating": 4.2,
        "address": "2 Chome-24-12 Shibuya, Tokyo 150-0002, Japan",
        "latitude": 35.6584638,
        "longitude": 139.70226209999998
    },
    {
        "category": "shopping malls",
        "title": "Tokyo Midtown",
        "rating": 4.1,
        "address": "9 Chome-7-1 Akasaka, Minato City, Tokyo 107-0052, Japan",
        "latitude": 35.6659803,
        "longitude": 139.7308747
    },
    {
        "category": "shopping malls",
        "title": "Tokyu Plaza Ginza",
        "rating": 3.9,
        "address": "5 Chome-2-1 Ginza, Chuo City, Tokyo 104-0061, Japan",
        "latitude": 35.6722448,
        "longitude": 139.7624127
    },
    {
        "category": "shopping malls",
        "title": "GINZA SIX",
        "rating": 4,
        "address": "6 Chome-10-1 Ginza, Chuo City, Tokyo 104-0061, Japan",
        "latitude": 35.6697688,
        "longitude": 139.76417619999998
    },
    {
        "category": "shopping malls",
        "title": "Shibuya Parco",
        "rating": 4.3,
        "address": "渋谷パルコ・ヒューリックビル B1-10階, 15-1 Udagawacho, Shibuya, Tokyo 150-8377, Japan",
        "latitude": 35.662048399999996,
        "longitude": 139.6987767
    },
    {
        "category": "shopping malls",
        "title": "Yaechika (Yaesu Shopping Mall)",
        "rating": 3.8,
        "address": "2 Chome-1 Yaesu, Chuo City, Tokyo 104-0028, Japan",
        "latitude": 35.6802223,
        "longitude": 139.7692184
    },
    {
        "category": "shopping malls",
        "title": "Shibuya Hikarie",
        "rating": 3.9,
        "address": "2 Chome-21-1 Shibuya, Tokyo 150-8510, Japan",
        "latitude": 35.6591239,
        "longitude": 139.7037298
    },
    {
        "category": "shopping malls",
        "title": "Tokyo Midtown Hibiya",
        "rating": 4,
        "address": "1 Chome-1-2 Yurakucho, Chiyoda City, Tokyo 100-0006, Japan",
        "latitude": 35.6737436,
        "longitude": 139.75917619999998
    },
    {
        "category": "shopping malls",
        "title": "DECKS Tokyo Beach",
        "rating": 4,
        "address": "1 Chome-6-1 Daiba, Minato City, Tokyo 135-0091, Japan",
        "latitude": 35.6290584,
        "longitude": 139.7759965
    },
    {
        "category": "shopping malls",
        "title": "Tokyu Plaza Omotesando\"OMOKADO\"",
        "rating": 4.1,
        "address": "4 Chome-30-3 Jingumae, Shibuya, Tokyo 150-0001, Japan",
        "latitude": 35.6687294,
        "longitude": 139.7059549
    },
    {
        "category": "shopping malls",
        "title": "Laforet Harajuku",
        "rating": 4,
        "address": "1 Chome-11-6 Jingumae, Shibuya, Tokyo 150-0001, Japan",
        "latitude": 35.669210899999996,
        "longitude": 139.70526139999998
    },
    {
        "category": "shopping malls",
        "title": "Shibuya 109",
        "rating": 4,
        "address": "2 Chome-29-1 Dogenzaka, Shibuya, Tokyo 150-0043, Japan",
        "latitude": 35.6595771,
        "longitude": 139.698728
    },
    {
        "category": "shopping malls",
        "title": "Caretta Shiodome",
        "rating": 3.9,
        "address": "1 Chome-8-2 Higashishinbashi, Minato City, Tokyo 105-7090, Japan",
        "latitude": 35.6644594,
        "longitude": 139.7625223
    },